$GPGGA,133304.000,6515.3834,N,01424.9812,W,1,11,0.8,50.7,M,58.8,M,,0000*7D
$GPGSA,A,3,29,21,31,23,07,30,06,13,16,05,03,,1.5,0.8,1.3*36
$GPRMC,133304.000,A,6515.3834,N,01424.9812,W,31.77,52.31,020912,,,A*7F
$GPGGA,133305.000,6515.3888,N,01424.9651,W,1,11,0.8,50.4,M,58.8,M,,0000*71
$GPGSA,A,3,29,21,31,23,07,30,06,13,16,05,03,,1.5,0.8,1.3*36
$GPRMC,133305.000,A,6515.3888,N,01424.9651,W,31.38,50.65,020912,,,A*78
$GPGGA,133306.000,6515.3944,N,01424.9495,W,1,11,0.8,50.1,M,58.8,M,,0000*7C
$GPGSA,A,3,29,21,31,23,07,30,06,13,16,05,03,,1.5,0.8,1.3*36
$GPRMC,133306.000,A,6515.3944,N,01424.9495,W,31.13,49.06,020912,,,A*74
$GPGGA,133307.000,6515.4000,N,01424.9343,W,1,11,0.8,49.8,M,58.8,M,,0000*7E
$GPGSA,A,3,29,21,31,23,07,30,06,13,16,05,03,,1.5,0.8,1.3*36
$GPRMC,133307.000,A,6515.4000,N,01424.9343,W,30.88,47.85,020912,,,A*71
$GPGGA,133308.000,6515.4058,N,01424.9197,W,1,11,0.8,49.4,M,58.8,M,,0000*7B
$GPGSA,A,3,29,21,31,23,07,30,06,13,16,05,03,,1.5,0.8,1.3*36
$GPGSV,3,1,12,30,69,182,35,16,61,264,28,21,46,126,37,06,35,233,25*76
$GPGSV,3,2,12,29,26,073,38,13,25,305,23,05,20,029,33,03,20,243,30*72
$GPGSV,3,3,12,31,14,181,33,23,14,272,28,07,10,328,22,10,02,340,*77
$GPRMC,133308.000,A,6515.4058,N,01424.9197,W,30.68,45.91,020912,,,A*71
$GPGGA,133309.000,6515.4118,N,01424.9059,W,1,11,0.8,48.9,M,58.8,M,,0000*70
$GPGSA,A,3,29,21,31,23,07,30,06,13,16,05,03,,1.5,0.8,1.3*36
$GPRMC,133309.000,A,6515.4118,N,01424.9059,W,30.41,43.29,020912,,,A*78
$GPGGA,133310.000,6515.4179,N,01424.8927,W,1,11,0.8,48.3,M,58.8,M,,0000*74
$GPGSA,A,3,29,21,31,23,07,30,06,13,16,05,03,,1.5,0.8,1.3*36
$GPRMC,133310.000,A,6515.4179,N,01424.8927,W,29.87,41.58,020912,,,A*70
$GPGGA,133311.000,6515.4241,N,01424.8802,W,1,11,0.8,47.6,M,58.8,M,,0000*71
$GPGSA,A,3,29,21,31,23,07,30,06,13,16,05,03,,1.5,0.8,1.3*36
$GPRMC,133311.000,A,6515.4241,N,01424.8802,W,29.27,39.86,020912,,,A*79
$GPGGA,133312.000,6515.4303,N,01424.8683,W,1,11,0.8,46.9,M,58.8,M,,0000*7C
$GPGSA,A,3,29,21,31,23,07,30,06,13,16,05,03,,1.5,0.8,1.3*36
$GPRMC,133312.000,A,6515.4303,N,01424.8683,W,28.77,38.48,020912,,,A*7D
$GPGGA,133313.000,6515.4365,N,01424.8567,W,1,11,0.8,46.0,M,58.8,M,,0000*7D
$GPGSA,A,3,29,21,31,23,07,30,06,13,16,05,03,,1.5,0.8,1.3*36
$GPGSV,3,1,12,30,68,180,35,16,61,263,23,21,46,125,37,06,36,233,27*7B
$GPGSV,3,2,12,29,25,073,33,13,25,304,36,03,20,243,30,05,20,029,35*79
$GPGSV,3,3,12,31,13,181,27,23,13,271,26,07,10,328,30,10,02,340,*7C
$GPRMC,133313.000,A,6515.4365,N,01424.8567,W,28.64,37.62,020912,,,A*70
$GPGGA,133314.000,6515.4428,N,01424.8453,W,1,11,0.8,44.9,M,58.8,M,,0000*79
$GPGSA,A,3,29,21,31,23,07,30,06,13,16,05,03,,1.5,0.8,1.3*36
$GPRMC,133314.000,A,6515.4428,N,01424.8453,W,28.74,36.79,020912,,,A*75
$GPGGA,133315.000,6515.4493,N,01424.8338,W,1,11,0.8,43.8,M,58.8,M,,0000*74
$GPGSA,A,3,29,21,31,23,07,30,06,13,16,05,03,,1.5,0.8,1.3*36
$GPRMC,133315.000,A,6515.4493,N,01424.8338,W,29.16,36.57,020912,,,A*77
$GPGGA,133316.000,6515.4558,N,01424.8220,W,1,11,0.8,42.7,M,58.8,M,,0000*77
$GPGSA,A,3,29,21,31,23,07,30,06,13,16,05,03,,1.5,0.8,1.3*36
$GPRMC,133316.000,A,6515.4558,N,01424.8220,W,29.69,36.76,020912,,,A*71
$GPGGA,133317.000,6515.4625,N,01424.8101,W,1,11,0.8,41.5,M,58.8,M,,0000*7E
$GPGSA,A,3,29,21,31,23,07,30,06,13,16,05,03,,1.5,0.8,1.3*36
$GPRMC,133317.000,A,6515.4625,N,01424.8101,W,30.21,36.54,020912,,,A*7D
$GPGGA,133318.000,6515.4693,N,01424.7982,W,1,11,0.8,40.4,M,58.8,M,,0000*70
$GPGSA,A,3,29,21,31,23,07,30,06,13,16,05,03,,1.5,0.8,1.3*36
$GPGSV,3,1,12,30,68,180,29,16,61,263,36,21,46,125,38,06,36,233,24*7E
$GPGSV,3,2,12,29,25,073,33,13,25,304,29,03,20,243,21,05,20,029,36*74
$GPGSV,3,3,12,31,13,181,26,23,13,271,34,07,10,328,26,10,02,340,23*78
$GPRMC,133318.000,A,6515.4693,N,01424.7982,W,30.68,36.02,020912,,,A*7D
$GPGGA,133319.000,6515.4763,N,01424.7863,W,1,11,0.8,39.5,M,58.8,M,,0000*7E
$GPGSA,A,3,29,21,31,23,07,30,06,13,16,05,03,,1.5,0.8,1.3*36
$GPRMC,133319.000,A,6515.4763,N,01424.7863,W,30.91,35.51,020912,,,A*7F
$GPGGA,133320.000,6515.4832,N,01424.7744,W,1,11,0.8,38.6,M,58.8,M,,0000*77
$GPGSA,A,3,29,21,31,23,07,30,06,13,16,05,03,,1.5,0.8,1.3*36
$GPRMC,133320.000,A,6515.4832,N,01424.7744,W,30.81,35.88,020912,,,A*71
$GPGGA,133321.000,6515.4900,N,01424.7627,W,1,11,0.8,37.9,M,58.8,M,,0000*72
$GPGSA,A,3,29,21,31,23,07,30,06,13,16,05,03,,1.5,0.8,1.3*36
$GPRMC,133321.000,A,6515.4900,N,01424.7627,W,30.60,35.55,020912,,,A*7B
$GPGGA,133322.000,6515.4969,N,01424.7511,W,1,11,0.8,37.3,M,58.8,M,,0000*72
$GPGSA,A,3,29,21,31,23,07,30,06,13,16,05,03,,1.5,0.8,1.3*36
$GPRMC,133322.000,A,6515.4969,N,01424.7511,W,30.61,35.42,020912,,,A*76
$GPGGA,133323.000,6515.5039,N,01424.7393,W,1,11,0.8,36.8,M,58.8,M,,0000*78
$GPGSA,A,3,29,21,31,23,07,30,06,13,16,05,03,,1.5,0.8,1.3*36
$GPGSV,3,1,12,30,68,180,33,16,61,263,36,21,46,125,39,06,36,233,27*77
$GPGSV,3,2,12,29,25,073,34,13,25,304,28,03,20,243,25,05,20,029,37*77
$GPGSV,3,3,12,31,13,181,26,23,13,271,33,07,10,328,28,10,02,340,15*74
$GPRMC,133323.000,A,6515.5039,N,01424.7393,W,31.00,35.39,020912,,,A*7C
$GPGGA,133324.000,6515.5109,N,01424.7273,W,1,11,0.8,36.3,M,58.8,M,,0000*79
$GPGSA,A,3,29,21,31,23,07,30,06,13,16,05,03,,1.5,0.8,1.3*36
$GPRMC,133324.000,A,6515.5109,N,01424.7273,W,31.39,35.76,020912,,,A*77
$GPGGA,133325.000,6515.5181,N,01424.7152,W,1,11,0.8,35.8,M,58.8,M,,0000*70
$GPGSA,A,3,29,21,31,23,07,30,06,13,16,05,03,,1.5,0.8,1.3*36
$GPRMC,133325.000,A,6515.5181,N,01424.7152,W,31.73,35.61,020912,,,A*7E
$GPGGA,133326.000,6515.5252,N,01424.7029,W,1,11,0.8,35.4,M,58.8,M,,0000*7F
$GPGSA,A,3,29,21,31,23,07,30,06,13,16,05,03,,1.5,0.8,1.3*36
$GPRMC,133326.000,A,6515.5252,N,01424.7029,W,31.96,35.87,020912,,,A*7E
$GPGGA,133327.000,6515.5324,N,01424.6906,W,1,11,0.8,35.0,M,58.8,M,,0000*7F
$GPGSA,A,3,29,21,31,23,07,30,06,13,16,05,03,,1.5,0.8,1.3*36
$GPRMC,133327.000,A,6515.5324,N,01424.6906,W,32.08,36.05,020912,,,A*77
$GPGGA,133328.000,6515.5396,N,01424.6782,W,1,11,0.8,34.7,M,58.8,M,,0000*7D
$GPGSA,A,3,29,21,31,23,07,30,06,13,16,05,03,,1.5,0.8,1.3*36
$GPGSV,3,1,12,30,68,180,33,16,61,263,36,21,46,125,39,06,36,233,33*72
$GPGSV,3,2,12,29,25,073,35,13,25,304,29,03,20,243,27,05,20,029,37*75
$GPGSV,3,3,12,31,13,181,26,23,13,271,32,07,10,328,28,10,02,340,20*73
$GPRMC,133328.000,A,6515.5396,N,01424.6782,W,32.07,36.02,020912,,,A*7B
$GPGGA,133329.000,6515.5467,N,01424.6660,W,1,11,0.8,34.4,M,58.8,M,,0000*7B
$GPGSA,A,3,29,21,31,23,07,30,06,13,16,05,03,,1.5,0.8,1.3*36
$GPRMC,133329.000,A,6515.5467,N,01424.6660,W,31.78,35.99,020912,,,A*74
$GPGGA,133330.000,6515.5538,N,01424.6539,W,1,11,0.8,34.1,M,58.8,M,,0000*72
$GPGSA,A,3,29,21,31,23,07,30,06,13,16,05,03,,1.5,0.8,1.3*36
$GPRMC,133330.000,A,6515.5538,N,01424.6539,W,31.60,35.97,020912,,,A*7F
$GPGGA,133331.000,6515.5609,N,01424.6417,W,1,11,0.8,33.9,M,58.8,M,,0000*70
$GPGSA,A,3,29,21,31,23,07,30,06,13,16,05,03,,1.5,0.8,1.3*36
$GPRMC,133331.000,A,6515.5609,N,01424.6417,W,31.70,35.98,020912,,,A*7C
$GPGGA,133332.000,6515.5680,N,01424.6295,W,1,11,0.8,33.7,M,58.8,M,,0000*70
$GPGSA,A,3,29,21,31,23,07,30,06,13,16,05,03,,1.5,0.8,1.3*36
$GPRMC,133332.000,A,6515.5680,N,01424.6295,W,31.77,35.89,020912,,,A*75
$GPGGA,133333.000,6515.5751,N,01424.6174,W,1,11,0.8,33.6,M,58.8,M,,0000*71
$GPGSA,A,3,29,21,31,23,07,30,06,13,16,05,03,,1.5,0.8,1.3*36
$GPGSV,3,1,12,30,68,180,33,16,61,263,36,21,46,125,39,06,36,233,33*72
$GPGSV,3,2,12,29,25,073,35,13,25,304,29,03,20,243,28,05,20,029,37*7A
$GPGSV,3,3,12,31,13,181,26,23,13,271,33,07,10,328,29,10,02,340,24*77
$GPRMC,133333.000,A,6515.5751,N,01424.6174,W,31.80,35.78,020912,,,A*73
$GPGGA,133334.000,6515.5823,N,01424.6054,W,1,11,0.8,33.5,M,58.8,M,,0000*7C
$GPGSA,A,3,29,21,31,23,07,30,06,13,16,05,03,,1.5,0.8,1.3*36
$GPRMC,133334.000,A,6515.5823,N,01424.6054,W,31.68,35.55,020912,,,A*74
$GPGGA,133335.000,6515.5894,N,01424.5934,W,1,11,0.8,33.4,M,58.8,M,,0000*7C
$GPGSA,A,3,29,21,31,23,07,30,06,13,16,05,03,,1.5,0.8,1.3*36
$GPRMC,133335.000,A,6515.5894,N,01424.5934,W,31.66,35.31,020912,,,A*79
$GPGGA,133336.000,6515.5965,N,01424.5815,W,1,11,0.8,33.4,M,58.8,M,,0000*72
$GPGSA,A,3,29,21,31,23,07,30,06,13,16,05,03,,1.5,0.8,1.3*36
$GPRMC,133336.000,A,6515.5965,N,01424.5815,W,31.44,35.34,020912,,,A*72
$GPGGA,133337.000,6515.6035,N,01424.5698,W,1,11,0.8,33.4,M,58.8,M,,0000*77
$GPGSA,A,3,29,21,31,23,07,30,06,13,16,05,03,,1.5,0.8,1.3*36
$GPRMC,133337.000,A,6515.6035,N,01424.5698,W,30.90,35.41,020912,,,A*7D
$GPGGA,133338.000,6515.6104,N,01424.5582,W,1,11,0.8,33.4,M,58.8,M,,0000*73
$GPGSA,A,3,29,21,31,23,07,30,06,13,16,05,03,,1.5,0.8,1.3*36
$GPGSV,3,1,12,30,68,180,30,16,61,263,36,21,46,125,39,06,36,233,30*72
$GPGSV,3,2,12,29,25,073,35,13,25,304,30,03,20,243,29,05,20,029,37*73
$GPGSV,3,3,12,31,13,181,26,23,13,271,33,07,10,328,29,10,02,340,17*77
$GPRMC,133338.000,A,6515.6104,N,01424.5582,W,30.47,35.41,020912,,,A*73
$GPGGA,133339.000,6515.6173,N,01424.5469,W,1,10,1.0,33.5,M,58.8,M,,0000*7F
$GPGSA,A,3,29,21,23,07,30,06,13,16,05,03,,,2.0,1.0,1.7*3F
$GPRMC,133339.000,A,6515.6173,N,01424.5469,W,30.19,34.97,020912,,,A*77
$GPGGA,133340.000,6515.6240,N,01424.5358,W,1,11,0.8,33.5,M,58.8,M,,0000*7F
$GPGSA,A,3,29,21,31,23,07,30,06,13,16,05,03,,1.5,0.8,1.3*36
$GPRMC,133340.000,A,6515.6240,N,01424.5358,W,29.71,34.72,020912,,,A*72
$GPGGA,133341.000,6515.6306,N,01424.5246,W,1,10,0.8,33.5,M,58.8,M,,0000*72
$GPGSA,A,3,29,21,31,23,30,06,13,16,05,03,,,1.6,0.8,1.3*32
$GPRMC,133341.000,A,6515.6306,N,01424.5246,W,29.24,35.45,020912,,,A*7B
$GPGGA,133342.000,6515.6372,N,01424.5133,W,1,11,0.8,33.4,M,58.8,M,,0000*73
$GPGSA,A,3,29,21,31,23,07,30,06,13,16,05,03,,1.5,0.8,1.3*36
$GPRMC,133342.000,A,6515.6372,N,01424.5133,W,29.20,36.11,020912,,,A*7C
$GPGGA,133343.000,6515.6437,N,01424.5021,W,1,11,0.8,33.3,M,58.8,M,,0000*71
$GPGSA,A,3,29,21,31,23,07,30,06,13,16,05,03,,1.5,0.8,1.3*36
$GPGSV,3,1,12,30,68,180,36,16,61,263,31,21,46,125,39,06,36,233,35*76
$GPGSV,3,2,12,29,25,073,35,13,25,304,31,03,20,243,23,05,20,029,38*77
$GPGSV,3,3,12,31,13,181,31,23,13,271,33,07,10,328,29,10,02,340,18*7E
$GPRMC,133343.000,A,6515.6437,N,01424.5021,W,29.01,36.01,020912,,,A*7B
$GPGGA,133344.000,6515.6501,N,01424.4910,W,1,11,0.8,33.3,M,58.8,M,,0000*78
$GPGSA,A,3,29,21,31,23,07,30,06,13,16,05,03,,1.5,0.8,1.3*36
$GPRMC,133344.000,A,6515.6501,N,01424.4910,W,28.64,36.28,020912,,,A*7B
$GPGGA,133345.000,6515.6564,N,01424.4803,W,1,11,0.8,33.1,M,58.8,M,,0000*7B
$GPGSA,A,3,29,21,31,23,07,30,06,13,16,05,03,,1.5,0.8,1.3*36
$GPRMC,133345.000,A,6515.6564,N,01424.4803,W,28.13,35.22,020912,,,A*73
$GPGGA,133346.000,6515.6628,N,01424.4703,W,1,11,0.8,33.0,M,58.8,M,,0000*7D
$GPGSA,A,3,29,21,31,23,07,30,06,13,16,05,03,,1.5,0.8,1.3*36
$GPRMC,133346.000,A,6515.6628,N,01424.4703,W,27.65,33.02,020912,,,A*7E
$GPGGA,133347.000,6515.6693,N,01424.4612,W,1,11,0.8,32.9,M,58.8,M,,0000*75
$GPGSA,A,3,29,21,31,23,07,30,06,13,16,05,03,,1.5,0.8,1.3*36
$GPRMC,133347.000,A,6515.6693,N,01424.4612,W,27.03,30.70,020912,,,A*78
$GPGGA,133348.000,6515.6758,N,01424.4529,W,1,11,0.8,32.8,M,58.8,M,,0000*76
$GPGSA,A,3,29,21,31,23,07,30,06,13,16,05,03,,1.5,0.8,1.3*36
$GPGSV,3,1,12,30,68,179,35,16,62,262,28,21,47,124,40,06,37,233,26*74
$GPGSV,3,2,12,13,25,303,28,29,25,073,30,03,21,243,27,05,20,028,37*76
$GPGSV,3,3,12,31,13,181,27,23,13,271,28,07,10,328,25,10,01,340,25*72
$GPRMC,133348.000,A,6515.6758,N,01424.4529,W,26.67,27.94,020912,,,A*75
$GPGGA,133349.000,6515.6825,N,01424.4456,W,1,11,0.8,32.7,M,58.8,M,,0000*74
$GPGSA,A,3,29,21,31,23,07,30,06,13,16,05,03,,1.5,0.8,1.3*36
$GPRMC,133349.000,A,6515.6825,N,01424.4456,W,26.46,24.33,020912,,,A*75
$GPGGA,133350.000,6515.6893,N,01424.4392,W,1,11,0.8,32.7,M,58.8,M,,0000*7E
$GPGSA,A,3,29,21,31,23,07,30,06,13,16,05,03,,1.5,0.8,1.3*36
$GPRMC,133350.000,A,6515.6893,N,01424.4392,W,26.48,21.57,020912,,,A*76
$GPGGA,133351.000,6515.6962,N,01424.4334,W,1,11,0.8,32.6,M,58.8,M,,0000*7D
$GPGSA,A,3,29,21,31,23,07,30,06,13,16,05,03,,1.5,0.8,1.3*36
$GPRMC,133351.000,A,6515.6962,N,01424.4334,W,26.61,18.66,020912,,,A*77
$GPGGA,133352.000,6515.7033,N,01424.4285,W,1,11,0.8,32.5,M,58.8,M,,0000*7A
$GPGSA,A,3,29,21,31,23,07,30,06,13,16,05,03,,1.5,0.8,1.3*36
$GPRMC,133352.000,A,6515.7033,N,01424.4285,W,26.54,16.16,020912,,,A*7C
$GPGGA,133353.000,6515.7103,N,01424.4241,W,1,11,0.8,32.4,M,58.8,M,,0000*70
$GPGSA,A,3,29,21,31,23,07,30,06,13,16,05,03,,1.5,0.8,1.3*36
$GPGSV,3,1,12,30,68,179,30,16,62,262,34,21,47,124,39,06,37,233,28*7C
$GPGSV,3,2,12,13,25,303,29,29,25,073,27,03,21,243,30,05,20,028,28*79
$GPGSV,3,3,12,31,13,181,29,23,13,271,31,07,10,328,30,10,01,340,29*7C
$GPRMC,133353.000,A,6515.7103,N,01424.4241,W,26.37,13.97,020912,,,A*7E
$GPGGA,133354.000,6515.7173,N,01424.4202,W,1,11,0.8,32.3,M,58.8,M,,0000*70
$GPGSA,A,3,29,21,31,23,07,30,06,13,16,05,03,,1.5,0.8,1.3*36
$GPRMC,133354.000,A,6515.7173,N,01424.4202,W,25.75,13.09,020912,,,A*7B
$GPGGA,133355.000,6515.7241,N,01424.4163,W,1,11,0.8,32.2,M,58.8,M,,0000*76
$GPGSA,A,3,29,21,31,23,07,30,06,13,16,05,03,,1.5,0.8,1.3*36
$GPRMC,133355.000,A,6515.7241,N,01424.4163,W,25.25,13.41,020912,,,A*75
$GPGGA,133356.000,6515.7307,N,01424.4125,W,1,11,0.8,32.2,M,58.8,M,,0000*74
$GPGSA,A,3,29,21,31,23,07,30,06,13,16,05,03,,1.5,0.8,1.3*36
$GPRMC,133356.000,A,6515.7307,N,01424.4125,W,24.64,13.17,020912,,,A*70
$GPGGA,133357.000,6515.7372,N,01424.4092,W,1,11,0.8,32.2,M,58.8,M,,0000*7A
$GPGSA,A,3,29,21,31,23,07,30,06,13,16,05,03,,1.5,0.8,1.3*36
$GPRMC,133357.000,A,6515.7372,N,01424.4092,W,24.04,12.00,020912,,,A*7F
$GPGGA,133358.000,6515.7433,N,01424.4061,W,1,11,0.8,32.1,M,58.8,M,,0000*78
$GPGSA,A,3,29,21,31,23,07,30,06,13,16,05,03,,1.5,0.8,1.3*36
$GPGSV,3,1,12,30,68,179,29,16,62,262,26,21,47,124,39,06,37,233,24*7B
$GPGSV,3,2,12,13,25,303,29,29,25,073,31,03,21,243,27,05,20,028,16*75
$GPGSV,3,3,12,31,13,181,21,23,13,271,37,07,10,328,30,10,01,340,32*78
$GPRMC,133358.000,A,6515.7433,N,01424.4061,W,22.52,11.72,020912,,,A*7D
$GPGGA,133359.000,6515.7489,N,01424.4032,W,1,11,0.8,32.1,M,58.8,M,,0000*7E
$GPGSA,A,3,29,21,31,23,07,30,06,13,16,05,03,,1.5,0.8,1.3*36
$GPRMC,133359.000,A,6515.7489,N,01424.4032,W,20.52,12.47,020912,,,A*7C
$GPGGA,133400.000,6515.7537,N,01424.4004,W,1,11,0.8,32.2,M,58.8,M,,0000*77
$GPGSA,A,3,29,21,31,23,07,30,06,13,16,05,03,,1.5,0.8,1.3*36
$GPRMC,133400.000,A,6515.7537,N,01424.4004,W,17.67,14.18,020912,,,A*78
$GPGGA,133401.000,6515.7574,N,01424.3975,W,1,11,0.8,32.3,M,58.8,M,,0000*78
$GPGSA,A,3,29,21,31,23,07,30,06,13,16,05,03,,1.5,0.8,1.3*36
$GPRMC,133401.000,A,6515.7574,N,01424.3975,W,13.76,18.34,020912,,,A*70
$GPGGA,133402.000,6515.7601,N,01424.3936,W,1,11,0.8,32.3,M,58.8,M,,0000*7D
$GPGSA,A,3,29,21,31,23,07,30,06,13,16,05,03,,1.5,0.8,1.3*36
$GPRMC,133402.000,A,6515.7601,N,01424.3936,W,11.11,32.71,020912,,,A*7F
$GPGGA,133403.000,6515.7620,N,01424.3881,W,1,11,0.8,32.3,M,58.8,M,,0000*72
$GPGSA,A,3,29,21,31,23,07,30,06,13,16,05,03,,1.5,0.8,1.3*36
$GPGSV,3,1,12,30,68,179,30,16,62,262,29,21,47,124,40,06,37,233,31*76
$GPGSV,3,2,12,13,25,303,29,29,25,073,29,03,21,243,28,05,20,028,34*73
$GPGSV,3,3,12,31,13,181,31,23,13,271,26,07,10,328,29,10,01,340,24*76
$GPRMC,133403.000,A,6515.7620,N,01424.3881,W,10.64,52.64,020912,,,A*71
$GPGGA,133404.000,6515.7631,N,01424.3815,W,1,10,0.9,32.4,M,58.8,M,,0000*7F
$GPGSA,A,3,21,31,23,07,30,06,13,16,05,03,,,1.6,0.9,1.3*3F
$GPRMC,133404.000,A,6515.7631,N,01424.3815,W,10.67,70.58,020912,,,A*77
$GPGGA,133405.000,6515.7638,N,01424.3750,W,1,11,0.8,32.5,M,58.8,M,,0000*78
$GPGSA,A,3,29,21,31,23,07,30,06,13,16,05,03,,1.5,0.8,1.3*36
$GPRMC,133405.000,A,6515.7638,N,01424.3750,W,10.32,77.34,020912,,,A*7C
$GPGGA,133406.000,6515.7647,N,01424.3689,W,1,11,0.8,32.6,M,58.8,M,,0000*75
$GPGSA,A,3,29,21,31,23,07,30,06,13,16,05,03,,1.5,0.8,1.3*36
$GPRMC,133406.000,A,6515.7647,N,01424.3689,W,9.70,72.71,020912,,,A*48
$GPGGA,133407.000,6515.7657,N,01424.3636,W,1,10,0.8,32.7,M,58.8,M,,0000*71
$GPGSA,A,3,29,21,31,07,30,06,13,16,05,03,,,1.6,0.8,1.4*33
$GPRMC,133407.000,A,6515.7657,N,01424.3636,W,8.79,67.45,020912,,,A*47
$GPGGA,133408.000,6515.7669,N,01424.3588,W,1,11,0.8,32.8,M,58.8,M,,0000*7B
$GPGSA,A,3,29,21,31,23,07,30,06,13,16,05,03,,1.5,0.8,1.3*36
$GPGSV,3,1,12,30,68,179,20,16,62,262,34,21,47,124,32,06,37,233,32*7D
$GPGSV,3,2,12,13,25,303,26,29,25,073,26,03,21,243,27,05,20,028,31*79
$GPGSV,3,3,12,31,13,181,29,23,13,271,28,07,10,328,29,10,01,340,29*7C
$GPRMC,133408.000,A,6515.7669,N,01424.3588,W,8.34,60.27,020912,,,A*49
$GPGGA,133409.000,6515.7683,N,01424.3545,W,1,11,0.8,32.8,M,58.8,M,,0000*7F
$GPGSA,A,3,29,21,31,23,07,30,06,13,16,05,03,,1.5,0.8,1.3*36
$GPRMC,133409.000,A,6515.7683,N,01424.3545,W,8.18,53.77,020912,,,A*46
$GPGGA,133410.000,6515.7698,N,01424.3503,W,1,11,0.8,32.8,M,58.8,M,,0000*7F
$GPGSA,A,3,29,21,31,23,07,30,06,13,16,05,03,,1.5,0.8,1.3*36
$GPRMC,133410.000,A,6515.7698,N,01424.3503,W,8.18,49.73,020912,,,A*49
$GPGGA,133411.000,6515.7712,N,01424.3464,W,1,11,0.8,32.8,M,58.8,M,,0000*7D
$GPGSA,A,3,29,21,31,23,07,30,06,13,16,05,03,,1.5,0.8,1.3*36
$GPRMC,133411.000,A,6515.7712,N,01424.3464,W,8.04,47.61,020912,,,A*4B
$GPGGA,133412.000,6515.7726,N,01424.3429,W,1,11,0.8,32.7,M,58.8,M,,0000*7F
$GPGSA,A,3,29,21,31,23,07,30,06,13,16,05,03,,1.5,0.8,1.3*36
$GPRMC,133412.000,A,6515.7726,N,01424.3429,W,7.37,45.86,020912,,,A*42
$GPGGA,133413.000,6515.7739,N,01424.3396,W,1,11,0.8,32.6,M,58.8,M,,0000*72
$GPGSA,A,3,29,21,31,23,07,30,06,13,16,05,03,,1.5,0.8,1.3*36
$GPGSV,3,1,12,30,68,179,27,16,62,262,30,21,47,124,39,06,37,233,33*74
$GPGSV,3,2,12,13,25,303,29,29,25,073,31,03,21,243,19,05,20,028,28*75
$GPGSV,3,3,12,31,13,181,34,23,13,271,23,07,10,328,24,10,01,340,26*79
$GPRMC,133413.000,A,6515.7739,N,01424.3396,W,6.84,45.41,020912,,,A*4C
$GPGGA,133414.000,6515.7751,N,01424.3368,W,1,11,0.8,32.6,M,58.8,M,,0000*7A
$GPGSA,A,3,29,21,31,23,07,30,06,13,16,05,03,,1.5,0.8,1.3*36
$GPRMC,133414.000,A,6515.7751,N,01424.3368,W,6.27,41.31,020912,,,A*4E
$GPGGA,133415.000,6515.7764,N,01424.3346,W,1,11,0.8,32.5,M,58.8,M,,0000*72
$GPGSA,A,3,29,21,31,23,07,30,06,13,16,05,03,,1.5,0.8,1.3*36
$GPRMC,133415.000,A,6515.7764,N,01424.3346,W,6.10,33.95,020912,,,A*4A
$GPGGA,133416.000,6515.7776,N,01424.3329,W,1,11,0.8,32.4,M,58.8,M,,0000*7A
$GPGSA,A,3,29,21,31,23,07,30,06,13,16,05,03,,1.5,0.8,1.3*36
$GPRMC,133416.000,A,6515.7776,N,01424.3329,W,5.14,27.75,020912,,,A*4F
$GPGGA,133417.000,6515.7786,N,01424.3319,W,1,11,0.8,32.3,M,58.8,M,,0000*70
$GPGSA,A,3,29,21,31,23,07,30,06,13,16,05,03,,1.5,0.8,1.3*36
$GPRMC,133417.000,A,6515.7786,N,01424.3319,W,4.14,20.78,020912,,,A*49
$GPGGA,133418.000,6515.7794,N,01424.3312,W,1,11,0.8,32.2,M,58.8,M,,0000*76
$GPGSA,A,3,29,21,31,23,07,30,06,13,16,05,03,,1.5,0.8,1.3*36
$GPGSV,3,1,12,30,68,179,28,16,62,262,33,21,47,124,39,06,37,233,32*79
$GPGSV,3,2,12,13,25,303,19,29,25,073,27,03,21,243,25,05,20,028,32*75
$GPGSV,3,3,12,31,13,181,23,23,13,271,29,07,10,328,25,10,01,340,22*70
$GPRMC,133418.000,A,6515.7794,N,01424.3312,W,3.10,17.53,020912,,,A*40
$GPGGA,133419.000,6515.7800,N,01424.3306,W,1,11,0.8,32.0,M,58.8,M,,0000*72
$GPGSA,A,3,29,21,31,23,07,30,06,13,16,05,03,,1.5,0.8,1.3*36
$GPRMC,133419.000,A,6515.7800,N,01424.3306,W,2.73,16.99,020912,,,A*45
$GPGGA,133420.000,6515.7807,N,01424.3302,W,1,11,0.8,31.9,M,58.8,M,,0000*71
$GPGSA,A,3,29,21,31,23,07,30,06,13,16,05,03,,1.5,0.8,1.3*36
$GPRMC,133420.000,A,6515.7807,N,01424.3302,W,2.85,13.80,020912,,,A*48
$GPGGA,133421.000,6515.7814,N,01424.3297,W,1,10,0.8,31.8,M,58.8,M,,0000*7F
$GPGSA,A,3,29,21,31,23,07,30,06,16,05,03,,,1.5,0.8,1.3*34
$GPRMC,133421.000,A,6515.7814,N,01424.3297,W,2.70,14.99,020912,,,A*43
$GPGGA,133422.000,6515.7821,N,01424.3291,W,1,11,0.8,31.8,M,58.8,M,,0000*7D
$GPGSA,A,3,29,21,31,23,07,30,06,13,16,05,03,,1.5,0.8,1.3*36
$GPRMC,133422.000,A,6515.7821,N,01424.3291,W,2.80,18.02,020912,,,A*41
$GPGGA,133423.000,6515.7829,N,01424.3284,W,1,11,0.8,31.7,M,58.8,M,,0000*7F
$GPGSA,A,3,29,21,31,23,07,30,06,13,16,05,03,,1.5,0.8,1.3*36
$GPGSV,3,1,12,30,68,179,29,16,62,262,28,21,47,124,39,06,37,233,34*74
$GPGSV,3,2,12,13,25,303,28,29,25,073,25,03,21,243,25,05,20,028,31*76
$GPGSV,3,3,12,31,13,181,26,23,13,271,29,07,10,328,26,10,01,340,23*77
$GPRMC,133423.000,A,6515.7829,N,01424.3284,W,3.13,19.25,020912,,,A*43
$GPGGA,133424.000,6515.7837,N,01424.3276,W,1,11,0.8,31.8,M,58.8,M,,0000*75
$GPGSA,A,3,29,21,31,23,07,30,06,13,16,05,03,,1.5,0.8,1.3*36
$GPRMC,133424.000,A,6515.7837,N,01424.3276,W,3.26,20.78,020912,,,A*42
$GPGGA,133425.000,6515.7845,N,01424.3269,W,1,11,0.8,31.8,M,58.8,M,,0000*7F
$GPGSA,A,3,29,21,31,23,07,30,06,13,16,05,03,,1.5,0.8,1.3*36
$GPRMC,133425.000,A,6515.7845,N,01424.3269,W,3.33,18.85,020912,,,A*45
$GPGGA,133426.000,6515.7853,N,01424.3263,W,1,11,0.8,31.9,M,58.8,M,,0000*70
$GPGSA,A,3,29,21,31,23,07,30,06,13,16,05,03,,1.5,0.8,1.3*36
$GPRMC,133426.000,A,6515.7853,N,01424.3263,W,3.14,17.12,020912,,,A*4F
$GPGGA,133427.000,6515.7861,N,01424.3258,W,1,11,0.8,31.9,M,58.8,M,,0000*78
$GPGSA,A,3,29,21,31,23,07,30,06,13,16,05,03,,1.5,0.8,1.3*36
$GPRMC,133427.000,A,6515.7861,N,01424.3258,W,2.79,16.85,020912,,,A*42
$GPGGA,133428.000,6515.7867,N,01424.3256,W,1,11,0.8,32.0,M,58.8,M,,0000*75
$GPGSA,A,3,29,21,31,23,07,30,06,13,16,05,03,,1.5,0.8,1.3*36
$GPGSV,3,1,12,30,68,179,28,16,62,262,28,21,47,124,39,06,37,233,35*74
$GPGSV,3,2,12,13,25,303,30,29,25,073,28,03,21,243,27,05,20,028,26*76
$GPGSV,3,3,12,31,13,181,29,23,13,271,29,07,10,328,31,10,01,340,28*75
$GPRMC,133428.000,A,6515.7867,N,01424.3256,W,2.32,6.00,020912,,,A*76
$GPGGA,133429.000,6515.7869,N,01424.3255,W,1,11,0.8,32.0,M,58.8,M,,0000*79
$GPGSA,A,3,29,21,31,23,07,30,06,13,16,05,03,,1.5,0.8,1.3*36
$GPRMC,133429.000,A,6515.7869,N,01424.3255,W,1.08,8.95,020912,,,A*72
$GPGGA,133430.000,6515.7870,N,01424.3253,W,1,11,0.8,32.0,M,58.8,M,,0000*7F
$GPGSA,A,3,29,21,31,23,07,30,06,13,16,05,03,,1.5,0.8,1.3*36
$GPRMC,142344.000,A,6515.7874,N,01424.3192,W,1.46,16.53,020912,,,A*43
$GPGGA,142345.000,6515.7881,N,01424.3188,W,1,09,1.2,40.3,M,58.8,M,,0000*73
$GPGSA,A,3,07,21,13,16,03,30,06,05,19,,,,2.2,1.2,1.8*32
$GPRMC,142345.000,A,6515.7881,N,01424.3188,W,2.53,15.22,020912,,,A*41
$GPGGA,142346.000,6515.7889,N,01424.3182,W,1,09,1.2,40.0,M,58.8,M,,0000*71
$GPGSA,A,3,07,21,13,16,03,30,06,05,19,,,,2.2,1.2,1.8*32
$GPRMC,142346.000,A,6515.7889,N,01424.3182,W,3.01,16.69,020912,,,A*4A
$GPGGA,142347.000,6515.7897,N,01424.3179,W,1,09,1.2,39.7,M,58.8,M,,0000*72
$GPGSA,A,3,07,21,13,16,03,30,06,05,19,,,,2.2,1.2,1.8*32
$GPRMC,142347.000,A,6515.7897,N,01424.3179,W,3.04,9.51,020912,,,A*70
$GPGGA,142348.000,6515.7906,N,01424.3178,W,1,09,1.2,39.5,M,58.8,M,,0000*77
$GPGSA,A,3,07,21,13,16,03,30,06,05,19,,,,2.2,1.2,1.8*32
$GPGSV,3,1,12,16,71,210,23,06,58,230,30,21,51,094,35,30,48,158,39*77
$GPGSV,3,2,12,03,42,245,30,07,27,318,29,13,14,285,29,19,13,245,25*70
$GPGSV,3,3,12,05,13,010,34,18,10,117,17,29,05,077,,26,00,034,*7F
$GPRMC,142348.000,A,6515.7906,N,01424.3178,W,3.29,2.61,020912,,,A*70
$GPGGA,142349.000,6515.7914,N,01424.3183,W,1,08,1.2,39.3,M,58.8,M,,0000*76
$GPGSA,A,3,07,21,16,03,30,06,05,19,,,,,2.2,1.2,1.9*31
$GPRMC,142349.000,A,6515.7914,N,01424.3183,W,2.93,348.42,020912,,,A*7A
$GPGGA,142350.000,6515.7922,N,01424.3192,W,1,08,1.2,39.1,M,58.8,M,,0000*79
$GPGSA,A,3,07,21,13,16,30,06,05,19,,,,,2.2,1.2,1.9*30
$GPRMC,142350.000,A,6515.7922,N,01424.3192,W,3.04,335.87,020912,,,A*7B
$GPGGA,142351.000,6515.7930,N,01424.3207,W,1,09,1.2,39.3,M,58.8,M,,0000*77
$GPGSA,A,3,07,21,13,16,03,30,06,05,19,,,,2.2,1.2,1.8*32
$GPRMC,142351.000,A,6515.7930,N,01424.3207,W,3.43,319.55,020912,,,A*74
$GPGGA,142352.000,6515.7937,N,01424.3226,W,1,09,1.2,39.7,M,58.8,M,,0000*74
$GPGSA,A,3,07,21,13,16,03,30,06,05,19,,,,2.2,1.2,1.8*32
$GPRMC,142352.000,A,6515.7937,N,01424.3226,W,3.53,311.04,020912,,,A*7E
$GPGGA,142353.000,6515.7942,N,01424.3249,W,1,09,1.2,40.1,M,58.8,M,,0000*76
$GPGSA,A,3,07,21,13,16,03,30,06,05,19,,,,2.2,1.2,1.8*32
$GPGSV,3,1,12,16,71,205,23,06,59,229,39,21,51,092,28,30,46,158,32*7C
$GPGSV,3,2,12,03,43,245,32,07,28,317,33,19,15,245,29,13,13,284,31*7D
$GPGSV,3,3,12,05,12,009,28,18,11,116,14,29,04,077,,26,01,033,*7F
$GPRMC,142353.000,A,6515.7942,N,01424.3249,W,3.42,292.97,020912,,,A*74
$GPGGA,142354.000,6515.7946,N,01424.3274,W,1,09,1.2,40.4,M,58.8,M,,0000*7E
$GPGSA,A,3,07,21,13,16,03,30,06,05,19,,,,2.2,1.2,1.8*32
$GPRMC,142354.000,A,6515.7946,N,01424.3274,W,3.57,289.37,020912,,,A*7D
$GPGGA,142355.000,6515.7950,N,01424.3300,W,1,09,1.2,40.7,M,58.8,M,,0000*79
$GPGSA,A,3,07,21,13,16,03,30,06,05,19,,,,2.2,1.2,1.8*32
$GPRMC,142355.000,A,6515.7950,N,01424.3300,W,3.74,283.62,020912,,,A*72
$GPGGA,142356.000,6515.7951,N,01424.3328,W,1,09,1.2,40.8,M,58.8,M,,0000*7E
$GPGSA,A,3,07,21,13,16,03,30,06,05,19,,,,2.2,1.2,1.8*32
$GPRMC,142356.000,A,6515.7951,N,01424.3328,W,3.66,273.94,020912,,,A*7F
$GPGGA,142357.000,6515.7952,N,01424.3356,W,1,09,1.2,41.0,M,58.8,M,,0000*7C
$GPGSA,A,3,07,21,13,16,03,30,06,05,19,,,,2.2,1.2,1.8*32
$GPRMC,142357.000,A,6515.7952,N,01424.3356,W,3.82,268.72,020912,,,A*7C
$GPGGA,142358.000,6515.7950,N,01424.3382,W,1,09,1.2,41.2,M,58.8,M,,0000*7A
$GPGSA,A,3,07,21,13,16,03,30,06,05,19,,,,2.2,1.2,1.8*32
$GPGSV,3,1,12,16,71,205,35,06,59,229,30,21,51,092,25,30,46,158,35*78
$GPGSV,3,2,12,03,43,245,39,07,28,317,33,19,15,245,27,13,13,284,29*71
$GPGSV,3,3,12,05,12,009,30,18,11,116,24,29,04,077,,26,01,033,*75
$GPRMC,142358.000,A,6515.7950,N,01424.3382,W,3.48,253.94,020912,,,A*7E
$GPGGA,142359.000,6515.7946,N,01424.3404,W,1,09,1.2,41.5,M,58.8,M,,0000*72
$GPGSA,A,3,07,21,13,16,03,30,06,05,19,,,,2.2,1.2,1.8*32
$GPRMC,142359.000,A,6515.7946,N,01424.3404,W,3.38,240.18,020912,,,A*70
$GPGGA,142400.000,6515.7941,N,01424.3425,W,1,09,1.2,41.7,M,58.8,M,,0000*7F
$GPGSA,A,3,07,21,13,16,03,30,06,05,19,,,,2.2,1.2,1.8*32
$GPRMC,142400.000,A,6515.7941,N,01424.3425,W,3.54,230.11,020912,,,A*7B
$GPGGA,142401.000,6515.7933,N,01424.3444,W,1,09,1.2,42.0,M,58.8,M,,0000*78
$GPGSA,A,3,07,21,13,16,03,30,06,05,19,,,,2.2,1.2,1.8*32
$GPRMC,142401.000,A,6515.7933,N,01424.3444,W,3.76,216.17,020912,,,A*7A
$GPGGA,142402.000,6515.7924,N,01424.3457,W,1,09,1.2,42.2,M,58.8,M,,0000*7D
$GPGSA,A,3,07,21,13,16,03,30,06,05,19,,,,2.2,1.2,1.8*32
$GPRMC,142402.000,A,6515.7924,N,01424.3457,W,3.73,200.95,020912,,,A*75
$GPGGA,142403.000,6515.7914,N,01424.3465,W,1,09,1.2,42.5,M,58.8,M,,0000*79
$GPGSA,A,3,07,21,13,16,03,30,06,05,19,,,,2.2,1.2,1.8*32
$GPGSV,3,1,12,16,71,205,34,06,59,229,35,21,51,092,31,30,46,158,31*7D
$GPGSV,3,2,12,03,43,245,33,07,28,317,40,19,15,245,24,13,13,284,31*75
$GPGSV,3,3,12,05,12,009,21,18,11,116,25,29,04,077,,26,01,033,*74
$GPRMC,142403.000,A,6515.7914,N,01424.3465,W,4.07,187.48,020912,,,A*7E
$GPGGA,142404.000,6515.7905,N,01424.3470,W,1,08,1.4,42.7,M,58.8,M,,0000*7F
$GPGSA,A,3,07,21,13,16,03,06,05,19,,,,,2.4,1.4,2.0*3A
$GPRMC,142404.000,A,6515.7905,N,01424.3470,W,3.86,181.23,020912,,,A*78
$GPGGA,142405.000,6515.7896,N,01424.3472,W,1,08,1.4,42.9,M,58.8,M,,0000*79
$GPGSA,A,3,07,21,13,16,03,30,06,05,,,,,2.8,1.4,2.5*38
$GPRMC,142405.000,A,6515.7896,N,01424.3472,W,3.40,175.38,020912,,,A*7B
$GPGGA,142406.000,6515.7888,N,01424.3475,W,1,08,1.4,43.2,M,58.8,M,,0000*78
$GPGSA,A,3,07,21,13,16,03,30,06,05,,,,,2.8,1.4,2.5*38
$GPRMC,142406.000,A,6515.7888,N,01424.3475,W,3.07,175.30,020912,,,A*7B
$GPGGA,142407.000,6515.7882,N,01424.3475,W,1,09,1.2,43.4,M,58.8,M,,0000*72
$GPGSA,A,3,07,21,13,16,03,30,06,05,19,,,,2.2,1.2,1.8*32
$GPRMC,142407.000,A,6515.7882,N,01424.3475,W,2.62,166.04,020912,,,A*77
$GPGGA,142408.000,6515.7875,N,01424.3471,W,1,09,1.2,43.5,M,58.8,M,,0000*70
$GPGSA,A,3,07,21,13,16,03,30,06,05,19,,,,2.2,1.2,1.8*32
$GPGSV,3,1,12,16,71,205,40,06,59,229,37,21,51,092,28,30,46,158,28*7C
$GPGSV,3,2,12,03,43,245,32,07,28,317,25,19,15,245,27,13,13,284,30*75
$GPGSV,3,3,12,05,12,009,27,18,11,116,30,29,04,077,,26,01,033,*76
$GPRMC,142408.000,A,6515.7875,N,01424.3471,W,3.02,157.68,020912,,,A*7B
$GPGGA,142409.000,6515.7866,N,01424.3466,W,1,09,1.2,43.6,M,58.8,M,,0000*76
$GPGSA,A,3,07,21,13,16,03,30,06,05,19,,,,2.2,1.2,1.8*32
$GPRMC,142409.000,A,6515.7866,N,01424.3466,W,3.54,156.81,020912,,,A*7B
$GPGGA,142410.000,6515.7854,N,01424.3459,W,1,09,1.2,43.7,M,58.8,M,,0000*72
$GPGSA,A,3,07,21,13,16,03,30,06,05,19,,,,2.2,1.2,1.8*32
$GPRMC,142410.000,A,6515.7854,N,01424.3459,W,4.66,159.88,020912,,,A*7E
$GPGGA,142411.000,6515.7839,N,01424.3456,W,1,09,1.2,43.8,M,58.8,M,,0000*78
$GPGSA,A,3,07,21,13,16,03,30,06,05,19,,,,2.2,1.2,1.8*32
$GPRMC,142411.000,A,6515.7839,N,01424.3456,W,5.44,168.97,020912,,,A*76
$GPGGA,142412.000,6515.7824,N,01424.3462,W,1,09,1.2,44.0,M,58.8,M,,0000*7F
$GPGSA,A,3,07,21,13,16,03,30,06,05,19,,,,2.2,1.2,1.8*32
$GPRMC,142412.000,A,6515.7824,N,01424.3462,W,5.60,183.43,020912,,,A*74
$GPGGA,142413.000,6515.7812,N,01424.3479,W,1,08,1.4,44.2,M,58.8,M,,0000*74
$GPGSA,A,3,07,21,13,16,03,30,06,05,,,,,2.8,1.4,2.4*39
$GPGSV,3,1,12,16,71,205,28,06,59,229,36,21,51,092,34,30,46,158,36*71
$GPGSV,3,2,12,03,43,245,37,07,28,317,38,19,15,245,,13,13,284,30*79
$GPGSV,3,3,12,05,12,009,27,18,11,116,27,29,04,077,,26,01,033,*70
$GPRMC,142413.000,A,6515.7812,N,01424.3479,W,4.94,204.50,020912,,,A*7E
$GPGGA,142414.000,6515.7804,N,01424.3503,W,1,07,1.5,44.4,M,58.8,M,,0000*70
$GPGSA,A,3,07,21,13,03,30,06,05,,,,,,3.3,1.5,2.9*38
$GPRMC,142414.000,A,6515.7804,N,01424.3503,W,4.24,228.24,020912,,,A*74
$GPGGA,142415.000,6515.7800,N,01424.3532,W,1,09,1.2,44.6,M,58.8,M,,0000*7C
$GPGSA,A,3,07,21,13,16,03,30,06,05,19,,,,2.2,1.2,1.8*32
$GPRMC,142415.000,A,6515.7800,N,01424.3532,W,4.12,252.18,020912,,,A*74
$GPGGA,142416.000,6515.7801,N,01424.3563,W,1,09,1.2,44.7,M,58.8,M,,0000*7B
$GPGSA,A,3,07,21,13,16,03,30,06,05,19,,,,2.2,1.2,1.8*32
$GPRMC,142416.000,A,6515.7801,N,01424.3563,W,4.22,273.42,020912,,,A*7D
$GPGGA,142417.000,6515.7803,N,01424.3590,W,1,09,1.2,44.6,M,58.8,M,,0000*75
$GPGSA,A,3,07,21,13,16,03,30,06,05,19,,,,2.2,1.2,1.8*32
$GPRMC,142417.000,A,6515.7803,N,01424.3590,W,3.72,282.65,020912,,,A*7B
$GPGGA,142418.000,6515.7809,N,01424.3616,W,1,09,1.2,44.7,M,58.8,M,,0000*7C
$GPGSA,A,3,07,21,13,16,03,30,06,05,19,,,,2.2,1.2,1.8*32
$GPGSV,3,1,12,16,71,205,24,06,59,229,36,21,51,092,28,30,46,158,25*72
$GPGSV,3,2,12,03,43,245,30,07,28,317,29,19,15,245,29,13,13,284,30*75
$GPGSV,3,3,12,05,12,009,28,18,11,116,28,29,04,077,,26,01,033,*70
$GPRMC,142418.000,A,6515.7809,N,01424.3616,W,4.10,303.50,020912,,,A*7E
$GPGGA,142419.000,6515.7819,N,01424.3636,W,1,08,1.4,44.7,M,58.8,M,,0000*79
$GPGSA,A,3,21,13,16,03,30,06,05,19,,,,,2.4,1.4,2.0*3E
$GPRMC,142419.000,A,6515.7819,N,01424.3636,W,4.46,325.68,020912,,,A*70
$GPGGA,142420.000,6515.7831,N,01424.3646,W,1,09,1.2,44.6,M,58.8,M,,0000*78
$GPGSA,A,3,07,21,13,16,03,30,06,05,19,,,,2.2,1.2,1.8*32
$GPRMC,142420.000,A,6515.7831,N,01424.3646,W,4.52,345.77,020912,,,A*7A
$GPGGA,142421.000,6515.7842,N,01424.3650,W,1,09,1.2,44.4,M,58.8,M,,0000*78
$GPGSA,A,3,07,21,13,16,03,30,06,05,19,,,,2.2,1.2,1.8*32
$GPRMC,142421.000,A,6515.7842,N,01424.3650,W,4.26,355.09,020912,,,A*73
$GPGGA,142422.000,6515.7852,N,01424.3651,W,1,09,1.2,44.2,M,58.8,M,,0000*7D
$GPGSA,A,3,07,21,13,16,03,30,06,05,19,,,,2.2,1.2,1.8*32
$GPRMC,142422.000,A,6515.7852,N,01424.3651,W,3.64,358.67,020912,,,A*74
$GPGGA,142423.000,6515.7862,N,01424.3650,W,1,09,1.2,43.8,M,58.8,M,,0000*73
$GPGSA,A,3,07,21,13,16,03,30,06,05,19,,,,2.2,1.2,1.8*32
$GPGSV,3,1,12,16,71,205,31,06,59,229,30,21,51,092,38,30,46,158,22*76
$GPGSV,3,2,12,03,43,245,29,07,28,317,24,19,15,245,28,13,13,284,27*77
$GPGSV,3,3,12,05,12,009,28,18,11,116,29,29,04,077,,26,01,033,*71
$GPRMC,142423.000,A,6515.7862,N,01424.3650,W,3.59,6.28,020912,,,A*7A
$GPGGA,142424.000,6515.7870,N,01424.3644,W,1,08,1.2,43.3,M,58.8,M,,0000*78
$GPGSA,A,3,07,21,16,03,30,06,05,19,,,,,2.2,1.2,1.9*31
$GPRMC,142424.000,A,6515.7870,N,01424.3644,W,3.37,14.06,020912,,,A*4C
$GPGGA,142425.000,6515.7877,N,01424.3638,W,1,09,1.2,42.7,M,58.8,M,,0000*71
$GPGSA,A,3,07,21,13,16,03,30,06,05,19,,,,2.2,1.2,1.8*32
$GPRMC,142425.000,A,6515.7877,N,01424.3638,W,2.90,20.03,020912,,,A*4F
$GPGGA,142426.000,6515.7882,N,01424.3632,W,1,09,1.2,42.1,M,58.8,M,,0000*74
$GPGSA,A,3,07,21,13,16,03,30,06,05,19,,,,2.2,1.2,1.8*32
$GPRMC,142426.000,A,6515.7882,N,01424.3632,W,2.10,23.67,020912,,,A*45
$GPGGA,142427.000,6515.7885,N,01424.3626,W,1,09,1.2,41.3,M,58.8,M,,0000*76
$GPGSA,A,3,07,21,13,16,03,30,06,05,19,,,,2.2,1.2,1.8*32
$GPRMC,142427.000,A,6515.7885,N,01424.3626,W,1.27,32.05,020912,,,A*45
$GPGGA,142428.000,6515.7885,N,01424.3621,W,1,08,1.2,40.4,M,58.8,M,,0000*79
$GPGSA,A,3,07,21,13,16,03,30,05,19,,,,,2.3,1.2,2.0*3E
$GPGSV,3,1,12,16,71,205,23,06,59,229,11,21,51,092,32,30,46,158,34*7B
$GPGSV,3,2,12,03,43,245,25,07,28,317,23,19,15,245,27,13,13,284,34*71
$GPGSV,3,3,12,05,12,009,36,18,11,116,26,29,04,077,,26,01,033,*71
$GPRMC,143320.000,A,6515.7885,N,01424.3561,W,0.94,11.67,020912,,,A*48
$GPGGA,143321.000,6515.7889,N,01424.3560,W,1,10,0.9,40.9,M,58.8,M,,0000*72
$GPGSA,A,3,03,21,13,16,19,30,06,05,18,07,,,1.6,0.9,1.3*3D
$GPRMC,143321.000,A,6515.7889,N,01424.3560,W,1.67,12.36,020912,,,A*4E
$GPGGA,143322.000,6515.7895,N,01424.3556,W,1,10,0.9,41.0,M,58.8,M,,0000*71
$GPGSA,A,3,03,21,13,16,19,30,06,05,18,07,,,1.6,0.9,1.3*3D
$GPRMC,143322.000,A,6515.7895,N,01424.3556,W,2.45,17.06,020912,,,A*40
$GPGGA,143323.000,6515.7905,N,01424.3551,W,1,09,1.0,41.3,M,58.8,M,,0000*7C
$GPGSA,A,3,03,21,13,16,19,30,06,05,18,,,,1.6,1.0,1.3*32
$GPGSV,3,1,12,16,70,196,24,06,62,227,13,21,50,087,36,03,47,245,24*7E
$GPGSV,3,2,12,30,43,157,41,07,29,314,,19,18,246,28,18,13,114,23*76
$GPGSV,3,3,12,13,11,282,22,05,11,007,26,08,03,341,29,26,03,031,22*75
$GPRMC,143323.000,A,6515.7905,N,01424.3551,W,3.72,14.09,020912,,,A*47
$GPGGA,143324.000,6515.7917,N,01424.3545,W,1,10,0.9,41.6,M,58.8,M,,0000*78
$GPGSA,A,3,03,21,13,16,19,30,06,05,18,07,,,1.6,0.9,1.3*3D
$GPRMC,143324.000,A,6515.7917,N,01424.3545,W,4.68,13.40,020912,,,A*40
$GPGGA,143325.000,6515.7931,N,01424.3536,W,1,10,0.9,41.8,M,58.8,M,,0000*77
$GPGSA,A,3,03,21,13,16,19,30,06,05,18,07,,,1.6,0.9,1.3*3D
$GPRMC,143325.000,A,6515.7931,N,01424.3536,W,5.30,16.48,020912,,,A*40
$GPGGA,143326.000,6515.7946,N,01424.3527,W,1,10,0.9,42.0,M,58.8,M,,0000*7F
$GPGSA,A,3,03,21,13,16,19,30,06,05,18,07,,,1.6,0.9,1.3*3D
$GPRMC,143326.000,A,6515.7946,N,01424.3527,W,5.57,16.51,020912,,,A*4A
$GPGGA,143327.000,6515.7961,N,01424.3516,W,1,10,0.9,42.1,M,58.8,M,,0000*78
$GPGSA,A,3,03,21,13,16,19,30,06,05,18,07,,,1.6,0.9,1.3*3D
$GPRMC,143327.000,A,6515.7961,N,01424.3516,W,5.85,18.62,020912,,,A*4D
$GPGGA,143328.000,6515.7977,N,01424.3503,W,1,10,0.9,42.2,M,58.8,M,,0000*77
$GPGSA,A,3,03,21,13,16,19,30,06,05,18,07,,,1.6,0.9,1.3*3D
$GPGSV,3,1,12,16,70,196,24,06,62,227,34,21,50,087,35,03,47,245,29*75
$GPGSV,3,2,12,30,43,157,42,07,29,314,33,19,18,246,27,18,13,114,27*7E
$GPGSV,3,3,12,13,11,282,23,05,11,007,26,08,03,341,23,26,03,031,17*78
$GPRMC,143328.000,A,6515.7977,N,01424.3503,W,5.98,20.77,020912,,,A*42
$GPGGA,143329.000,6515.7992,N,01424.3489,W,1,10,0.9,42.2,M,58.8,M,,0000*7E
$GPGSA,A,3,03,21,13,16,19,30,06,05,18,07,,,1.6,0.9,1.3*3D
$GPRMC,143329.000,A,6515.7992,N,01424.3489,W,6.08,21.20,020912,,,A*42
$GPGGA,143330.000,6515.8008,N,01424.3478,W,1,10,0.9,42.2,M,58.8,M,,0000*7D
$GPGSA,A,3,03,21,13,16,19,30,06,05,18,07,,,1.6,0.9,1.3*3D
$GPRMC,143330.000,A,6515.8008,N,01424.3478,W,5.96,19.08,020912,,,A*44
$GPGGA,143331.000,6515.8025,N,01424.3465,W,1,10,0.9,42.2,M,58.8,M,,0000*7F
$GPGSA,A,3,03,21,13,16,19,30,06,05,18,07,,,1.6,0.9,1.3*3D
$GPRMC,143331.000,A,6515.8025,N,01424.3465,W,6.31,19.18,020912,,,A*49
$GPGGA,143332.000,6515.8042,N,01424.3452,W,1,10,0.9,42.1,M,58.8,M,,0000*7A
$GPGSA,A,3,03,21,13,16,19,30,06,05,18,07,,,1.6,0.9,1.3*3D
$GPRMC,143332.000,A,6515.8042,N,01424.3452,W,6.25,18.92,020912,,,A*49
$GPGGA,143333.000,6515.8059,N,01424.3440,W,1,09,1.1,42.0,M,58.8,M,,0000*72
$GPGSA,A,3,03,21,13,16,19,30,06,05,07,,,,2.1,1.1,1.7*3D
$GPGSV,3,1,12,16,70,196,17,06,62,227,34,21,50,087,36,03,47,245,33*7D
$GPGSV,3,2,12,30,43,157,42,07,29,314,28,19,18,246,27,18,13,114,*71
$GPGSV,3,3,12,13,11,282,27,05,11,007,26,08,03,341,30,26,03,031,*78
$GPRMC,143333.000,A,6515.8059,N,01424.3440,W,6.32,18.56,020912,,,A*4F
$GPGGA,143334.000,6515.8078,N,01424.3427,W,1,09,1.1,41.9,M,58.8,M,,0000*7D
$GPGSA,A,3,03,21,13,16,19,30,06,05,07,,,,2.1,1.1,1.7*3D
$GPRMC,143334.000,A,6515.8078,N,01424.3427,W,7.00,17.63,020912,,,A*43
$GPGGA,143335.000,6515.8100,N,01424.3411,W,1,09,1.0,41.6,M,58.8,M,,0000*79
$GPGSA,A,3,03,21,16,19,30,06,05,07,18,,,,1.7,1.0,1.4*31
$GPRMC,143335.000,A,6515.8100,N,01424.3411,W,8.29,17.95,020912,,,A*44
$GPGGA,143336.000,6515.8124,N,01424.3394,W,1,09,1.0,41.5,M,58.8,M,,0000*75
$GPGSA,A,3,03,21,16,19,30,06,05,07,18,,,,1.7,1.0,1.4*31
$GPRMC,143336.000,A,6515.8124,N,01424.3394,W,8.97,17.62,020912,,,A*46
$GPGGA,143337.000,6515.8150,N,01424.3377,W,1,10,0.9,41.3,M,58.8,M,,0000*7C
$GPGSA,A,3,03,21,13,16,19,30,06,05,07,18,,,1.6,0.9,1.3*3D
$GPRMC,143337.000,A,6515.8150,N,01424.3377,W,9.52,16.03,020912,,,A*47
$GPGGA,143338.000,6515.8177,N,01424.3360,W,1,10,0.9,41.2,M,58.8,M,,0000*71
$GPGSA,A,3,03,21,13,16,19,30,06,05,07,18,,,1.6,0.9,1.3*3D
$GPGSV,3,1,12,16,70,196,21,06,62,227,34,21,50,087,29,03,47,245,28*7C
$GPGSV,3,2,12,30,43,157,42,07,29,314,25,19,18,246,25,18,13,114,28*74
$GPGSV,3,3,12,13,11,282,29,05,11,007,21,08,03,341,30,26,03,031,19*79
$GPRMC,143338.000,A,6515.8177,N,01424.3360,W,9.92,15.70,020912,,,A*40
$GPGGA,143339.000,6515.8204,N,01424.3343,W,1,10,0.9,41.0,M,58.8,M,,0000*74
$GPGSA,A,3,03,21,13,16,19,30,06,05,07,18,,,1.6,0.9,1.3*3D
$GPRMC,143339.000,A,6515.8204,N,01424.3343,W,10.09,14.46,020912,,,A*79
$GPGGA,143340.000,6515.8231,N,01424.3324,W,1,09,1.0,40.8,M,58.8,M,,0000*74
$GPGSA,A,3,03,21,16,19,30,06,05,07,18,,,,1.7,1.0,1.4*31
$GPRMC,143340.000,A,6515.8231,N,01424.3324,W,9.93,17.45,020912,,,A*4B
$GPGGA,143341.000,6515.8257,N,01424.3304,W,1,10,0.9,40.6,M,58.8,M,,0000*79
$GPGSA,A,3,03,21,13,16,19,30,06,05,07,18,,,1.6,0.9,1.3*3D
$GPRMC,143341.000,A,6515.8257,N,01424.3304,W,9.67,17.44,020912,,,A*42
$GPGGA,143342.000,6515.8283,N,01424.3288,W,1,10,0.9,40.4,M,58.8,M,,0000*74
$GPGSA,A,3,03,21,13,16,19,30,06,05,07,18,,,1.6,0.9,1.3*3D
$GPRMC,143342.000,A,6515.8283,N,01424.3288,W,9.59,14.37,020912,,,A*47
$GPGGA,143343.000,6515.8311,N,01424.3284,W,1,10,0.9,40.3,M,58.8,M,,0000*74
$GPGSA,A,3,03,21,13,16,19,30,06,05,07,18,,,1.6,0.9,1.3*3D
$GPGSV,3,1,12,16,70,196,22,06,62,227,30,21,50,087,37,03,47,245,31*7C
$GPGSV,3,2,12,30,43,157,27,07,29,314,28,19,18,246,30,18,13,114,25*73
$GPGSV,3,3,12,13,11,282,31,05,11,007,31,08,03,341,21,26,03,031,*79
$GPRMC,143343.000,A,6515.8311,N,01424.3284,W,9.70,2.11,020912,,,A*78
$GPGGA,143344.000,6515.8337,N,01424.3296,W,1,10,0.9,40.0,M,58.8,M,,0000*77
$GPGSA,A,3,03,21,13,16,19,30,06,05,07,18,,,1.6,0.9,1.3*3D
$GPRMC,143344.000,A,6515.8337,N,01424.3296,W,9.20,347.09,020912,,,A*76
$GPGGA,143345.000,6515.8359,N,01424.3315,W,1,09,1.1,39.7,M,58.8,M,,0000*7C
$GPGSA,A,3,03,21,13,16,19,30,06,05,07,,,,2.1,1.1,1.7*3D
$GPRMC,143345.000,A,6515.8359,N,01424.3315,W,8.35,338.90,020912,,,A*78
$GPGGA,143346.000,6515.8377,N,01424.3340,W,1,10,0.9,39.4,M,58.8,M,,0000*71
$GPGSA,A,3,03,21,13,16,19,30,06,05,07,18,,,1.6,0.9,1.3*3D
$GPRMC,143346.000,A,6515.8377,N,01424.3340,W,7.30,326.72,020912,,,A*7E
$GPGGA,143347.000,6515.8390,N,01424.3371,W,1,10,0.9,38.9,M,58.8,M,,0000*77
$GPGSA,A,3,03,21,13,16,19,30,06,05,07,18,,,1.6,0.9,1.3*3D
$GPRMC,143347.000,A,6515.8390,N,01424.3371,W,6.51,310.41,020912,,,A*77
$GPGGA,143348.000,6515.8400,N,01424.3405,W,1,10,0.9,38.4,M,58.8,M,,0000*7F
$GPGSA,A,3,03,21,13,16,19,30,06,05,07,18,,,1.6,0.9,1.3*3D
$GPGSV,3,1,12,16,70,196,27,06,62,227,39,21,50,087,31,03,47,245,28*7E
$GPGSV,3,2,12,30,43,157,28,07,29,314,31,19,18,246,29,18,13,114,25*7C
$GPGSV,3,3,12,13,11,282,33,05,11,007,21,08,03,341,25,26,03,031,22*7E
$GPRMC,143348.000,A,6515.8400,N,01424.3405,W,6.07,300.68,020912,,,A*7B
$GPGGA,143349.000,6515.8408,N,01424.3435,W,1,10,0.9,38.0,M,58.8,M,,0000*71
$GPGSA,A,3,03,21,13,16,19,30,06,05,07,18,,,1.6,0.9,1.3*3D
$GPRMC,143349.000,A,6515.8408,N,01424.3435,W,5.45,298.36,020912,,,A*7F
$GPGGA,143350.000,6515.8417,N,01424.3464,W,1,10,0.9,37.7,M,58.8,M,,0000*7B
$GPGSA,A,3,03,21,13,16,19,30,06,05,07,18,,,1.6,0.9,1.3*3D
$GPRMC,143350.000,A,6515.8417,N,01424.3464,W,5.30,301.02,020912,,,A*79
$GPGGA,143351.000,6515.8430,N,01424.3494,W,1,09,0.9,37.3,M,58.8,M,,0000*7C
$GPGSA,A,3,03,21,13,19,30,06,05,07,18,,,,1.7,0.9,1.4*3C
$GPRMC,143351.000,A,6515.8430,N,01424.3494,W,6.34,313.96,020912,,,A*7B
$GPGGA,143352.000,6515.8449,N,01424.3514,W,1,07,1.1,37.1,M,58.8,M,,0000*7D
$GPGSA,A,3,03,21,13,30,06,05,18,,,,,,1.9,1.1,1.6*36
$GPRMC,143352.000,A,6515.8449,N,01424.3514,W,7.27,335.85,020912,,,A*7A
$GPGGA,143353.000,6515.8474,N,01424.3518,W,1,09,1.0,36.8,M,58.8,M,,0000*79
$GPGSA,A,3,03,21,13,16,30,06,05,19,18,,,,1.6,1.0,1.3*32
$GPGSV,3,1,12,16,70,196,33,06,62,227,30,21,50,087,35,03,47,245,36*79
$GPGSV,3,2,12,30,43,157,27,07,29,314,,19,18,246,30,18,13,114,26*7A
$GPGSV,3,3,12,13,11,282,29,05,11,007,34,08,03,341,27,26,03,031,13*71
$GPRMC,143353.000,A,6515.8474,N,01424.3518,W,8.74,355.57,020912,,,A*79
$GPGGA,143354.000,6515.8503,N,01424.3512,W,1,10,0.9,36.7,M,58.8,M,,0000*7A
$GPGSA,A,3,03,21,13,16,07,30,06,05,19,18,,,1.6,0.9,1.3*3D
$GPRMC,143354.000,A,6515.8503,N,01424.3512,W,10.26,5.96,020912,,,A*40
$GPGGA,143355.000,6515.8534,N,01424.3497,W,1,09,1.2,36.6,M,58.8,M,,0000*70
$GPGSA,A,3,03,21,13,16,07,30,06,19,18,,,,1.7,1.2,1.3*33
$GPRMC,143355.000,A,6515.8534,N,01424.3497,W,11.50,12.53,020912,,,A*76
$GPGGA,143356.000,6515.8570,N,01424.3477,W,1,10,0.9,36.5,M,58.8,M,,0000*7C
$GPGSA,A,3,03,21,13,16,07,30,06,05,19,18,,,1.6,0.9,1.3*3D
$GPRMC,143356.000,A,6515.8570,N,01424.3477,W,13.22,13.77,020912,,,A*7B
$GPGGA,143357.000,6515.8608,N,01424.3456,W,1,10,0.9,36.5,M,58.8,M,,0000*72
$GPGSA,A,3,03,21,13,16,07,30,06,05,19,18,,,1.6,0.9,1.3*3D
$GPRMC,143357.000,A,6515.8608,N,01424.3456,W,14.02,13.34,020912,,,A*77
$GPGGA,143358.000,6515.8644,N,01424.3434,W,1,10,0.9,36.5,M,58.8,M,,0000*71
$GPGSA,A,3,03,21,13,16,07,30,06,05,19,18,,,1.6,0.9,1.3*3D
$GPGSV,3,1,12,16,70,196,22,06,62,227,30,21,50,087,33,03,47,245,27*7F
$GPGSV,3,2,12,30,43,157,40,07,29,314,29,19,18,246,30,18,13,114,25*73
$GPGSV,3,3,12,13,11,282,27,05,11,007,27,08,03,341,32,26,03,031,*7B
$GPRMC,143358.000,A,6515.8644,N,01424.3434,W,13.61,14.46,020912,,,A*74
$GPGGA,143359.000,6515.8676,N,01424.3413,W,1,09,1.0,36.6,M,58.8,M,,0000*77
$GPGSA,A,3,03,21,13,16,07,30,06,05,18,,,,1.8,1.0,1.4*34
$GPRMC,143359.000,A,6515.8676,N,01424.3413,W,11.81,16.17,020912,,,A*7B
$GPGGA,143400.000,6515.8702,N,01424.3393,W,1,10,0.9,36.7,M,58.8,M,,0000*70
$GPGSA,A,3,03,21,13,16,07,30,06,05,19,18,,,1.6,0.9,1.3*3D
$GPRMC,143400.000,A,6515.8702,N,01424.3393,W,9.73,18.89,020912,,,A*40
$GPGGA,143401.000,6515.8724,N,01424.3374,W,1,10,0.9,36.7,M,58.8,M,,0000*7C
$GPGSA,A,3,03,21,13,16,07,30,06,05,19,18,,,1.6,0.9,1.3*3D
$GPRMC,143401.000,A,6515.8724,N,01424.3374,W,8.51,20.02,020912,,,A*45
$GPGGA,143402.000,6515.8744,N,01424.3359,W,1,10,0.9,36.8,M,58.8,M,,0000*79
$GPGSA,A,3,03,21,13,16,07,30,06,05,19,18,,,1.6,0.9,1.3*3D
$GPRMC,143402.000,A,6515.8744,N,01424.3359,W,7.09,17.82,020912,,,A*41
$GPGGA,143403.000,6515.8759,N,01424.3350,W,1,10,0.9,36.9,M,58.8,M,,0000*7C
$GPGSA,A,3,03,21,13,16,07,30,06,05,19,18,,,1.6,0.9,1.3*3D
$GPGSV,3,1,12,16,69,192,25,06,64,225,34,21,50,086,35,03,48,245,30*7A
$GPGSV,3,2,12,30,41,157,40,07,30,313,29,19,19,246,31,18,14,114,26*7A
$GPGSV,3,3,12,05,10,006,29,13,10,281,32,08,04,340,25,26,04,030,*75
$GPRMC,143403.000,A,6515.8759,N,01424.3350,W,5.38,14.61,020912,,,A*4B
$GPGGA,143404.000,6515.8769,N,01424.3345,W,1,10,0.9,36.9,M,58.8,M,,0000*7C
$GPGSA,A,3,03,21,13,16,07,30,06,05,19,18,,,1.6,0.9,1.3*3D
$GPRMC,143404.000,A,6515.8769,N,01424.3345,W,3.63,13.08,020912,,,A*4B
$GPGGA,143405.000,6515.8774,N,01424.3342,W,1,10,0.9,36.8,M,58.8,M,,0000*77
$GPGSA,A,3,03,21,13,16,07,30,06,05,19,18,,,1.6,0.9,1.3*3D
$GPRMC,143405.000,A,6515.8774,N,01424.3342,W,1.55,14.23,020912,,,A*48
$GPGGA,143406.000,6515.8776,N,01424.3342,W,1,10,0.9,36.8,M,58.8,M,,0000*76
$GPGSA,A,3,03,21,13,16,07,30,06,05,19,18,,,1.6,0.9,1.3*3D
$GPRMC,143433.000,A,6515.8780,N,01424.3354,W,1.90,9.65,020912,,,A*76
$GPGGA,143434.000,6515.8790,N,01424.3354,W,1,10,0.9,38.4,M,58.8,M,,0000*7A
$GPGSA,A,3,03,21,13,16,07,30,06,05,19,18,,,1.6,0.9,1.3*3D
$GPRMC,143434.000,A,6515.8790,N,01424.3354,W,3.92,0.94,020912,,,A*77
$GPGGA,143435.000,6515.8808,N,01424.3354,W,1,10,0.9,38.6,M,58.8,M,,0000*77
$GPGSA,A,3,03,21,13,16,07,30,06,05,19,18,,,1.6,0.9,1.3*3D
$GPRMC,143435.000,A,6515.8808,N,01424.3354,W,6.72,0.63,020912,,,A*7B
$GPGGA,143436.000,6515.8828,N,01424.3351,W,1,10,0.9,38.7,M,58.8,M,,0000*72
$GPGSA,A,3,03,21,13,16,07,30,06,05,19,18,,,1.6,0.9,1.3*3D
$GPRMC,143436.000,A,6515.8828,N,01424.3351,W,7.67,4.01,020912,,,A*7A
$GPGGA,143437.000,6515.8854,N,01424.3342,W,1,10,0.9,38.7,M,58.8,M,,0000*7A
$GPGSA,A,3,03,21,13,16,07,30,06,05,19,18,,,1.6,0.9,1.3*3D
$GPRMC,143437.000,A,6515.8854,N,01424.3342,W,9.97,8.24,020912,,,A*78
$GPGGA,143438.000,6515.8888,N,01424.3329,W,1,10,0.9,38.7,M,58.8,M,,0000*79
$GPGSA,A,3,03,21,13,16,07,30,06,05,19,18,,,1.6,0.9,1.3*3D
$GPGSV,3,1,12,16,69,192,23,06,64,225,29,21,50,086,33,03,48,245,25*72
$GPGSV,3,2,12,30,41,157,35,07,30,313,32,19,19,246,21,18,14,114,20*75
$GPGSV,3,3,12,05,10,006,33,13,10,281,27,08,04,340,34,26,04,030,*7A
$GPRMC,143438.000,A,6515.8888,N,01424.3329,W,12.74,9.82,020912,,,A*41
$GPGGA,143439.000,6515.8923,N,01424.3311,W,1,10,0.9,38.6,M,58.8,M,,0000*72
$GPGSA,A,3,03,21,13,16,07,30,06,05,19,18,,,1.6,0.9,1.3*3D
$GPRMC,143439.000,A,6515.8923,N,01424.3311,W,13.72,11.72,020912,,,A*7A
$GPGGA,143440.000,6515.8961,N,01424.3292,W,1,10,0.9,38.4,M,58.8,M,,0000*72
$GPGSA,A,3,03,21,13,16,07,30,06,05,19,18,,,1.6,0.9,1.3*3D
$GPRMC,143440.000,A,6515.8961,N,01424.3292,W,14.44,11.75,020912,,,A*7D
$GPGGA,143441.000,6515.9004,N,01424.3271,W,1,10,0.9,38.3,M,58.8,M,,0000*72
$GPGSA,A,3,03,21,13,16,07,30,06,05,19,18,,,1.6,0.9,1.3*3D
$GPRMC,143441.000,A,6515.9004,N,01424.3271,W,16.35,12.09,020912,,,A*76
$GPGGA,143442.000,6515.9053,N,01424.3245,W,1,10,0.9,38.2,M,58.8,M,,0000*75
$GPGSA,A,3,03,21,13,16,07,30,06,05,19,18,,,1.6,0.9,1.3*3D
$GPRMC,143442.000,A,6515.9053,N,01424.3245,W,18.38,12.62,020912,,,A*7E
$GPGGA,143443.000,6515.9105,N,01424.3218,W,1,10,0.9,38.1,M,58.8,M,,0000*7D
$GPGSA,A,3,03,21,13,16,07,30,06,05,19,18,,,1.6,0.9,1.3*3D
$GPGSV,3,1,12,16,69,192,31,06,64,225,29,21,50,086,36,03,48,245,26*77
$GPGSV,3,2,12,30,41,157,41,07,30,313,28,19,19,246,32,18,14,114,31*7F
$GPGSV,3,3,12,05,10,006,35,13,10,281,20,08,04,340,23,26,04,030,15*79
$GPRMC,143443.000,A,6515.9105,N,01424.3218,W,19.89,12.74,020912,,,A*79
$GPGGA,143444.000,6515.9160,N,01424.3190,W,1,10,0.9,38.2,M,58.8,M,,0000*79
$GPGSA,A,3,03,21,13,16,07,30,06,05,19,18,,,1.6,0.9,1.3*3D
$GPRMC,143444.000,A,6515.9160,N,01424.3190,W,20.71,12.23,020912,,,A*71
$GPGGA,143445.000,6515.9217,N,01424.3165,W,1,10,0.9,38.2,M,58.8,M,,0000*71
$GPGSA,A,3,03,21,13,16,07,30,06,05,19,18,,,1.6,0.9,1.3*3D
$GPRMC,143445.000,A,6515.9217,N,01424.3165,W,21.43,10.72,020912,,,A*7F
$GPGGA,143446.000,6515.9276,N,01424.3142,W,1,10,0.9,38.2,M,58.8,M,,0000*70
$GPGSA,A,3,03,21,13,16,07,30,06,05,19,18,,,1.6,0.9,1.3*3D
$GPRMC,143446.000,A,6515.9276,N,01424.3142,W,22.23,9.52,020912,,,A*41
$GPGGA,143447.000,6515.9338,N,01424.3120,W,1,10,0.9,38.2,M,58.8,M,,0000*7E
$GPGSA,A,3,03,21,13,16,07,30,06,05,19,18,,,1.6,0.9,1.3*3D
$GPRMC,143447.000,A,6515.9338,N,01424.3120,W,23.02,8.77,020912,,,A*4B
$GPGGA,143448.000,6515.9403,N,01424.3101,W,1,10,0.9,38.3,M,58.8,M,,0000*7C
$GPGSA,A,3,03,21,13,16,07,30,06,05,19,18,,,1.6,0.9,1.3*3D
$GPGSV,3,1,12,16,69,192,31,06,64,225,26,21,50,086,37,03,48,245,26*79
$GPGSV,3,2,12,30,41,157,38,07,30,313,34,19,19,246,21,18,14,114,22*7C
$GPGSV,3,3,12,05,10,006,36,13,10,281,28,08,04,340,32,26,04,030,14*73
$GPRMC,143448.000,A,6515.9403,N,01424.3101,W,23.92,7.79,020912,,,A*40
$GPGGA,143449.000,6515.9468,N,01424.3085,W,1,10,0.9,38.4,M,58.8,M,,0000*7A
$GPGSA,A,3,03,21,13,16,07,30,06,05,19,18,,,1.6,0.9,1.3*3D
$GPRMC,143449.000,A,6515.9468,N,01424.3085,W,23.93,6.56,020912,,,A*4C
$GPGGA,143450.000,6515.9532,N,01424.3070,W,1,10,0.9,38.4,M,58.8,M,,0000*76
$GPGSA,A,3,03,21,13,16,07,30,06,05,19,18,,,1.6,0.9,1.3*3D
$GPRMC,143450.000,A,6515.9532,N,01424.3070,W,23.50,5.97,020912,,,A*41
$GPGGA,143451.000,6515.9598,N,01424.3057,W,1,10,0.9,38.3,M,58.8,M,,0000*75
$GPGSA,A,3,03,21,13,16,07,30,06,05,19,18,,,1.6,0.9,1.3*3D
$GPRMC,143451.000,A,6515.9598,N,01424.3057,W,23.99,5.42,020912,,,A*48
$GPGGA,143452.000,6515.9666,N,01424.3046,W,1,10,0.9,38.1,M,58.8,M,,0000*76
$GPGSA,A,3,03,21,13,16,07,30,06,05,19,18,,,1.6,0.9,1.3*3D
$GPRMC,143452.000,A,6515.9666,N,01424.3046,W,24.79,4.39,020912,,,A*4D
$GPGGA,143453.000,6515.9736,N,01424.3037,W,1,10,0.9,38.0,M,58.8,M,,0000*74
$GPGSA,A,3,03,21,13,16,07,30,06,05,19,18,,,1.6,0.9,1.3*3D
$GPGSV,3,1,12,16,69,192,31,06,64,225,18,21,50,086,39,03,48,245,33*7E
$GPGSV,3,2,12,30,41,157,32,07,30,313,37,19,19,246,33,18,14,114,21*75
$GPGSV,3,3,12,05,10,006,26,13,10,281,22,08,04,340,27,26,04,030,26*7D
$GPRMC,143453.000,A,6515.9736,N,01424.3037,W,25.46,3.75,020912,,,A*4C
$GPGGA,143454.000,6515.9808,N,01424.3032,W,1,10,0.9,37.8,M,58.8,M,,0000*73
$GPGSA,A,3,03,21,13,16,07,30,06,05,19,18,,,1.6,0.9,1.3*3D
$GPRMC,143454.000,A,6515.9808,N,01424.3032,W,26.15,2.16,020912,,,A*4D
$GPGGA,143455.000,6515.9881,N,01424.3030,W,1,10,0.9,37.7,M,58.8,M,,0000*7E
$GPGSA,A,3,03,21,13,16,07,30,06,05,19,18,,,1.6,0.9,1.3*3D
$GPRMC,143455.000,A,6515.9881,N,01424.3030,W,26.69,0.88,020912,,,A*41
$GPGGA,143456.000,6515.9955,N,01424.3033,W,1,10,0.9,37.6,M,58.8,M,,0000*77
$GPGSA,A,3,03,21,13,16,07,30,06,05,19,18,,,1.6,0.9,1.3*3D
$GPRMC,143456.000,A,6515.9955,N,01424.3033,W,26.58,359.51,020912,,,A*40
$GPGGA,143457.000,6516.0028,N,01424.3039,W,1,10,0.9,37.5,M,58.8,M,,0000*76
$GPGSA,A,3,03,21,13,16,07,30,06,05,19,18,,,1.6,0.9,1.3*3D
$GPRMC,143457.000,A,6516.0028,N,01424.3039,W,26.37,358.32,020912,,,A*4F
$GPGGA,143458.000,6516.0100,N,01424.3049,W,1,10,0.9,37.2,M,58.8,M,,0000*72
$GPGSA,A,3,03,21,13,16,07,30,06,05,19,18,,,1.6,0.9,1.3*3D
$GPGSV,3,1,12,16,69,192,30,06,64,225,31,21,50,086,41,03,48,245,36*7E
$GPGSV,3,2,12,30,41,157,30,07,30,313,38,19,19,246,30,18,14,114,30*7B
$GPGSV,3,3,12,05,10,006,32,13,10,281,20,08,04,340,28,26,04,030,22*71
$GPRMC,143458.000,A,6516.0100,N,01424.3049,W,26.22,356.95,020912,,,A*4B
$GPGGA,143459.000,6516.0172,N,01424.3062,W,1,10,0.9,37.0,M,58.8,M,,0000*7D
$GPGSA,A,3,03,21,13,16,07,30,06,05,19,18,,,1.6,0.9,1.3*3D
$GPRMC,143459.000,A,6516.0172,N,01424.3062,W,25.90,355.58,020912,,,A*4E
$GPGGA,143500.000,6516.0242,N,01424.3079,W,1,10,0.9,36.7,M,58.8,M,,0000*7C
$GPGSA,A,3,03,21,13,16,07,30,06,05,19,18,,,1.6,0.9,1.3*3D
$GPRMC,143500.000,A,6516.0242,N,01424.3079,W,25.61,354.42,020912,,,A*4D
$GPGGA,143501.000,6516.0314,N,01424.3100,W,1,10,0.9,36.4,M,58.8,M,,0000*73
$GPGSA,A,3,03,21,13,16,07,30,06,05,19,18,,,1.6,0.9,1.3*3D
$GPRMC,143501.000,A,6516.0314,N,01424.3100,W,25.98,353.08,020912,,,A*4E
$GPGGA,143502.000,6516.0386,N,01424.3124,W,1,10,0.9,36.2,M,58.8,M,,0000*7B
$GPGSA,A,3,03,21,13,16,07,30,06,05,19,18,,,1.6,0.9,1.3*3D
$GPRMC,143502.000,A,6516.0386,N,01424.3124,W,26.35,352.25,020912,,,A*4A
$GPGGA,143503.000,6516.0460,N,01424.3152,W,1,10,0.9,35.9,M,58.8,M,,0000*7C
$GPGSA,A,3,03,21,13,16,07,30,06,05,19,18,,,1.6,0.9,1.3*3D
$GPGSV,3,1,12,16,69,192,18,06,64,225,33,21,50,086,41,03,48,245,30*70
$GPGSV,3,2,12,30,41,157,28,07,30,313,25,19,19,246,35,18,14,114,31*7A
$GPGSV,3,3,12,05,10,006,35,13,10,281,19,08,04,340,22,26,04,030,23*77
$GPRMC,143503.000,A,6516.0460,N,01424.3152,W,27.12,350.89,020912,,,A*45
$GPGGA,143504.000,6516.0536,N,01424.3185,W,1,10,0.9,35.7,M,58.8,M,,0000*7D
$GPGSA,A,3,03,21,13,16,07,30,06,05,19,18,,,1.6,0.9,1.3*3D
$GPRMC,143504.000,A,6516.0536,N,01424.3185,W,27.74,349.38,020912,,,A*48
$GPGGA,143505.000,6516.0612,N,01424.3224,W,1,10,0.9,35.6,M,58.8,M,,0000*70
$GPGSA,A,3,03,21,13,16,07,30,06,05,19,18,,,1.6,0.9,1.3*3D
$GPRMC,143505.000,A,6516.0612,N,01424.3224,W,28.14,347.92,020912,,,A*43
$GPGGA,143506.000,6516.0689,N,01424.3268,W,1,10,0.9,35.5,M,58.8,M,,0000*7A
$GPGSA,A,3,03,21,13,16,07,30,06,05,19,18,,,1.6,0.9,1.3*3D
$GPRMC,143506.000,A,6516.0689,N,01424.3268,W,28.33,346.59,020912,,,A*49
$GPGGA,143507.000,6516.0766,N,01424.3315,W,1,10,0.9,35.4,M,58.8,M,,0000*71
$GPGSA,A,3,03,21,13,16,07,30,06,05,19,18,,,1.6,0.9,1.3*3D
$GPRMC,143507.000,A,6516.0766,N,01424.3315,W,28.46,345.40,020912,,,A*4A
$GPGGA,143508.000,6516.0843,N,01424.3366,W,1,10,0.9,35.4,M,58.8,M,,0000*72
$GPGSA,A,3,03,21,13,16,07,30,06,05,19,18,,,1.6,0.9,1.3*3D
$GPGSV,3,1,12,16,69,192,30,06,64,225,25,21,50,086,40,03,48,245,35*79
$GPGSV,3,2,12,30,41,157,32,07,30,313,31,19,19,246,22,18,14,114,33*70
$GPGSV,3,3,12,05,10,006,21,13,10,281,30,08,04,340,35,26,04,030,23*7F
$GPRMC,143508.000,A,6516.0843,N,01424.3366,W,28.34,344.28,020912,,,A*43
$GPGGA,143509.000,6516.0918,N,01424.3422,W,1,10,0.9,35.4,M,58.8,M,,0000*7B
$GPGSA,A,3,03,21,13,16,07,30,06,05,19,18,,,1.6,0.9,1.3*3D
$GPRMC,143509.000,A,6516.0918,N,01424.3422,W,28.09,342.52,020912,,,A*4F
$GPGGA,143510.000,6516.0994,N,01424.3484,W,1,10,0.9,35.4,M,58.8,M,,0000*7B
$GPGSA,A,3,03,21,13,16,07,30,06,05,19,18,,,1.6,0.9,1.3*3D
$GPRMC,143510.000,A,6516.0994,N,01424.3484,W,28.52,340.77,020912,,,A*44
$GPGGA,143511.000,6516.1069,N,01424.3552,W,1,10,0.9,35.5,M,58.8,M,,0000*7B
$GPGSA,A,3,03,21,13,16,07,30,06,05,19,18,,,1.6,0.9,1.3*3D
$GPRMC,143511.000,A,6516.1069,N,01424.3552,W,28.82,339.07,020912,,,A*41
$GPGGA,143512.000,6516.1145,N,01424.3623,W,1,10,0.9,35.5,M,58.8,M,,0000*72
$GPGSA,A,3,03,21,13,16,07,30,06,05,19,18,,,1.6,0.9,1.3*3D
$GPRMC,143512.000,A,6516.1145,N,01424.3623,W,29.24,338.12,020912,,,A*40
$GPGGA,143513.000,6516.1222,N,01424.3698,W,1,10,0.9,35.4,M,58.8,M,,0000*70
$GPGSA,A,3,03,21,13,16,07,30,06,05,19,18,,,1.6,0.9,1.3*3D
$GPGSV,3,1,12,16,69,192,33,06,64,225,29,21,50,086,39,03,48,245,32*7F
$GPGSV,3,2,12,30,41,157,27,07,30,313,25,19,19,246,27,18,14,114,28*7E
$GPGSV,3,3,12,05,10,006,20,13,10,281,32,08,04,340,35,26,04,030,33*7D
$GPRMC,143513.000,A,6516.1222,N,01424.3698,W,29.65,337.58,020912,,,A*47
$GPGGA,143514.000,6516.1299,N,01424.3775,W,1,10,0.9,35.3,M,58.8,M,,0000*72
$GPGSA,A,3,03,21,13,16,07,30,06,05,19,18,,,1.6,0.9,1.3*3D
$GPRMC,143514.000,A,6516.1299,N,01424.3775,W,29.94,337.20,020912,,,A*43
$GPGGA,143515.000,6516.1376,N,01424.3853,W,1,10,0.9,35.3,M,58.8,M,,0000*78
$GPGSA,A,3,03,21,13,16,07,30,06,05,19,18,,,1.6,0.9,1.3*3D
$GPRMC,143515.000,A,6516.1376,N,01424.3853,W,30.23,336.82,020912,,,A*44
$GPGGA,143516.000,6516.1453,N,01424.3934,W,1,10,0.9,35.4,M,58.8,M,,0000*7C
$GPGSA,A,3,03,21,13,16,07,30,06,05,19,18,,,1.6,0.9,1.3*3D
$GPRMC,143516.000,A,6516.1453,N,01424.3934,W,30.08,335.94,020912,,,A*4A
$GPGGA,143517.000,6516.1530,N,01424.4016,W,1,10,0.9,35.4,M,58.8,M,,0000*77
$GPGSA,A,3,03,21,13,16,07,30,06,05,19,18,,,1.6,0.9,1.3*3D
$GPRMC,143517.000,A,6516.1530,N,01424.4016,W,30.09,335.76,020912,,,A*4C
$GPGGA,143518.000,6516.1606,N,01424.4102,W,1,10,0.9,35.5,M,58.8,M,,0000*7B
$GPGSA,A,3,03,21,13,16,07,30,06,05,19,18,,,1.6,0.9,1.3*3D
$GPGSV,3,1,12,16,69,192,34,06,64,225,19,21,50,086,35,03,48,245,33*76
$GPGSV,3,2,12,30,41,157,27,07,30,313,27,19,19,246,27,18,14,114,25*71
$GPGSV,3,3,12,05,10,006,31,13,10,281,32,08,04,340,28,26,04,030,20*73
$GPRMC,143518.000,A,6516.1606,N,01424.4102,W,30.13,334.59,020912,,,A*46
$GPGGA,143519.000,6516.1681,N,01424.4191,W,1,09,1.0,35.6,M,58.8,M,,0000*7C
$GPGSA,A,3,03,21,13,16,07,30,06,05,18,,,,1.8,1.0,1.4*34
$GPRMC,143519.000,A,6516.1681,N,01424.4191,W,30.14,333.44,020912,,,A*4E
$GPGGA,143520.000,6516.1755,N,01424.4283,W,1,09,1.1,35.8,M,58.8,M,,0000*71
$GPGSA,A,3,03,21,13,16,07,30,06,05,19,,,,2.0,1.1,1.7*3C
$GPRMC,143520.000,A,6516.1755,N,01424.4283,W,29.83,332.36,020912,,,A*4E
$GPGGA,143521.000,6516.1829,N,01424.4377,W,1,10,0.9,36.0,M,58.8,M,,0000*74
$GPGSA,A,3,03,21,13,16,07,30,06,05,19,18,,,1.6,0.9,1.3*3D
$GPRMC,143521.000,A,6516.1829,N,01424.4377,W,29.68,331.55,020912,,,A*42
$GPGGA,143522.000,6516.1901,N,01424.4471,W,1,10,0.9,36.2,M,58.8,M,,0000*7F
$GPGSA,A,3,03,21,13,16,07,30,06,05,19,18,,,1.6,0.9,1.3*3D
$GPRMC,143522.000,A,6516.1901,N,01424.4471,W,29.45,331.42,020912,,,A*42
$GPGGA,143523.000,6516.1973,N,01424.4566,W,1,10,0.9,36.4,M,58.8,M,,0000*7A
$GPGSA,A,3,03,21,13,16,07,30,06,05,19,18,,,1.6,0.9,1.3*3D
$GPGSV,3,1,12,16,69,192,35,06,64,225,25,21,50,086,37,03,48,245,32*7B
$GPGSV,3,2,12,30,41,157,33,07,30,313,35,19,19,246,30,18,14,114,26*72
$GPGSV,3,3,12,05,10,006,33,13,10,281,33,08,04,340,22,26,04,030,23*79
$GPRMC,143523.000,A,6516.1973,N,01424.4566,W,29.28,330.82,020912,,,A*47
$GPGGA,143524.000,6516.2044,N,01424.4661,W,1,10,0.9,36.7,M,58.8,M,,0000*74
$GPGSA,A,3,03,21,13,16,07,30,06,05,19,18,,,1.6,0.9,1.3*3D
$GPRMC,143524.000,A,6516.2044,N,01424.4661,W,29.17,330.54,020912,,,A*4D
$GPGGA,143525.000,6516.2115,N,01424.4758,W,1,10,0.9,36.9,M,58.8,M,,0000*75
$GPGSA,A,3,03,21,13,16,07,30,06,05,19,18,,,1.6,0.9,1.3*3D
$GPRMC,143525.000,A,6516.2115,N,01424.4758,W,29.24,330.06,020912,,,A*45
$GPGGA,143526.000,6516.2187,N,01424.4856,W,1,10,0.9,37.1,M,58.8,M,,0000*75
$GPGSA,A,3,03,21,13,16,07,30,06,05,19,18,,,1.6,0.9,1.3*3D
$GPRMC,143526.000,A,6516.2187,N,01424.4856,W,29.60,330.20,020912,,,A*48
$GPGGA,143527.000,6516.2259,N,01424.4955,W,1,10,0.9,37.3,M,58.8,M,,0000*74
$GPGSA,A,3,03,21,13,16,07,30,06,05,19,18,,,1.6,0.9,1.3*3D
$GPRMC,143527.000,A,6516.2259,N,01424.4955,W,29.81,330.21,020912,,,A*45
$GPGGA,143528.000,6516.2332,N,01424.5052,W,1,10,0.9,37.4,M,58.8,M,,0000*7F
$GPGSA,A,3,03,21,13,16,07,30,06,05,19,18,,,1.6,0.9,1.3*3D
$GPGSV,3,1,12,16,69,192,34,06,64,225,32,21,50,086,38,03,48,245,35*74
$GPGSV,3,2,12,30,41,157,33,07,30,313,36,19,19,246,35,18,14,114,25*77
$GPGSV,3,3,12,05,10,006,20,13,10,281,34,08,04,340,22,26,04,030,27*78
$GPRMC,143528.000,A,6516.2332,N,01424.5052,W,29.78,330.43,020912,,,A*4B
$GPGGA,143529.000,6516.2403,N,01424.5150,W,1,10,0.9,37.6,M,58.8,M,,0000*7A
$GPGSA,A,3,03,21,13,16,07,30,06,05,19,18,,,1.6,0.9,1.3*3D
$GPRMC,143529.000,A,6516.2403,N,01424.5150,W,29.51,330.41,020912,,,A*45
$GPGGA,143530.000,6516.2474,N,01424.5247,W,1,10,0.9,37.7,M,58.8,M,,0000*76
$GPGSA,A,3,03,21,13,16,07,30,06,05,19,18,,,1.6,0.9,1.3*3D
$GPRMC,143530.000,A,6516.2474,N,01424.5247,W,29.44,330.47,020912,,,A*4A
$GPGGA,143531.000,6516.2544,N,01424.5341,W,1,10,0.9,37.8,M,58.8,M,,0000*7D
$GPGSA,A,3,03,21,13,16,07,30,06,05,19,18,,,1.6,0.9,1.3*3D
$GPRMC,143531.000,A,6516.2544,N,01424.5341,W,28.76,330.56,020912,,,A*4E
$GPGGA,143532.000,6516.2613,N,01424.5434,W,1,10,0.9,37.9,M,58.8,M,,0000*7B
$GPGSA,A,3,03,21,13,16,07,30,06,05,19,18,,,1.6,0.9,1.3*3D
$GPRMC,143532.000,A,6516.2613,N,01424.5434,W,28.35,330.66,020912,,,A*4D
$GPGGA,143533.000,6516.2680,N,01424.5525,W,1,10,0.9,38.0,M,58.8,M,,0000*77
$GPGSA,A,3,03,21,13,16,07,30,06,05,19,18,,,1.6,0.9,1.3*3D
$GPGSV,3,1,12,16,69,192,27,06,64,225,34,21,50,086,38,03,48,245,37*72
$GPGSV,3,2,12,30,41,157,17,07,30,313,35,19,19,246,33,18,14,114,25*74
$GPGSV,3,3,12,05,10,006,31,13,10,281,34,08,04,340,25,26,04,030,32*7B
$GPRMC,143533.000,A,6516.2680,N,01424.5525,W,27.84,330.82,020912,,,A*48
$GPGGA,143534.000,6516.2747,N,01424.5615,W,1,09,1.0,38.1,M,58.8,M,,0000*7B
$GPGSA,A,3,03,21,16,07,30,06,05,19,18,,,,1.7,1.0,1.4*31
$GPRMC,143534.000,A,6516.2747,N,01424.5615,W,27.65,330.82,020912,,,A*4A
$GPGGA,143535.000,6516.2813,N,01424.5703,W,1,09,1.0,38.1,M,58.8,M,,0000*72
$GPGSA,A,3,03,21,16,07,30,06,05,19,18,,,,1.7,1.0,1.4*31
$GPRMC,143535.000,A,6516.2813,N,01424.5703,W,27.25,331.19,020912,,,A*44
$GPGGA,143536.000,6516.2880,N,01424.5789,W,1,09,1.0,38.1,M,58.8,M,,0000*79
$GPGSA,A,3,03,21,16,07,30,06,05,19,18,,,,1.7,1.0,1.4*31
$GPRMC,143536.000,A,6516.2880,N,01424.5789,W,27.20,332.02,020912,,,A*43
$GPGGA,143537.000,6516.2947,N,01424.5874,W,1,09,1.0,38.2,M,58.8,M,,0000*7C
$GPGSA,A,3,03,21,16,07,30,06,05,19,18,,,,1.7,1.0,1.4*31
$GPRMC,143537.000,A,6516.2947,N,01424.5874,W,27.36,332.33,020912,,,A*40
$GPGGA,143538.000,6516.3015,N,01424.5959,W,1,09,1.0,38.3,M,58.8,M,,0000*73
$GPGSA,A,3,03,21,16,07,30,06,05,19,18,,,,1.7,1.0,1.4*31
$GPGSV,3,1,12,16,69,192,29,06,64,225,25,21,50,086,38,03,48,245,29*73
$GPGSV,3,2,12,30,41,157,29,07,30,313,28,19,19,246,20,18,14,114,19*78
