$GPRMC,073108.389,A,6423.3836,N,02150.8259,W,0.89,171.96,300812,,,A*7F
$GPGGA,073109.389,6423.3896,N,02150.8248,W,1,03,3.5,19.8,M,60.6,M,,0000*72
$GPGSA,A,2,15,27,12,,,,,,,,,,3.7,3.5,1.0*32
$GPRMC,073146.389,A,6423.3808,N,02150.8169,W,0.96,9.13,300812,,,A*75
$GPGGA,073147.389,6423.3841,N,02150.8171,W,1,03,3.5,19.8,M,60.6,M,,0000*7B
$GPGSA,A,2,15,27,12,,,,,,,,,,3.6,3.5,1.0*33
$GPRMC,073147.389,A,6423.3841,N,02150.8171,W,1.71,6.03,300812,,,A*76
$GPGGA,073148.389,6423.3810,N,02150.8163,W,0,03,,19.8,M,60.6,M,,0000*5A
$GPGSA,A,1,15,27,12,,,,,,,,,,,,*1C
$GPRMC,073329.393,A,6423.3743,N,02150.8120,W,0.89,11.29,300812,,,A*46
$GPGGA,073330.389,6423.3787,N,02150.8129,W,1,03,3.5,19.8,M,60.6,M,,0000*71
$GPGSA,A,2,15,27,12,,,,,,,,,,3.6,3.5,1.0*33
$GPGSV,3,1,12,27,56,100,27,12,38,181,31,15,22,144,30,09,68,111,24*7E
$GPGSV,3,2,12,22,38,264,,14,36,291,,17,28,056,,18,24,218,*71
$GPGSV,3,3,12,01,16,355,,11,08,339,,25,07,203,,28,06,038,*78
$GPRMC,074453.000,A,6423.3894,N,02150.8297,W,1.42,130.19,300812,,,A*7F
$GPGGA,074454.000,6423.3892,N,02150.8291,W,1,04,3.1,-7.6,M,60.6,M,,0000*65
$GPGSA,A,3,15,27,12,09,,,,,,,,,3.3,3.1,1.0*3A
$GPRMC,074456.000,A,6423.3893,N,02150.8294,W,1.07,320.30,300812,,,A*77
$GPGGA,074457.000,6423.3893,N,02150.8295,W,1,04,3.2,-7.4,M,60.6,M,,0000*62
$GPGSA,A,3,15,27,12,09,,,,,,,,,3.3,3.2,1.0*39
$GPRMC,074500.000,A,6423.3886,N,02150.8278,W,1.77,132.09,300812,,,A*7F
$GPGGA,074501.000,6423.3881,N,02150.8265,W,1,04,3.2,-7.1,M,60.6,M,,0000*69
$GPGSA,A,3,15,27,12,09,,,,,,,,,3.3,3.2,1.0*39
$GPRMC,074501.000,A,6423.3881,N,02150.8265,W,1.64,129.06,300812,,,A*72
$GPGGA,074502.000,6423.3878,N,02150.8257,W,1,04,3.2,-7.0,M,60.6,M,,0000*6C
$GPGSA,A,3,15,27,12,09,,,,,,,,,3.3,3.2,1.0*39
$GPRMC,074507.000,A,6423.3865,N,02150.8228,W,1.34,132.38,300812,,,A*75
$GPGGA,074508.000,6423.3861,N,02150.8218,W,1,04,3.2,-6.3,M,60.6,M,,0000*67
$GPGSA,A,3,15,27,12,09,,,,,,,,,3.3,3.2,1.0*39
$GPRMC,074508.000,A,6423.3861,N,02150.8218,W,1.41,130.23,300812,,,A*77
$GPGGA,074509.000,6423.3859,N,02150.8214,W,1,04,3.2,-6.2,M,60.6,M,,0000*60
$GPGSA,A,3,15,27,12,09,,,,,,,,,3.3,3.2,1.0*39
$GPRMC,074511.000,A,6423.3861,N,02150.8217,W,0.82,321.20,300812,,,A*7F
$GPGGA,074512.000,6423.3864,N,02150.8226,W,1,04,3.2,-6.0,M,60.6,M,,0000*67
$GPGSA,A,3,15,27,12,09,,,,,,,,,3.3,3.2,1.0*39
$GPRMC,074512.000,A,6423.3864,N,02150.8226,W,1.63,317.30,300812,,,A*71
$GPGGA,074513.000,6423.3868,N,02150.8235,W,1,04,3.2,-5.9,M,60.6,M,,0000*62
$GPGSA,A,3,15,27,12,09,,,,,,,,,3.3,3.2,1.0*39
$GPRMC,074513.000,A,6423.3868,N,02150.8235,W,1.48,314.54,300812,,,A*76
$GPGGA,074514.000,6423.3871,N,02150.8244,W,1,04,3.2,-5.8,M,60.6,M,,0000*6A
$GPGSA,A,3,15,27,12,09,,,,,,,,,3.3,3.2,1.0*39
$GPRMC,074514.000,A,6423.3871,N,02150.8244,W,1.45,316.94,300812,,,A*7C
$GPGGA,074515.000,6423.3874,N,02150.8250,W,1,04,3.2,-5.8,M,60.6,M,,0000*6B
$GPGSA,A,3,15,27,12,09,,,,,,,,,3.3,3.2,1.0*39
$GPGSV,3,1,12,09,63,107,27,27,51,099,31,12,43,179,34,14,40,290,15*76
$GPGSV,3,2,12,22,36,259,,17,28,051,,18,19,216,,15,17,145,23*7F
$GPGSV,3,3,12,01,16,351,16,25,12,204,,11,06,335,,28,01,038,*7D
$GPRMC,074515.000,A,6423.3874,N,02150.8250,W,0.92,317.61,300812,,,A*7D
$GPGGA,074516.000,6423.3875,N,02150.8252,W,1,04,3.2,-5.7,M,60.6,M,,0000*64
$GPGSA,A,3,15,27,12,09,,,,,,,,,3.3,3.2,1.0*39
$GPRMC,074517.000,A,6423.3876,N,02150.8257,W,0.87,320.97,300812,,,A*73
$GPGGA,074518.000,6423.3877,N,02150.8259,W,1,04,3.2,-5.6,M,60.6,M,,0000*62
$GPGSA,A,3,15,27,12,09,,,,,,,,,3.3,3.2,1.0*39
$GPRMC,074522.000,A,6423.3881,N,02150.8269,W,0.87,321.10,300812,,,A*7E
$GPGGA,074523.000,6423.3883,N,02150.8274,W,1,04,3.2,-5.3,M,60.6,M,,0000*6B
$GPGSA,A,3,15,27,12,09,,,,,,,,,3.3,3.2,1.0*39
$GPRMC,074523.000,A,6423.3883,N,02150.8274,W,1.05,319.07,300812,,,A*77
$GPGGA,074524.000,6423.3884,N,02150.8277,W,1,04,3.2,-5.2,M,60.6,M,,0000*69
$GPGSA,A,3,15,27,12,09,,,,,,,,,3.3,3.2,1.0*39
$GPRMC,074527.000,A,6423.3880,N,02150.8269,W,1.41,130.17,300812,,,A*74
$GPGGA,074528.000,6423.3878,N,02150.8264,W,1,04,3.2,-5.1,M,60.6,M,,0000*67
$GPGSA,A,3,15,27,12,09,,,,,,,,,3.3,3.2,1.0*39
$GPRMC,074528.000,A,6423.3878,N,02150.8264,W,1.07,128.02,300812,,,A*7E
$GPGGA,074529.000,6423.3877,N,02150.8260,W,1,04,3.2,-5.1,M,60.6,M,,0000*6D
$GPGSA,A,3,15,27,12,09,,,,,,,,,3.3,3.2,1.0*39
$GPRMC,074538.000,A,6423.3870,N,02150.8243,W,1.31,131.10,300812,,,A*7C
$GPGGA,074539.000,6423.3868,N,02150.8237,W,1,04,3.2,-4.4,M,60.6,M,,0000*64
$GPGSA,A,3,15,27,12,09,,,,,,,,,3.3,3.2,1.0*39
$GPRMC,074544.000,A,6423.3864,N,02150.8228,W,1.04,130.87,300812,,,A*76
$GPGGA,074545.000,6423.3861,N,02150.8221,W,1,04,3.2,-4.0,M,60.6,M,,0000*65
$GPGSA,A,3,15,27,12,09,,,,,,,,,3.3,3.2,1.0*39
$GPGSV,3,1,12,09,63,107,27,27,51,099,30,12,43,179,34,14,40,290,*73
$GPGSV,3,2,12,22,36,259,,17,28,051,,18,19,216,,15,17,145,22*7E
$GPGSV,3,3,12,01,16,351,,25,12,204,,11,06,335,,28,01,038,*7A
$GPRMC,074545.000,A,6423.3861,N,02150.8221,W,1.29,130.43,300812,,,A*7C
$GPGGA,074546.000,6423.3859,N,02150.8215,W,1,04,3.2,-3.9,M,60.6,M,,0000*64
$GPGSA,A,3,15,27,12,09,,,,,,,,,3.3,3.2,1.0*39
$GPRMC,074546.000,A,6423.3859,N,02150.8215,W,0.86,125.17,300812,,,A*72
$GPGGA,074547.000,6423.3858,N,02150.8212,W,1,04,3.2,-3.9,M,60.6,M,,0000*63
$GPGSA,A,3,15,27,12,09,,,,,,,,,3.3,3.2,1.0*39
$GPRMC,074551.000,A,6423.3849,N,02150.8191,W,0.92,130.36,300812,,,A*78
$GPGGA,074552.000,6423.3847,N,02150.8186,W,1,04,3.2,-3.4,M,60.6,M,,0000*6A
$GPGSA,A,3,15,27,12,09,,,,,,,,,3.3,3.2,1.0*39
$GPRMC,074557.000,A,6423.3849,N,02150.8191,W,1.44,319.04,300812,,,A*7C
$GPGGA,074558.000,6423.3854,N,02150.8201,W,1,04,3.2,-3.0,M,60.6,M,,0000*6A
$GPGSA,A,3,15,27,12,09,,,,,,,,,3.3,3.2,1.0*39
$GPRMC,074558.000,A,6423.3854,N,02150.8201,W,1.52,317.62,300812,,,A*7C
$GPGGA,074559.000,6423.3857,N,02150.8209,W,1,04,3.2,-2.9,M,60.6,M,,0000*68
$GPGSA,A,3,15,27,12,09,,,,,,,,,3.3,3.2,1.0*39
$GPRMC,074559.000,A,6423.3857,N,02150.8209,W,0.91,316.84,300812,,,A*71
$GPGGA,074600.000,6423.3859,N,02150.8215,W,1,04,3.2,-2.9,M,60.6,M,,0000*64
$GPGSA,A,3,15,27,12,09,,,,,,,,,3.3,3.2,1.0*39
$GPGSV,3,1,12,09,63,107,27,27,51,099,30,12,43,179,34,14,40,290,*73
$GPGSV,3,2,12,22,36,259,,17,28,051,,18,19,216,,15,17,145,24*78
$GPGSV,3,3,12,01,16,351,18,25,12,204,,11,06,335,,28,01,038,*73
$GPRMC,074606.000,A,6423.3873,N,02150.8249,W,1.12,318.59,300812,,,A*7E
$GPGGA,074607.000,6423.3877,N,02150.8260,W,1,04,3.2,-2.8,M,60.6,M,,0000*6C
$GPGSA,A,3,15,27,12,09,,,,,,,,,3.3,3.2,1.0*39
$GPRMC,074607.000,A,6423.3877,N,02150.8260,W,1.58,317.90,300812,,,A*74
$GPGGA,074608.000,6423.3881,N,02150.8268,W,1,04,3.2,-2.8,M,60.6,M,,0000*62
$GPGSA,A,3,15,27,12,09,,,,,,,,,3.3,3.2,1.0*39
$GPRMC,074608.000,A,6423.3881,N,02150.8268,W,1.09,316.34,300812,,,A*71
$GPGGA,074609.000,6423.3883,N,02150.8275,W,1,04,3.2,-2.9,M,60.6,M,,0000*6C
$GPGSA,A,3,15,27,12,09,,,,,,,,,3.3,3.2,1.0*39
$GPRMC,074616.000,A,6423.3896,N,02150.8307,W,1.59,319.57,300812,,,A*7F
$GPGGA,074617.000,6423.3899,N,02150.8314,W,1,04,3.2,-3.2,M,60.6,M,,0000*64
$GPGSA,A,3,15,27,12,09,,,,,,,,,3.3,3.2,1.0*39
$GPRMC,074617.000,A,6423.3899,N,02150.8314,W,0.98,317.86,300812,,,A*7D
$GPGGA,074618.000,6423.3901,N,02150.8320,W,1,04,3.2,-3.2,M,60.6,M,,0000*6C
$GPGSA,A,3,15,27,12,09,,,,,,,,,3.3,3.2,1.0*39
$GPRMC,074618.000,A,6423.3901,N,02150.8320,W,0.84,322.09,300812,,,A*79
$GPGGA,074619.000,6423.3902,N,02150.8322,W,1,04,3.2,-3.2,M,60.6,M,,0000*6C
$GPGSA,A,3,15,27,12,09,,,,,,,,,3.3,3.2,1.0*39
$GPRMC,074621.000,A,6423.3901,N,02150.8319,W,0.90,133.05,300812,,,A*72
$GPGGA,074622.000,6423.3900,N,02150.8316,W,1,04,3.2,-3.2,M,60.6,M,,0000*61
$GPGSA,A,3,15,27,12,09,,,,,,,,,3.3,3.2,1.0*39
$GPRMC,075056.000,A,6423.3870,N,02150.8266,W,0.99,171.31,300812,,,A*73
$GPGGA,075057.000,6423.3868,N,02150.8263,W,1,04,3.2,2.9,M,60.6,M,,0000*4F
$GPGSA,A,3,15,27,12,09,,,,,,,,,3.3,3.2,1.0*39
$GPRMC,084920.000,A,6423.6232,N,02150.9296,W,6.33,350.30,300812,,,A*74
$GPGGA,084921.000,6423.6106,N,02150.9269,W,1,04,7.4,-52.3,M,60.6,M,,0000*56
$GPGSA,A,3,25,27,12,09,,,,,,,,,7.4,7.4,1.0*3B
$GPRMC,084921.000,A,6423.6106,N,02150.9269,W,3.34,343.83,300812,,,A*79
$GPGGA,084922.000,6423.5988,N,02150.9243,W,1,04,7.4,-51.9,M,60.6,M,,0000*59
$GPGSA,A,3,25,27,12,09,,,,,,,,,7.4,7.4,1.0*3B
$GPRMC,084922.000,A,6423.5988,N,02150.9243,W,2.41,340.85,300812,,,A*79
$GPGGA,084923.000,6423.5877,N,02150.9218,W,1,04,7.3,-51.4,M,60.6,M,,0000*5D
$GPGSA,A,3,25,27,12,09,,,,,,,,,7.4,7.3,1.0*3C
$GPRMC,084923.000,A,6423.5877,N,02150.9218,W,1.93,339.62,300812,,,A*7C
$GPGGA,084924.000,6423.5774,N,02150.9194,W,1,04,7.3,-51.0,M,60.6,M,,0000*55
$GPGSA,A,3,25,27,12,09,,,,,,,,,7.4,7.3,1.0*3C
$GPRMC,084924.000,A,6423.5774,N,02150.9194,W,1.60,340.05,300812,,,A*73
$GPGGA,084925.000,6423.5679,N,02150.9172,W,1,04,7.3,-50.6,M,60.6,M,,0000*57
$GPGSA,A,3,25,27,12,09,,,,,,,,,7.4,7.3,1.0*3C
$GPGSV,3,1,12,12,68,139,31,14,61,256,,25,42,205,27,09,32,106,37*77
$GPGSV,3,2,12,27,23,105,32,32,19,331,15,17,16,026,,22,15,236,*70
$GPGSV,3,3,12,31,12,272,,01,07,326,,04,05,065,,20,05,355,*7B
$GPRMC,084925.000,A,6423.5679,N,02150.9172,W,1.38,341.53,300812,,,A*79
$GPGGA,084926.000,6423.5590,N,02150.9150,W,1,04,7.3,-50.2,M,60.6,M,,0000*54
$GPGSA,A,3,25,27,12,09,,,,,,,,,7.4,7.3,1.0*3C
$GPRMC,084926.000,A,6423.5590,N,02150.9150,W,1.15,340.05,300812,,,A*73
$GPGGA,084927.000,6423.5508,N,02150.9130,W,1,04,7.3,-49.8,M,60.6,M,,0000*50
$GPGSA,A,3,25,27,12,09,,,,,,,,,7.4,7.3,1.0*3C
$GPRMC,084927.000,A,6423.5508,N,02150.9130,W,0.98,341.54,300812,,,A*74
$GPGGA,084928.000,6423.5431,N,02150.9111,W,1,04,7.3,-49.4,M,60.6,M,,0000*5B
$GPGSA,A,3,25,27,12,09,,,,,,,,,7.4,7.3,1.0*3C
$GPRMC,084928.000,A,6423.5431,N,02150.9111,W,0.84,341.54,300812,,,A*7E
$GPGGA,084929.000,6423.5360,N,02150.9092,W,1,04,7.3,-49.0,M,60.6,M,,0000*57
$GPGSA,A,3,25,27,12,09,,,,,,,,,7.4,7.3,1.0*3C
$GPRMC,085127.000,A,6423.4403,N,02150.8751,W,0.89,350.71,300812,,,A*71
$GPGGA,085128.000,6423.4405,N,02150.8752,W,1,04,6.9,-34.4,M,60.6,M,,0000*55
$GPGSA,A,3,25,27,12,09,,,,,,,,,7.0,6.9,1.0*33
$GPRMC,085128.000,A,6423.4405,N,02150.8752,W,1.06,348.77,300812,,,A*72
$GPGGA,085129.000,6423.4408,N,02150.8753,W,1,04,6.9,-34.4,M,60.6,M,,0000*58
$GPGSA,A,3,25,27,12,09,,,,,,,,,7.0,6.9,1.0*33
$GPRMC,085129.000,A,6423.4408,N,02150.8753,W,1.09,348.90,300812,,,A*79
$GPGGA,085130.000,6423.4412,N,02150.8753,W,1,04,6.9,-34.4,M,60.6,M,,0000*5B
$GPGSA,A,3,25,27,12,09,,,,,,,,,7.0,6.9,1.0*33
$GPGSV,3,1,12,12,68,139,31,14,61,256,,25,42,205,26,09,32,106,37*76
$GPGSV,3,2,12,27,23,105,33,32,19,331,,17,16,026,,22,15,236,*75
$GPGSV,3,3,12,31,12,272,,01,07,326,,04,05,065,,20,05,355,*7B
$GPRMC,085130.000,A,6423.4412,N,02150.8753,W,1.09,347.61,300812,,,A*7B
$GPGGA,085131.000,6423.4415,N,02150.8754,W,1,04,6.9,-34.3,M,60.6,M,,0000*5D
$GPGSA,A,3,25,27,12,09,,,,,,,,,7.0,6.9,1.0*33
$GPRMC,085131.000,A,6423.4415,N,02150.8754,W,1.09,347.13,300812,,,A*7F
$GPGGA,085132.000,6423.4418,N,02150.8755,W,1,04,6.9,-34.3,M,60.6,M,,0000*52
$GPGSA,A,3,25,27,12,09,,,,,,,,,7.0,6.9,1.0*33
$GPRMC,085132.000,A,6423.4418,N,02150.8755,W,1.01,346.26,300812,,,A*7F
$GPGGA,085133.000,6423.4420,N,02150.8755,W,1,04,6.9,-34.3,M,60.6,M,,0000*58
$GPGSA,A,3,25,27,12,09,,,,,,,,,7.0,6.9,1.0*33
$GPRMC,085133.000,A,6423.4420,N,02150.8755,W,0.91,347.66,300812,,,A*78
$GPGGA,085134.000,6423.4422,N,02150.8755,W,1,04,6.9,-34.2,M,60.6,M,,0000*5C
$GPGSA,A,3,25,27,12,09,,,,,,,,,7.0,6.9,1.0*33
$GPRMC,085144.000,A,6423.4422,N,02150.8744,W,0.84,359.04,300812,,,A*75
$GPGGA,085145.000,6423.4421,N,02150.8743,W,1,04,6.9,-33.5,M,60.6,M,,0000*5E
$GPGSA,A,3,25,27,12,09,,,,,,,,,7.0,6.9,1.0*33
$GPGSV,3,1,12,12,68,139,31,14,61,256,,25,42,205,25,09,32,106,37*75
$GPGSV,3,2,12,27,23,105,33,32,19,331,,17,16,026,,22,15,236,*75
$GPGSV,3,3,12,31,12,272,,01,07,326,,04,05,065,,20,05,355,*7B
$GPRMC,085158.000,A,6423.4395,N,02150.8722,W,1.05,353.98,300812,,,A*74
$GPGGA,085159.000,6423.4399,N,02150.8723,W,1,04,6.9,-32.4,M,60.6,M,,0000*51
$GPGSA,A,3,25,27,12,09,,,,,,,,,6.9,6.9,1.0*3B
$GPRMC,085159.000,A,6423.4399,N,02150.8723,W,1.39,350.34,300812,,,A*72
$GPGGA,085200.000,6423.4402,N,02150.8724,W,1,04,6.9,-32.3,M,60.6,M,,0000*5B
$GPGSA,A,3,25,27,12,09,,,,,,,,,6.9,6.9,1.0*3B
$GPGSV,3,1,12,12,68,139,31,14,61,256,,25,42,205,24,09,32,106,37*74
$GPGSV,3,2,12,27,23,105,34,32,19,331,,17,16,026,,22,15,236,*72
$GPGSV,3,3,12,31,12,272,,01,07,326,,04,05,065,,20,05,355,*7B
$GPRMC,085200.000,A,6423.4402,N,02150.8724,W,1.10,348.03,300812,,,A*79
$GPGGA,085201.000,6423.4405,N,02150.8725,W,1,04,6.8,-32.3,M,60.6,M,,0000*5D
$GPGSA,A,3,25,27,12,09,,,,,,,,,6.9,6.8,1.0*3A
$GPRMC,085201.000,A,6423.4405,N,02150.8725,W,0.84,347.72,300812,,,A*7B
$GPGGA,085202.000,6423.4405,N,02150.8724,W,1,04,6.8,-32.2,M,60.6,M,,0000*5E
$GPGSA,A,3,25,27,12,09,,,,,,,,,6.9,6.8,1.0*3A
$GPRMC,085205.000,A,6423.4396,N,02150.8719,W,0.83,163.20,300812,,,A*79
$GPGGA,085206.000,6423.4390,N,02150.8715,W,1,04,6.8,-31.8,M,60.6,M,,0000*5A
$GPGSA,A,3,25,27,12,09,,,,,,,,,6.9,6.8,1.0*3A
$GPRMC,085206.000,A,6423.4390,N,02150.8715,W,1.14,165.32,300812,,,A*7A
$GPGGA,085207.000,6423.4383,N,02150.8712,W,1,04,6.8,-31.6,M,60.6,M,,0000*50
$GPGSA,A,3,25,27,12,09,,,,,,,,,6.9,6.8,1.0*3A
$GPRMC,085207.000,A,6423.4383,N,02150.8712,W,1.07,162.12,300812,,,A*79
$GPGGA,085208.000,6423.4378,N,02150.8709,W,1,04,6.8,-31.5,M,60.6,M,,0000*52
$GPGSA,A,3,25,27,12,09,,,,,,,,,6.9,6.8,1.0*3A
$GPRMC,085208.000,A,6423.4378,N,02150.8709,W,0.96,169.13,300812,,,A*7B
$GPGGA,085209.000,6423.4373,N,02150.8708,W,1,04,6.8,-31.4,M,60.6,M,,0000*58
$GPGSA,A,3,25,27,12,09,,,,,,,,,6.9,6.8,1.0*3A
$GPRMC,085209.000,A,6423.4373,N,02150.8708,W,0.97,180.61,300812,,,A*73
$GPGGA,085210.000,6423.4370,N,02150.8706,W,1,04,6.8,-31.3,M,60.6,M,,0000*5A
$GPGSA,A,3,25,27,12,09,,,,,,,,,6.9,6.8,1.0*3A
$GPGSV,3,1,12,12,68,139,31,14,61,256,,25,42,205,24,09,32,106,37*74
$GPGSV,3,2,12,27,23,105,33,32,19,331,,17,16,026,,22,15,236,*75
$GPGSV,3,3,12,31,12,272,,01,07,326,,04,05,065,,20,05,355,*7B
$GPRMC,085213.000,A,6423.4373,N,02150.8703,W,1.14,0.60,300812,,,A*71
$GPGGA,085214.000,6423.4373,N,02150.8704,W,1,04,6.8,-30.9,M,60.6,M,,0000*54
$GPGSA,A,3,25,27,12,09,,,,,,,,,6.9,6.8,1.0*3A
$GPRMC,085225.000,A,6423.4345,N,02150.8688,W,1.80,176.10,300812,,,A*79
$GPGGA,085226.000,6423.4337,N,02150.8685,W,1,04,6.8,-29.8,M,60.6,M,,0000*54
$GPGSA,A,3,25,27,12,09,,,,,,,,,6.8,6.8,1.0*3B
$GPRMC,085226.000,A,6423.4337,N,02150.8685,W,1.64,172.38,300812,,,A*76
$GPGGA,085227.000,6423.4327,N,02150.8682,W,1,04,6.8,-29.7,M,60.6,M,,0000*5C
$GPGSA,A,3,25,27,12,09,,,,,,,,,6.8,6.8,1.0*3B
$GPRMC,085227.000,A,6423.4327,N,02150.8682,W,2.05,173.37,300812,,,A*7B
$GPGGA,085228.000,6423.4315,N,02150.8679,W,1,04,6.8,-29.5,M,60.6,M,,0000*54
$GPGSA,A,3,25,27,12,09,,,,,,,,,6.8,6.8,1.0*3B
$GPRMC,085228.000,A,6423.4315,N,02150.8679,W,2.43,174.40,300812,,,A*74
$GPGGA,085229.000,6423.4309,N,02150.8675,W,1,04,6.8,-29.4,M,60.6,M,,0000*55
$GPGSA,A,3,25,27,12,09,,,,,,,,,6.8,6.8,1.0*3B
$GPRMC,085229.000,A,6423.4309,N,02150.8675,W,1.04,159.60,300812,,,A*79
$GPGGA,085230.000,6423.4303,N,02150.8673,W,1,04,6.8,-29.3,M,60.6,M,,0000*56
$GPGSA,A,3,25,27,12,09,,,,,,,,,6.8,6.8,1.0*3B
$GPGSV,3,1,12,12,68,135,32,14,61,253,,25,43,205,24,09,31,106,37*7C
$GPGSV,3,2,12,27,22,105,33,32,20,329,,17,15,025,,22,14,235,*75
$GPGSV,3,3,12,31,14,272,,04,06,064,,01,06,325,,20,06,354,*7F
$GPRMC,085230.000,A,6423.4303,N,02150.8673,W,1.17,172.62,300812,,,A*74
$GPGGA,085231.000,6423.4298,N,02150.8671,W,1,04,6.8,-29.2,M,60.6,M,,0000*57
$GPGSA,A,3,25,27,12,09,,,,,,,,,6.8,6.8,1.0*3B
$GPRMC,085231.000,A,6423.4298,N,02150.8671,W,0.91,168.35,300812,,,A*72
$GPGGA,085232.000,6423.4299,N,02150.8670,W,1,04,6.8,-29.1,M,60.6,M,,0000*57
$GPGSA,A,3,25,27,12,09,,,,,,,,,6.8,6.8,1.0*3B
$GPRMC,085232.000,A,6423.4299,N,02150.8670,W,1.00,13.65,300812,,,A*40
$GPGGA,085233.000,6423.4301,N,02150.8668,W,1,04,6.8,-29.0,M,60.6,M,,0000*5E
$GPGSA,A,3,25,27,12,09,,,,,,,,,6.8,6.8,1.0*3B
$GPRMC,085233.000,A,6423.4301,N,02150.8668,W,1.20,11.80,300812,,,A*43
$GPGGA,085234.000,6423.4306,N,02150.8667,W,1,04,6.8,-28.9,M,60.6,M,,0000*59
$GPGSA,A,3,25,27,12,09,,,,,,,,,6.8,6.8,1.0*3B
$GPRMC,085234.000,A,6423.4306,N,02150.8667,W,1.95,3.43,300812,,,A*7E
$GPGGA,085235.000,6423.4314,N,02150.8667,W,1,04,6.8,-28.9,M,60.6,M,,0000*5B
$GPGSA,A,3,25,27,12,09,,,,,,,,,6.8,6.8,1.0*3B
$GPGSV,3,1,12,12,68,135,32,14,61,253,,25,43,205,23,09,31,106,37*7B
$GPGSV,3,2,12,27,22,105,33,32,20,329,,17,15,025,,22,14,235,*75
$GPGSV,3,3,12,31,14,272,,04,06,064,,01,06,325,,20,06,354,*7F
$GPRMC,085235.000,A,6423.4314,N,02150.8667,W,2.48,357.66,300812,,,A*7A
$GPGGA,085236.000,6423.4322,N,02150.8668,W,1,04,6.7,-28.8,M,60.6,M,,0000*5C
$GPGSA,A,3,25,27,12,09,,,,,,,,,6.8,6.7,1.0*34
$GPRMC,085236.000,A,6423.4322,N,02150.8668,W,2.49,357.71,300812,,,A*74
$GPGGA,085237.000,6423.4325,N,02150.8667,W,1,04,6.7,-28.8,M,60.6,M,,0000*55
$GPGSA,A,3,25,27,12,09,,,,,,,,,6.8,6.7,1.0*34
$GPRMC,085237.000,A,6423.4325,N,02150.8667,W,1.49,1.21,300812,,,A*7B
$GPGGA,085238.000,6423.4325,N,02150.8668,W,1,04,6.7,-28.7,M,60.6,M,,0000*5A
$GPGSA,A,3,25,27,12,09,,,,,,,,,6.8,6.7,1.0*34
$GPRMC,085241.000,A,6423.4313,N,02150.8666,W,0.97,185.92,300812,,,A*79
$GPGGA,085242.000,6423.4302,N,02150.8663,W,1,04,6.7,-28.3,M,60.6,M,,0000*5D
$GPGSA,A,3,25,27,12,09,,,,,,,,,6.8,6.7,1.0*34
$GPRMC,085242.000,A,6423.4302,N,02150.8663,W,2.46,173.84,300812,,,A*7F
$GPGGA,085243.000,6423.4292,N,02150.8660,W,1,04,6.7,-28.2,M,60.6,M,,0000*56
$GPGSA,A,3,25,27,12,09,,,,,,,,,6.8,6.7,1.0*34
$GPRMC,085243.000,A,6423.4292,N,02150.8660,W,2.01,170.08,300812,,,A*71
$GPGGA,085244.000,6423.4284,N,02150.8656,W,1,04,6.7,-28.0,M,60.6,M,,0000*51
$GPGSA,A,3,25,27,12,09,,,,,,,,,6.8,6.7,1.0*34
$GPRMC,085244.000,A,6423.4284,N,02150.8656,W,1.67,166.28,300812,,,A*72
$GPGGA,085245.000,6423.4278,N,02150.8653,W,1,04,6.7,-27.9,M,60.6,M,,0000*50
$GPGSA,A,3,25,27,12,09,,,,,,,,,6.8,6.7,1.0*34
$GPGSV,3,1,12,12,68,135,32,14,61,253,,25,43,205,24,09,31,106,37*7C
$GPGSV,3,2,12,27,22,105,33,32,20,329,,17,15,025,,22,14,235,*75
$GPGSV,3,3,12,31,14,272,,04,06,064,,01,06,325,,20,06,354,*7F
$GPRMC,085245.000,A,6423.4278,N,02150.8653,W,0.97,159.05,300812,,,A*78
$GPGGA,085246.000,6423.4275,N,02150.8651,W,1,04,6.7,-27.8,M,60.6,M,,0000*5D
$GPGSA,A,3,25,27,12,09,,,,,,,,,6.8,6.7,1.0*34
$GPRMC,085249.000,A,6423.4266,N,02150.8649,W,0.99,183.42,300812,,,A*7A
$GPGGA,085250.000,6423.4261,N,02150.8649,W,1,04,6.7,-27.5,M,60.6,M,,0000*5B
$GPGSA,A,3,25,27,12,09,,,,,,,,,6.8,6.7,1.0*34
$GPGSV,3,1,12,12,68,135,32,14,61,253,,25,43,205,24,09,31,106,37*7C
$GPGSV,3,2,12,27,22,105,33,32,20,329,,17,15,025,,22,14,235,*75
$GPGSV,3,3,12,31,14,272,,04,06,064,18,01,06,325,,20,06,354,*76
$GPRMC,085250.000,A,6423.4261,N,02150.8649,W,0.95,186.91,300812,,,A*72
$GPGGA,085251.000,6423.4263,N,02150.8648,W,1,04,6.7,-27.5,M,60.6,M,,0000*59
$GPGSA,A,3,25,27,12,09,,,,,,,,,6.8,6.7,1.0*34
$GPRMC,085307.000,A,6423.4259,N,02150.8648,W,0.98,190.78,300812,,,A*76
$GPGGA,085308.000,6423.4258,N,02150.8647,W,1,04,6.7,-27.1,M,60.6,M,,0000*57
$GPGSA,A,3,25,27,12,09,,,,,,,,,6.7,6.7,1.0*3B
$GPRMC,085316.000,A,6423.4252,N,02150.8643,W,1.14,180.53,300812,,,A*7B
$GPGGA,085317.000,6423.4248,N,02150.8641,W,1,04,6.6,-26.9,M,60.6,M,,0000*56
$GPGSA,A,3,25,27,12,09,,,,,,,,,6.7,6.6,1.0*3A
$GPRMC,085317.000,A,6423.4248,N,02150.8641,W,0.82,169.17,300812,,,A*7A
$GPGGA,085318.000,6423.4246,N,02150.8639,W,1,04,6.6,-26.9,M,60.6,M,,0000*58
$GPGSA,A,3,25,27,12,09,,,,,,,,,6.7,6.6,1.0*3A
$GPRMC,085330.000,A,6423.4243,N,02150.8625,W,0.91,357.46,300812,,,A*7F
$GPGGA,085331.000,6423.4246,N,02150.8625,W,1,04,6.6,-26.3,M,60.6,M,,0000*54
$GPGSA,A,3,25,27,12,09,,,,,,,,,6.7,6.6,1.0*3A
$GPRMC,085331.000,A,6423.4246,N,02150.8625,W,0.94,352.72,300812,,,A*7C
$GPGGA,085332.000,6423.4249,N,02150.8626,W,1,04,6.6,-26.3,M,60.6,M,,0000*5B
$GPGSA,A,3,25,27,12,09,,,,,,,,,6.7,6.6,1.0*3A
$GPRMC,085332.000,A,6423.4249,N,02150.8626,W,1.02,350.56,300812,,,A*79
$GPGGA,085333.000,6423.4252,N,02150.8627,W,1,04,6.6,-26.3,M,60.6,M,,0000*51
$GPGSA,A,3,25,27,12,09,,,,,,,,,6.7,6.6,1.0*3A
$GPRMC,085333.000,A,6423.4252,N,02150.8627,W,0.87,347.82,300812,,,A*70
$GPGGA,085334.000,6423.4255,N,02150.8627,W,1,04,6.6,-26.2,M,60.6,M,,0000*50
$GPGSA,A,3,25,27,12,09,,,,,,,,,6.7,6.6,1.0*3A
$GPRMC,085402.000,A,6423.4232,N,02150.8603,W,0.98,186.58,300812,,,A*73
$GPGGA,085403.000,6423.4231,N,02150.8602,W,1,04,6.5,-24.3,M,60.6,M,,0000*56
$GPGSA,A,3,25,27,12,09,,,,,,,,,6.6,6.5,1.0*38
$GPRMC,085407.000,A,6423.4232,N,02150.8597,W,1.27,359.51,300812,,,A*74
$GPGGA,085408.000,6423.4234,N,02150.8596,W,1,04,6.5,-23.9,M,60.6,M,,0000*5B
$GPGSA,A,3,25,27,12,09,,,,,,,,,6.6,6.5,1.0*38
$GPRMC,085408.000,A,6423.4234,N,02150.8596,W,0.86,359.61,300812,,,A*75
$GPGGA,085409.000,6423.4236,N,02150.8596,W,1,04,6.5,-23.9,M,60.6,M,,0000*58
$GPGSA,A,3,25,27,12,09,,,,,,,,,6.6,6.5,1.0*38
$GPRMC,085409.000,A,6423.4236,N,02150.8596,W,1.01,3.22,300812,,,A*73
$GPGGA,085410.000,6423.4240,N,02150.8594,W,1,04,6.5,-23.8,M,60.6,M,,0000*52
$GPGSA,A,3,25,27,12,09,,,,,,,,,6.6,6.5,1.0*38
$GPGSV,3,1,12,12,68,135,31,14,61,253,,25,43,205,24,09,31,106,37*7F
$GPGSV,3,2,12,27,22,105,33,32,20,329,17,17,15,025,,22,14,235,*73
$GPGSV,3,3,12,31,14,272,,04,06,064,17,01,06,325,,20,06,354,*79
$GPRMC,085410.000,A,6423.4240,N,02150.8594,W,1.56,6.03,300812,,,A*7C
$GPGGA,085411.000,6423.4241,N,02150.8595,W,1,04,6.5,-23.7,M,60.6,M,,0000*5C
$GPGSA,A,3,25,27,12,09,,,,,,,,,6.6,6.5,1.0*38
$GPRMC,085417.000,A,6423.4227,N,02150.8589,W,1.64,181.39,300812,,,A*70
$GPGGA,085418.000,6423.4218,N,02150.8586,W,1,04,6.5,-23.0,M,60.6,M,,0000*5C
$GPGSA,A,3,25,27,12,09,,,,,,,,,6.5,6.5,1.0*3B
$GPRMC,085418.000,A,6423.4218,N,02150.8586,W,1.90,172.80,300812,,,A*79
$GPGGA,085419.000,6423.4210,N,02150.8583,W,1,04,6.5,-22.9,M,60.6,M,,0000*58
$GPGSA,A,3,25,27,12,09,,,,,,,,,6.5,6.5,1.0*3B
$GPRMC,085419.000,A,6423.4210,N,02150.8583,W,1.41,165.56,300812,,,A*74
$GPGGA,085420.000,6423.4209,N,02150.8580,W,1,04,6.5,-22.7,M,60.6,M,,0000*57
$GPGSA,A,3,25,27,12,09,,,,,,,,,6.5,6.5,1.0*3B
$GPGSV,3,1,12,12,68,135,31,14,61,253,,25,43,205,24,09,31,106,37*7F
$GPGSV,3,2,12,27,22,105,33,32,20,329,17,17,15,025,,22,14,235,*73
$GPGSV,3,3,12,31,14,272,,04,06,064,17,01,06,325,,20,06,354,*79
$GPRMC,085421.000,A,6423.4215,N,02150.8577,W,2.43,10.04,300812,,,A*44
$GPGGA,085422.000,6423.4218,N,02150.8576,W,1,04,6.5,-22.5,M,60.6,M,,0000*5E
$GPGSA,A,3,25,27,12,09,,,,,,,,,6.5,6.5,1.0*3B
$GPRMC,085422.000,A,6423.4218,N,02150.8576,W,1.29,0.82,300812,,,A*7B
$GPGGA,085423.000,6423.4216,N,02150.8575,W,1,04,6.5,-22.4,M,60.6,M,,0000*53
$GPGSA,A,3,25,27,12,09,,,,,,,,,6.5,6.5,1.0*3B
$GPRMC,085426.000,A,6423.4215,N,02150.8571,W,1.16,15.72,300812,,,A*42
$GPGGA,085427.000,6423.4215,N,02150.8568,W,1,04,6.4,-21.8,M,60.6,M,,0000*56
$GPGSA,A,3,25,27,12,09,,,,,,,,,6.5,6.4,1.0*3A
$GPRMC,085427.000,A,6423.4215,N,02150.8568,W,0.90,17.64,300812,,,A*41
$GPGGA,085428.000,6423.4212,N,02150.8568,W,1,04,6.4,-21.7,M,60.6,M,,0000*51
$GPGSA,A,3,25,27,12,09,,,,,,,,,6.5,6.4,1.0*3A
$GPRMC,085430.000,A,6423.4210,N,02150.8565,W,0.87,13.73,300812,,,A*4B
$GPGGA,085431.000,6423.4213,N,02150.8565,W,1,04,6.4,-21.3,M,60.6,M,,0000*51
$GPGSA,A,3,25,27,12,09,,,,,,,,,6.5,6.4,1.0*3A
$GPRMC,085431.000,A,6423.4213,N,02150.8565,W,1.58,3.19,300812,,,A*77
$GPGGA,085432.000,6423.4215,N,02150.8564,W,1,04,6.4,-21.2,M,60.6,M,,0000*54
$GPGSA,A,3,25,27,12,09,,,,,,,,,6.5,6.4,1.0*3A
$GPRMC,085432.000,A,6423.4215,N,02150.8564,W,1.32,4.37,300812,,,A*74
$GPGGA,085433.000,6423.4217,N,02150.8565,W,1,04,6.4,-21.1,M,60.6,M,,0000*55
$GPGSA,A,3,25,27,12,09,,,,,,,,,6.5,6.4,1.0*3A
$GPRMC,085433.000,A,6423.4217,N,02150.8565,W,0.99,348.03,300812,,,A*7A
$GPGGA,085434.000,6423.4221,N,02150.8565,W,1,04,6.4,-21.1,M,60.6,M,,0000*57
$GPGSA,A,3,25,27,12,09,,,,,,,,,6.5,6.4,1.0*3A
$GPRMC,085434.000,A,6423.4221,N,02150.8565,W,1.59,357.71,300812,,,A*7E
$GPGGA,085435.000,6423.4226,N,02150.8566,W,1,04,6.4,-21.0,M,60.6,M,,0000*53
$GPGSA,A,3,25,27,12,09,,,,,,,,,6.5,6.4,1.0*3A
$GPGSV,3,1,12,12,68,135,31,14,61,253,,25,43,205,23,09,31,106,37*78
$GPGSV,3,2,12,27,22,105,33,32,20,329,17,17,15,025,,22,14,235,*73
$GPGSV,3,3,12,31,14,272,,04,06,064,16,01,06,325,,20,06,354,*78
$GPRMC,085435.000,A,6423.4226,N,02150.8566,W,1.72,357.18,300812,,,A*7D
$GPGGA,085436.000,6423.4231,N,02150.8565,W,1,04,6.4,-20.9,M,60.6,M,,0000*5D
$GPGSA,A,3,25,27,12,09,,,,,,,,,6.5,6.4,1.0*3A
$GPRMC,085436.000,A,6423.4231,N,02150.8565,W,2.03,1.92,300812,,,A*7C
$GPGGA,085437.000,6423.4232,N,02150.8566,W,1,04,6.4,-20.9,M,60.6,M,,0000*5C
$GPGSA,A,3,25,27,12,09,,,,,,,,,6.5,6.4,1.0*3A
$GPRMC,085438.000,A,6423.4235,N,02150.8565,W,1.39,4.73,300812,,,A*76
$GPGGA,085439.000,6423.4233,N,02150.8565,W,1,04,6.4,-20.7,M,60.6,M,,0000*5E
$GPGSA,A,3,25,27,12,09,,,,,,,,,6.5,6.4,1.0*3A
$GPRMC,085443.000,A,6423.4222,N,02150.8565,W,1.00,187.31,300812,,,A*7A
$GPGGA,085444.000,6423.4218,N,02150.8564,W,1,04,6.4,-20.3,M,60.6,M,,0000*58
$GPGSA,A,3,25,27,12,09,,,,,,,,,6.5,6.4,1.0*3A
$GPRMC,085448.000,A,6423.4217,N,02150.8558,W,1.42,4.21,300812,,,A*74
$GPGGA,085449.000,6423.4218,N,02150.8559,W,1,04,6.4,-19.8,M,60.6,M,,0000*5A
$GPGSA,A,3,25,27,12,09,,,,,,,,,6.5,6.4,1.0*3A
$GPRMC,085536.000,A,6423.4193,N,02150.8534,W,0.98,351.84,300812,,,A*73
$GPGGA,085537.000,6423.4197,N,02150.8535,W,1,04,6.3,-16.6,M,60.6,M,,0000*5A
$GPGSA,A,3,25,27,12,09,,,,,,,,,6.3,6.3,1.0*3B
$GPRMC,085537.000,A,6423.4197,N,02150.8535,W,1.09,351.28,300812,,,A*78
$GPGGA,085538.000,6423.4201,N,02150.8536,W,1,04,6.3,-16.6,M,60.6,M,,0000*5A
$GPGSA,A,3,25,27,12,09,,,,,,,,,6.3,6.3,1.0*3B
$GPRMC,085538.000,A,6423.4201,N,02150.8536,W,0.96,351.97,300812,,,A*7B
$GPGGA,085539.000,6423.4205,N,02150.8537,W,1,04,6.3,-16.6,M,60.6,M,,0000*5E
$GPGSA,A,3,25,27,12,09,,,,,,,,,6.3,6.3,1.0*3B
$GPRMC,085603.000,A,6423.4198,N,02150.8529,W,0.99,351.85,300812,,,A*71
$GPGGA,085604.000,6423.4200,N,02150.8531,W,1,04,6.2,-16.6,M,60.6,M,,0000*51
$GPGSA,A,3,25,27,12,09,,,,,,,,,6.3,6.2,1.0*3A
$GPRMC,085620.000,A,6423.4191,N,02150.8531,W,0.82,12.06,300812,,,A*45
$GPGGA,085621.000,6423.4187,N,02150.8532,W,1,04,6.2,-17.1,M,60.6,M,,0000*5F
$GPGSA,A,3,25,27,12,09,,,,,,,,,6.2,6.2,1.0*3B
$GPRMC,085627.000,A,6423.4166,N,02150.8523,W,0.98,177.99,300812,,,A*76
$GPGGA,085628.000,6423.4160,N,02150.8524,W,1,04,6.1,-16.6,M,60.6,M,,0000*5D
$GPGSA,A,3,25,27,12,09,,,,,,,,,6.2,6.1,1.0*38
$GPRMC,085628.000,A,6423.4160,N,02150.8524,W,1.31,184.12,300812,,,A*75
$GPGGA,085629.000,6423.4153,N,02150.8523,W,1,04,6.1,-16.5,M,60.6,M,,0000*58
$GPGSA,A,3,25,27,12,09,,,,,,,,,6.2,6.1,1.0*38
$GPRMC,085629.000,A,6423.4153,N,02150.8523,W,1.33,175.07,300812,,,A*7B
$GPGGA,085630.000,6423.4148,N,02150.8521,W,1,04,6.1,-16.5,M,60.6,M,,0000*58
$GPGSA,A,3,25,27,12,09,,,,,,,,,6.2,6.1,1.0*38
$GPGSV,3,1,12,12,69,132,31,14,61,250,,25,45,205,23,09,29,106,35*70
$GPGSV,3,2,12,27,21,106,34,32,21,328,,31,15,273,,17,14,024,*73
$GPGSV,3,3,12,22,13,235,,04,07,063,,20,06,354,,01,05,325,*7C
$GPRMC,085634.000,A,6423.4145,N,02150.8519,W,1.26,17.79,300812,,,A*41
$GPGGA,085635.000,6423.4148,N,02150.8516,W,1,04,6.1,-16.2,M,60.6,M,,0000*5E
$GPGSA,A,3,25,27,12,09,,,,,,,,,6.2,6.1,1.0*38
$GPGSV,3,1,12,12,69,132,31,14,61,250,11,25,45,205,23,09,29,106,35*70
$GPGSV,3,2,12,27,21,106,34,32,21,328,,31,15,273,,17,14,024,*73
$GPGSV,3,3,12,22,13,235,,04,07,063,,20,06,354,,01,05,325,*7C
$GPRMC,085635.000,A,6423.4148,N,02150.8516,W,1.56,16.53,300812,,,A*4C
$GPGGA,085636.000,6423.4149,N,02150.8516,W,1,04,6.1,-16.1,M,60.6,M,,0000*5F
$GPGSA,A,3,25,27,12,09,,,,,,,,,6.2,6.1,1.0*38
$GPRMC,085636.000,A,6423.4149,N,02150.8516,W,0.95,2.99,300812,,,A*73
$GPGGA,085637.000,6423.4147,N,02150.8517,W,1,04,6.1,-16.1,M,60.6,M,,0000*51
$GPGSA,A,3,25,27,12,09,,,,,,,,,6.2,6.1,1.0*38
$GPRMC,085642.000,A,6423.4142,N,02150.8513,W,0.82,27.86,300812,,,A*41
$GPGGA,085643.000,6423.4144,N,02150.8513,W,1,04,6.1,-15.8,M,60.6,M,,0000*5F
$GPGSA,A,3,25,27,12,09,,,,,,,,,6.2,6.1,1.0*38
$GPRMC,085643.000,A,6423.4144,N,02150.8513,W,0.94,3.74,300812,,,A*7A
$GPGGA,085644.000,6423.4142,N,02150.8514,W,1,04,6.1,-15.7,M,60.6,M,,0000*56
$GPGSA,A,3,25,27,12,09,,,,,,,,,6.2,6.1,1.0*38
$GPRMC,085645.000,A,6423.4135,N,02150.8516,W,1.79,193.01,300812,,,A*77
$GPGGA,085646.000,6423.4131,N,02150.8518,W,1,04,6.1,-15.6,M,60.6,M,,0000*5D
$GPGSA,A,3,25,27,12,09,,,,,,,,,6.2,6.1,1.0*38
$GPRMC,085646.000,A,6423.4131,N,02150.8518,W,1.10,196.10,300812,,,A*74
$GPGGA,085647.000,6423.4129,N,02150.8519,W,1,04,6.1,-15.6,M,60.6,M,,0000*54
$GPGSA,A,3,25,27,12,09,,,,,,,,,6.2,6.1,1.0*38
$GPRMC,085649.000,A,6423.4122,N,02150.8519,W,1.00,174.75,300812,,,A*76
$GPGGA,085650.000,6423.4118,N,02150.8518,W,1,04,6.1,-15.5,M,60.6,M,,0000*52
$GPGSA,A,3,25,27,12,09,,,,,,,,,6.2,6.1,1.0*38
$GPGSV,3,1,12,12,69,132,31,14,61,250,,25,45,205,22,09,29,106,35*71
$GPGSV,3,2,12,27,21,106,34,32,21,328,,31,15,273,,17,14,024,*73
$GPGSV,3,3,12,22,13,235,,04,07,063,,20,06,354,,01,05,325,*7C
$GPRMC,085650.000,A,6423.4118,N,02150.8518,W,0.81,177.05,300812,,,A*7A
$GPGGA,085651.000,6423.4117,N,02150.8518,W,1,04,6.1,-15.5,M,60.6,M,,0000*5C
$GPGSA,A,3,25,27,12,09,,,,,,,,,6.2,6.1,1.0*38
$GPRMC,085652.000,A,6423.4113,N,02150.8519,W,1.13,192.63,300812,,,A*73
$GPGGA,085653.000,6423.4111,N,02150.8518,W,1,04,6.1,-15.4,M,60.6,M,,0000*59
$GPGSA,A,3,25,27,12,09,,,,,,,,,6.2,6.1,1.0*38
$GPRMC,085656.000,A,6423.4108,N,02150.8516,W,0.90,187.06,300812,,,A*7F
$GPGGA,085657.000,6423.4102,N,02150.8514,W,1,04,6.1,-15.1,M,60.6,M,,0000*56
$GPGSA,A,3,25,27,12,09,,,,,,,,,6.2,6.1,1.0*38
$GPRMC,085657.000,A,6423.4102,N,02150.8514,W,1.24,175.44,300812,,,A*73
$GPGGA,085658.000,6423.4099,N,02150.8512,W,1,04,6.1,-15.0,M,60.6,M,,0000*5D
$GPGSA,A,3,25,27,12,09,,,,,,,,,6.2,6.1,1.0*38
$GPRMC,085659.000,A,6423.4091,N,02150.8510,W,1.54,178.61,300812,,,A*7F
$GPGGA,085700.000,6423.4082,N,02150.8508,W,1,04,6.1,-14.8,M,60.6,M,,0000*59
$GPGSA,A,3,25,27,12,09,,,,,,,,,6.2,6.1,1.0*38
$GPGSV,3,1,12,12,69,132,31,14,61,250,,25,45,205,21,09,29,106,35*72
$GPGSV,3,2,12,27,21,106,35,32,21,328,,31,15,273,,17,14,024,*72
$GPGSV,3,3,12,22,13,235,,04,07,063,,20,06,354,,01,05,325,*7C
$GPRMC,085700.000,A,6423.4082,N,02150.8508,W,2.06,173.40,300812,,,A*75
$GPGGA,085701.000,6423.4070,N,02150.8506,W,1,04,6.1,-14.6,M,60.6,M,,0000*55
$GPGSA,A,3,25,27,12,09,,,,,,,,,6.2,6.1,1.0*38
$GPRMC,085701.000,A,6423.4070,N,02150.8506,W,2.62,177.05,300812,,,A*70
$GPGGA,085702.000,6423.4063,N,02150.8503,W,1,04,6.1,-14.5,M,60.6,M,,0000*52
$GPGSA,A,3,25,27,12,09,,,,,,,,,6.2,6.1,1.0*38
$GPRMC,085702.000,A,6423.4063,N,02150.8503,W,1.33,164.42,300812,,,A*72
$GPGGA,085703.000,6423.4062,N,02150.8499,W,1,04,6.1,-14.3,M,60.6,M,,0000*56
$GPGSA,A,3,25,27,12,09,,,,,,,,,6.1,6.1,1.0*3B
$GPRMC,085703.000,A,6423.4062,N,02150.8499,W,0.82,45.45,300812,,,A*4E
$GPGGA,085704.000,6423.4062,N,02150.8496,W,1,04,6.1,-14.2,M,60.6,M,,0000*5F
$GPGSA,A,3,25,27,12,09,,,,,,,,,6.1,6.1,1.0*3B
$GPRMC,085704.000,A,6423.4062,N,02150.8496,W,0.81,19.10,300812,,,A*4C
$GPGGA,085705.000,6423.4065,N,02150.8495,W,1,04,6.1,-14.1,M,60.6,M,,0000*59
$GPGSA,A,3,25,27,12,09,,,,,,,,,6.1,6.1,1.0*3B
$GPGSV,3,1,12,12,69,132,31,14,61,250,,25,45,205,21,09,29,106,35*72
$GPGSV,3,2,12,27,21,106,35,32,21,328,,31,15,273,,17,14,024,*72
$GPGSV,3,3,12,22,13,235,,04,07,063,,20,06,354,,01,05,325,*7C
$GPRMC,085705.000,A,6423.4065,N,02150.8495,W,1.38,5.02,300812,,,A*74
$GPGGA,085706.000,6423.4070,N,02150.8494,W,1,04,6.1,-14.0,M,60.6,M,,0000*5E
$GPGSA,A,3,25,27,12,09,,,,,,,,,6.1,6.1,1.0*3B
$GPRMC,085706.000,A,6423.4070,N,02150.8494,W,1.99,3.90,300812,,,A*74
$GPGGA,085707.000,6423.4075,N,02150.8491,W,1,04,6.1,-13.9,M,60.6,M,,0000*51
$GPGSA,A,3,25,27,12,09,,,,,,,,,6.1,6.1,1.0*3B
$GPRMC,085707.000,A,6423.4075,N,02150.8491,W,2.21,6.35,300812,,,A*7F
$GPGGA,085708.000,6423.4079,N,02150.8490,W,1,04,6.1,-13.7,M,60.6,M,,0000*5D
$GPGSA,A,3,25,27,12,09,,,,,,,,,6.1,6.1,1.0*3B
$GPRMC,085708.000,A,6423.4079,N,02150.8490,W,1.75,3.31,300812,,,A*7E
$GPGGA,085709.000,6423.4083,N,02150.8490,W,1,04,6.1,-13.7,M,60.6,M,,0000*59
$GPGSA,A,3,25,27,12,09,,,,,,,,,6.1,6.1,1.0*3B
$GPRMC,085709.000,A,6423.4083,N,02150.8490,W,1.58,354.78,300812,,,A*79
$GPGGA,085710.000,6423.4089,N,02150.8492,W,1,04,6.1,-13.6,M,60.6,M,,0000*58
$GPGSA,A,3,25,27,12,09,,,,,,,,,6.1,6.1,1.0*3B
$GPGSV,3,1,12,12,69,132,31,14,61,250,,25,45,205,20,09,29,106,35*73
$GPGSV,3,2,12,27,21,106,35,32,21,328,,31,15,273,,17,14,024,*72
$GPGSV,3,3,12,22,13,235,,04,07,063,,20,06,354,,01,05,325,*7C
$GPRMC,085710.000,A,6423.4089,N,02150.8492,W,1.85,349.89,300812,,,A*7B
$GPGGA,085711.000,6423.4095,N,02150.8493,W,1,04,6.0,-13.6,M,60.6,M,,0000*54
$GPGSA,A,3,25,27,12,09,,,,,,,,,6.1,6.0,1.0*3A
$GPRMC,085711.000,A,6423.4095,N,02150.8493,W,1.69,346.10,300812,,,A*7B
$GPGGA,085712.000,6423.4104,N,02150.8493,W,1,04,6.0,-13.6,M,60.6,M,,0000*5E
$GPGSA,A,3,25,27,12,09,,,,,,,,,6.1,6.0,1.0*3A
$GPRMC,085712.000,A,6423.4104,N,02150.8493,W,2.72,358.63,300812,,,A*73
$GPGGA,085713.000,6423.4112,N,02150.8493,W,1,04,6.0,-13.5,M,60.6,M,,0000*5B
$GPGSA,A,3,25,27,12,09,,,,,,,,,6.1,6.0,1.0*3A
$GPRMC,085713.000,A,6423.4112,N,02150.8493,W,2.22,356.78,300812,,,A*74
$GPGGA,085714.000,6423.4114,N,02150.8494,W,1,04,6.0,-13.5,M,60.6,M,,0000*5D
$GPGSA,A,3,25,27,12,09,,,,,,,,,6.1,6.0,1.0*3A
$GPRMC,085715.000,A,6423.4108,N,02150.8495,W,1.66,195.19,300812,,,A*76
$GPGGA,085716.000,6423.4104,N,02150.8495,W,1,04,6.0,-13.3,M,60.6,M,,0000*59
$GPGSA,A,3,25,27,12,09,,,,,,,,,6.1,6.0,1.0*3A
$GPRMC,085716.000,A,6423.4104,N,02150.8495,W,0.99,188.04,300812,,,A*78
$GPGGA,085717.000,6423.4102,N,02150.8492,W,1,04,6.0,-13.2,M,60.6,M,,0000*58
$GPGSA,A,3,25,27,12,09,,,,,,,,,6.1,6.0,1.0*3A
$GPRMC,085719.000,A,6423.4103,N,02150.8485,W,1.38,18.09,300812,,,A*4E
$GPGGA,085720.000,6423.4105,N,02150.8480,W,1,04,6.0,-12.8,M,60.6,M,,0000*53
$GPGSA,A,3,25,27,12,09,,,,,,,,,6.1,6.0,1.0*3A
$GPGSV,3,1,12,12,69,132,31,14,61,250,,25,45,205,20,09,29,106,35*73
$GPGSV,3,2,12,27,21,106,35,32,21,328,,31,15,273,,17,14,024,*72
$GPGSV,3,3,12,22,13,235,,04,07,063,,20,06,354,,01,05,325,*7C
$GPRMC,085720.000,A,6423.4105,N,02150.8480,W,1.54,22.73,300812,,,A*49
$GPGGA,085721.000,6423.4104,N,02150.8476,W,1,04,6.0,-12.6,M,60.6,M,,0000*54
$GPGSA,A,3,25,27,12,09,,,,,,,,,6.1,6.0,1.0*3A
$GPRMC,085721.000,A,6423.4104,N,02150.8476,W,0.89,28.28,300812,,,A*45
$GPGGA,085722.000,6423.4102,N,02150.8474,W,1,04,6.0,-12.5,M,60.6,M,,0000*50
$GPGSA,A,3,25,27,12,09,,,,,,,,,6.1,6.0,1.0*3A
$GPRMC,085724.000,A,6423.4102,N,02150.8469,W,1.12,17.29,300812,,,A*46
$GPGGA,085725.000,6423.4102,N,02150.8465,W,1,04,6.0,-11.9,M,60.6,M,,0000*58
$GPGSA,A,3,25,27,12,09,,,,,,,,,6.1,6.0,1.0*3A
$GPGSV,3,1,12,12,69,132,31,14,61,250,,25,45,205,20,09,29,106,35*73
$GPGSV,3,2,12,27,21,106,35,32,21,328,,31,15,273,,17,14,024,*72
$GPGSV,3,3,12,22,13,235,,04,07,063,,20,06,354,,01,05,325,*7C
$GPRMC,085725.000,A,6423.4102,N,02150.8465,W,1.18,20.43,300812,,,A*49
$GPGGA,085726.000,6423.4097,N,02150.8464,W,1,04,6.0,-11.7,M,60.6,M,,0000*59
$GPGSA,A,3,25,27,12,09,,,,,,,,,6.1,6.0,1.0*3A
$GPRMC,085727.000,A,6423.4083,N,02150.8465,W,2.86,186.42,300812,,,A*7B
$GPGGA,085728.000,6423.4068,N,02150.8464,W,1,04,6.0,-11.3,M,60.6,M,,0000*53
$GPGSA,A,3,25,27,12,09,,,,,,,,,6.1,6.0,1.0*3A
$GPRMC,085728.000,A,6423.4068,N,02150.8464,W,3.25,179.72,300812,,,A*7B
$GPGGA,085729.000,6423.4054,N,02150.8462,W,1,04,6.0,-11.0,M,60.6,M,,0000*58
$GPGSA,A,3,25,27,12,09,,,,,,,,,6.1,6.0,1.0*3A
$GPRMC,085729.000,A,6423.4054,N,02150.8462,W,3.10,177.13,300812,,,A*7C
$GPGGA,085730.000,6423.4043,N,02150.8460,W,1,04,6.0,-10.8,M,60.6,M,,0000*5D
$GPGSA,A,3,25,27,12,09,,,,,,,,,6.1,6.0,1.0*3A
$GPGSV,3,1,12,12,69,132,31,14,61,250,,25,45,205,20,09,29,106,34*72
$GPGSV,3,2,12,27,21,106,35,32,21,328,,31,15,273,,17,14,024,*72
$GPGSV,3,3,12,22,13,235,,04,07,063,,20,06,354,,01,05,325,*7C
$GPRMC,085730.000,A,6423.4043,N,02150.8460,W,2.17,176.14,300812,,,A*70
$GPGGA,085731.000,6423.4036,N,02150.8457,W,1,04,6.0,-10.6,M,60.6,M,,0000*54
$GPGSA,A,3,25,27,12,09,,,,,,,,,6.1,6.0,1.0*3A
$GPRMC,085731.000,A,6423.4036,N,02150.8457,W,1.03,160.61,300812,,,A*74
$GPGGA,085732.000,6423.4030,N,02150.8454,W,1,04,6.0,-10.4,M,60.6,M,,0000*50
$GPGSA,A,3,25,27,12,09,,,,,,,,,6.1,6.0,1.0*3A
$GPRMC,085732.000,A,6423.4030,N,02150.8454,W,0.83,154.92,300812,,,A*70
$GPGGA,085733.000,6423.4029,N,02150.8452,W,1,04,6.0,-10.2,M,60.6,M,,0000*59
$GPGSA,A,3,25,27,12,09,,,,,,,,,6.1,6.0,1.0*3A
$GPRMC,085734.000,A,6423.4031,N,02150.8452,W,1.04,358.94,300812,,,A*77
$GPGGA,085735.000,6423.4030,N,02150.8453,W,1,04,6.0,-9.9,M,60.6,M,,0000*65
$GPGSA,A,3,25,27,12,09,,,,,,,,,6.1,6.0,1.0*3A
$GPGSV,3,1,12,12,69,132,31,14,61,250,,25,45,205,20,09,29,106,34*72
$GPGSV,3,2,12,27,21,106,35,32,21,328,,31,15,273,,17,14,024,*72
$GPGSV,3,3,12,22,13,235,,04,07,063,,20,06,354,,01,05,325,*7C
$GPRMC,085736.000,A,6423.4033,N,02150.8452,W,0.97,359.13,300812,,,A*72
$GPGGA,085737.000,6423.4036,N,02150.8453,W,1,04,6.0,-9.7,M,60.6,M,,0000*6F
$GPGSA,A,3,25,27,12,09,,,,,,,,,6.1,6.0,1.0*3A
$GPRMC,085737.000,A,6423.4036,N,02150.8453,W,1.22,352.94,300812,,,A*7C
$GPGGA,085738.000,6423.4039,N,02150.8454,W,1,04,6.0,-9.6,M,60.6,M,,0000*69
$GPGSA,A,3,25,27,12,09,,,,,,,,,6.1,6.0,1.0*3A
$GPRMC,085743.000,A,6423.4042,N,02150.8447,W,1.51,14.57,300812,,,A*43
$GPGGA,085744.000,6423.4044,N,02150.8446,W,1,04,6.0,-8.9,M,60.6,M,,0000*65
$GPGSA,A,3,25,27,12,09,,,,,,,,,6.1,6.0,1.0*3A
$GPRMC,085744.000,A,6423.4044,N,02150.8446,W,1.10,0.55,300812,,,A*71
$GPGGA,085745.000,6423.4042,N,02150.8448,W,1,04,6.0,-8.8,M,60.6,M,,0000*6D
$GPGSA,A,3,25,27,12,09,,,,,,,,,6.1,6.0,1.0*3A
$GPGSV,3,1,12,12,69,132,31,14,61,250,,25,45,205,20,09,29,106,34*72
$GPGSV,3,2,12,27,21,106,35,32,21,328,,31,15,273,,17,14,024,17*74
$GPGSV,3,3,12,22,13,235,,04,07,063,,20,06,354,,01,05,325,*7C
$GPRMC,085748.000,A,6423.4046,N,02150.8441,W,2.15,7.14,300812,,,A*7C
$GPGGA,085749.000,6423.4055,N,02150.8439,W,1,04,6.0,-8.3,M,60.6,M,,0000*6A
$GPGSA,A,3,25,27,12,09,,,,,,,,,6.0,6.0,1.0*3B
$GPRMC,085749.000,A,6423.4055,N,02150.8439,W,2.86,1.90,300812,,,A*70
$GPGGA,085750.000,6423.4064,N,02150.8439,W,1,04,6.0,-8.2,M,60.6,M,,0000*61
$GPGSA,A,3,25,27,12,09,,,,,,,,,6.0,6.0,1.0*3B
$GPGSV,3,1,12,12,69,132,31,14,61,250,,25,45,205,21,09,29,106,34*73
$GPGSV,3,2,12,27,21,106,35,32,21,328,,31,15,273,,17,14,024,17*74
$GPGSV,3,3,12,22,13,235,,04,07,063,,20,06,354,,01,05,325,*7C
$GPRMC,085750.000,A,6423.4064,N,02150.8439,W,2.66,357.05,300812,,,A*78
$GPGGA,085751.000,6423.4071,N,02150.8440,W,1,04,6.0,-8.1,M,60.6,M,,0000*69
$GPGSA,A,3,25,27,12,09,,,,,,,,,6.0,6.0,1.0*3B
$GPRMC,085751.000,A,6423.4071,N,02150.8440,W,1.96,350.33,300812,,,A*7D
$GPGGA,085752.000,6423.4072,N,02150.8441,W,1,04,6.0,-8.0,M,60.6,M,,0000*69
$GPGSA,A,3,25,27,12,09,,,,,,,,,6.0,6.0,1.0*3B
$GPRMC,085755.000,A,6423.4071,N,02150.8438,W,1.06,12.08,300812,,,A*42
$GPGGA,085756.000,6423.4075,N,02150.8437,W,1,04,5.9,-7.6,M,60.6,M,,0000*68
$GPGSA,A,3,25,27,12,09,,,,,,,,,6.0,5.9,1.0*31
$GPRMC,085756.000,A,6423.4075,N,02150.8437,W,1.18,357.56,300812,,,A*7C
$GPGGA,085757.000,6423.4080,N,02150.8435,W,1,04,5.9,-7.5,M,60.6,M,,0000*62
$GPGSA,A,3,25,27,12,09,,,,,,,,,6.0,5.9,1.0*31
$GPRMC,085757.000,A,6423.4080,N,02150.8435,W,1.62,3.80,300812,,,A*71
$GPGGA,085758.000,6423.4080,N,02150.8435,W,1,04,5.9,-7.4,M,60.6,M,,0000*6C
$GPGSA,A,3,25,27,12,09,,,,,,,,,6.0,5.9,1.0*31
$GPRMC,085809.000,A,6423.4044,N,02150.8414,W,1.06,176.74,300812,,,A*74
$GPGGA,085810.000,6423.4041,N,02150.8411,W,1,04,5.9,-5.5,M,60.6,M,,0000*67
$GPGSA,A,3,25,27,12,09,,,,,,,,,6.0,5.9,1.0*31
$GPGSV,3,1,12,12,69,132,31,14,61,250,,25,45,205,22,09,29,106,34*70
$GPGSV,3,2,12,27,21,106,35,32,21,328,,31,15,273,,17,14,024,15*76
$GPGSV,3,3,12,22,13,235,,04,07,063,,20,06,354,,01,05,325,*7C
$GPRMC,085811.000,A,6423.4044,N,02150.8408,W,1.50,13.62,300812,,,A*46
$GPGGA,085812.000,6423.4045,N,02150.8407,W,1,04,5.9,-5.3,M,60.6,M,,0000*60
$GPGSA,A,3,25,27,12,09,,,,,,,,,6.0,5.9,1.0*31
$GPRMC,085813.000,A,6423.4047,N,02150.8407,W,0.94,355.15,300812,,,A*70
$GPGGA,085814.000,6423.4048,N,02150.8406,W,1,04,5.9,-5.0,M,60.6,M,,0000*69
$GPGSA,A,3,25,27,12,09,,,,,,,,,6.0,5.9,1.0*31
$GPRMC,085817.000,A,6423.4051,N,02150.8404,W,0.92,346.67,300812,,,A*71
$GPGGA,085818.000,6423.4052,N,02150.8404,W,1,04,5.9,-4.6,M,60.6,M,,0000*6B
$GPGSA,A,3,25,27,12,09,,,,,,,,,6.0,5.9,1.0*31
$GPRMC,085821.000,A,6423.4057,N,02150.8402,W,0.88,357.98,300812,,,A*7F
$GPGGA,085822.000,6423.4059,N,02150.8402,W,1,04,5.9,-4.3,M,60.6,M,,0000*6A
$GPGSA,A,3,25,27,12,09,,,,,,,,,6.0,5.9,1.0*31
$GPRMC,085828.000,A,6423.4056,N,02150.8400,W,0.87,172.39,300812,,,A*74
$GPGGA,085829.000,6423.4054,N,02150.8397,W,1,04,5.9,-3.8,M,60.6,M,,0000*6B
$GPGSA,A,3,25,27,12,09,,,,,,,,,6.0,5.9,1.0*31
$GPRMC,085836.000,A,6423.4044,N,02150.8389,W,1.13,186.32,300812,,,A*72
$GPGGA,085837.000,6423.4041,N,02150.8388,W,1,04,5.9,-3.1,M,60.6,M,,0000*67
$GPGSA,A,3,25,27,12,09,,,,,,,,,5.9,5.9,1.0*3B
$GPRMC,085839.000,A,6423.4033,N,02150.8387,W,1.03,187.65,300812,,,A*71
$GPGGA,085840.000,6423.4032,N,02150.8385,W,1,04,5.9,-2.8,M,60.6,M,,0000*66
$GPGSA,A,3,25,27,12,09,,,,,,,,,5.9,5.9,1.0*3B
$GPGSV,3,1,12,12,69,128,31,14,61,247,17,25,46,205,24,09,28,107,34*7E
$GPGSV,3,2,12,32,21,327,,27,20,106,35,31,16,273,,17,13,023,15*7B
$GPGSV,3,3,12,22,12,234,,04,08,062,,20,07,353,,01,04,324,*74
$GPRMC,085842.000,A,6423.4040,N,02150.8384,W,1.48,1.41,300812,,,A*7C
$GPGGA,085843.000,6423.4045,N,02150.8383,W,1,04,5.8,-2.7,M,60.6,M,,0000*6D
$GPGSA,A,3,25,27,12,09,,,,,,,,,5.9,5.8,1.0*3A
$GPRMC,085843.000,A,6423.4045,N,02150.8383,W,1.51,1.57,300812,,,A*70
$GPGGA,085844.000,6423.4046,N,02150.8381,W,1,04,5.8,-2.6,M,60.6,M,,0000*6A
$GPGSA,A,3,25,27,12,09,,,,,,,,,5.9,5.8,1.0*3A
$GPRMC,085845.000,A,6423.4042,N,02150.8382,W,1.01,192.83,300812,,,A*77
$GPGGA,085846.000,6423.4037,N,02150.8381,W,1,04,5.8,-2.5,M,60.6,M,,0000*6D
$GPGSA,A,3,25,27,12,09,,,,,,,,,5.9,5.8,1.0*3A
$GPRMC,085846.000,A,6423.4037,N,02150.8381,W,0.96,181.19,300812,,,A*7B
$GPGGA,085847.000,6423.4036,N,02150.8380,W,1,04,5.8,-2.4,M,60.6,M,,0000*6D
$GPGSA,A,3,25,27,12,09,,,,,,,,,5.9,5.8,1.0*3A
$GPRMC,085856.000,A,6423.4041,N,02150.8379,W,0.95,351.55,300812,,,A*78
$GPGGA,085857.000,6423.4044,N,02150.8379,W,1,04,5.8,-2.2,M,60.6,M,,0000*69
$GPGSA,A,3,25,27,12,09,,,,,,,,,5.9,5.8,1.0*3A
$GPRMC,090231.000,A,6423.4007,N,02150.8342,W,0.92,166.75,300812,,,A*7E
$GPGGA,090232.000,6423.4001,N,02150.8342,W,1,04,5.4,-1.4,M,60.6,M,,0000*64
$GPGSA,A,3,25,27,12,09,,,,,,,,,5.5,5.4,1.0*3A
$GPRMC,090232.000,A,6423.4001,N,02150.8342,W,1.09,167.03,300812,,,A*78
$GPGGA,090233.000,6423.3995,N,02150.8341,W,1,04,5.4,-1.3,M,60.6,M,,0000*62
$GPGSA,A,3,25,27,12,09,,,,,,,,,5.5,5.4,1.0*3A
$GPRMC,090233.000,A,6423.3995,N,02150.8341,W,1.24,167.74,300812,,,A*76
$GPGGA,090234.000,6423.3991,N,02150.8340,W,1,04,5.4,-1.2,M,60.6,M,,0000*61
$GPGSA,A,3,25,27,12,09,,,,,,,,,5.5,5.4,1.0*3A
$GPRMC,090309.000,A,6423.3977,N,02150.8366,W,1.14,352.46,300812,,,A*71
$GPGGA,090310.000,6423.3982,N,02150.8368,W,1,04,5.3,-2.3,M,60.6,M,,0000*6B
$GPGSA,A,3,25,27,12,09,,,,,,,,,5.4,5.3,1.0*3C
$GPGSV,3,1,12,12,69,124,32,14,61,244,,25,48,205,24,09,26,107,33*73
$GPGSV,3,2,12,32,22,326,,27,18,107,36,31,17,274,21,17,12,023,17*76
$GPGSV,3,3,12,22,11,233,,04,08,061,12,20,08,352,,01,03,323,*7E
$GPRMC,090310.000,A,6423.3982,N,02150.8368,W,1.06,346.69,300812,,,A*76
$GPGGA,090311.000,6423.3987,N,02150.8368,W,1,04,5.3,-2.4,M,60.6,M,,0000*68
$GPGSA,A,3,25,27,12,09,,,,,,,,,5.4,5.3,1.0*3C
$GPRMC,090311.000,A,6423.3987,N,02150.8368,W,1.11,0.74,300812,,,A*79
$GPGGA,090312.000,6423.3989,N,02150.8368,W,1,04,5.3,-2.4,M,60.6,M,,0000*65
$GPGSA,A,3,25,27,12,09,,,,,,,,,5.4,5.3,1.0*3C
$GPRMC,090316.000,A,6423.3996,N,02150.8365,W,0.89,7.86,300812,,,A*79
$GPGGA,090317.000,6423.3997,N,02150.8366,W,1,04,5.3,-2.6,M,60.6,M,,0000*63
$GPGSA,A,3,25,27,12,09,,,,,,,,,5.4,5.3,1.0*3C
$GPRMC,090320.000,A,6423.3990,N,02150.8369,W,0.93,196.49,300812,,,A*77
$GPGGA,090321.000,6423.3986,N,02150.8369,W,1,04,5.3,-2.6,M,60.6,M,,0000*69
$GPGSA,A,3,25,27,12,09,,,,,,,,,5.4,5.3,1.0*3C
$GPRMC,090321.000,A,6423.3986,N,02150.8369,W,0.85,182.56,300812,,,A*7D
$GPGGA,090322.000,6423.3981,N,02150.8369,W,1,04,5.3,-2.5,M,60.6,M,,0000*6E
$GPGSA,A,3,25,27,12,09,,,,,,,,,5.4,5.3,1.0*3C
$GPRMC,090322.000,A,6423.3981,N,02150.8369,W,1.11,181.22,300812,,,A*75
$GPGGA,090323.000,6423.3976,N,02150.8368,W,1,04,5.3,-2.4,M,60.6,M,,0000*67
$GPGSA,A,3,25,27,12,09,,,,,,,,,5.4,5.3,1.0*3C
$GPRMC,090323.000,A,6423.3976,N,02150.8368,W,0.97,167.99,300812,,,A*7A
$GPGGA,090324.000,6423.3966,N,02150.8370,W,1,04,5.3,-2.4,M,60.6,M,,0000*68
$GPGSA,A,3,25,27,12,09,,,,,,,,,5.4,5.3,1.0*3C
$GPRMC,090324.000,A,6423.3966,N,02150.8370,W,2.45,187.42,300812,,,A*70
$GPGGA,090325.000,6423.3957,N,02150.8371,W,1,04,5.3,-2.3,M,60.6,M,,0000*6D
$GPGSA,A,3,25,27,12,09,,,,,,,,,5.4,5.3,1.0*3C
$GPGSV,3,1,12,12,69,124,32,14,61,244,,25,48,205,23,09,26,107,33*74
$GPGSV,3,2,12,32,22,326,,27,18,107,36,31,17,274,21,17,12,023,18*79
$GPGSV,3,3,12,22,11,233,,04,08,061,,20,08,352,,01,03,323,*7D
$GPRMC,090325.000,A,6423.3957,N,02150.8371,W,2.21,182.28,300812,,,A*79
$GPGGA,090326.000,6423.3955,N,02150.8369,W,1,04,5.3,-2.2,M,60.6,M,,0000*64
$GPGSA,A,3,25,27,12,09,,,,,,,,,5.4,5.3,1.0*3C
$GPRMC,090328.000,A,6423.3958,N,02150.8368,W,1.00,0.52,300812,,,A*75
$GPGGA,090329.000,6423.3962,N,02150.8367,W,1,04,5.3,-2.1,M,60.6,M,,0000*62
$GPGSA,A,3,25,27,12,09,,,,,,,,,5.4,5.3,1.0*3C
$GPRMC,090329.000,A,6423.3962,N,02150.8367,W,1.29,7.72,300812,,,A*7C
$GPGGA,090330.000,6423.3965,N,02150.8365,W,1,04,5.3,-2.1,M,60.6,M,,0000*6F
$GPGSA,A,3,25,27,12,09,,,,,,,,,5.4,5.3,1.0*3C
$GPGSV,3,1,12,12,69,124,32,14,61,244,,25,48,205,23,09,26,107,33*74
$GPGSV,3,2,12,32,22,326,,27,18,107,36,31,17,274,21,17,12,023,18*79
$GPGSV,3,3,12,22,11,233,,04,08,061,,20,08,352,,01,03,323,*7D
$GPRMC,090330.000,A,6423.3965,N,02150.8365,W,1.36,10.59,300812,,,A*40
$GPGGA,090331.000,6423.3965,N,02150.8366,W,1,04,5.3,-2.0,M,60.6,M,,0000*6C
$GPGSA,A,3,25,27,12,09,,,,,,,,,5.4,5.3,1.0*3C
$GPRMC,090333.000,A,6423.3962,N,02150.8369,W,0.97,202.87,300812,,,A*70
$GPGGA,090334.000,6423.3956,N,02150.8370,W,1,04,5.3,-1.9,M,60.6,M,,0000*64
$GPGSA,A,3,25,27,12,09,,,,,,,,,5.4,5.3,1.0*3C
$GPRMC,090334.000,A,6423.3956,N,02150.8370,W,1.43,184.65,300812,,,A*71
$GPGGA,090335.000,6423.3950,N,02150.8369,W,1,04,5.3,-1.8,M,60.6,M,,0000*6A
$GPGSA,A,3,25,27,12,09,,,,,,,,,5.4,5.3,1.0*3C
$GPGSV,3,1,12,12,69,124,32,14,61,244,,25,48,205,23,09,26,107,33*74
$GPGSV,3,2,12,32,22,326,,27,18,107,36,31,17,274,21,17,12,023,18*79
$GPGSV,3,3,12,22,11,233,,04,08,061,,20,08,352,,01,03,323,*7D
$GPRMC,090335.000,A,6423.3950,N,02150.8369,W,1.19,173.19,300812,,,A*72
$GPGGA,090336.000,6423.3949,N,02150.8366,W,1,04,5.3,-1.8,M,60.6,M,,0000*6E
$GPGSA,A,3,25,27,12,09,,,,,,,,,5.4,5.3,1.0*3C
$GPRMC,090337.000,A,6423.3953,N,02150.8364,W,1.67,15.31,300812,,,A*4C
$GPGGA,090338.000,6423.3960,N,02150.8361,W,1,04,5.3,-1.7,M,60.6,M,,0000*63
$GPGSA,A,3,25,27,12,09,,,,,,,,,5.4,5.3,1.0*3C
$GPRMC,090338.000,A,6423.3960,N,02150.8361,W,2.40,11.35,300812,,,A*40
$GPGGA,090339.000,6423.3965,N,02150.8359,W,1,04,5.3,-1.6,M,60.6,M,,0000*6D
$GPGSA,A,3,25,27,12,09,,,,,,,,,5.4,5.3,1.0*3C
$GPRMC,090339.000,A,6423.3965,N,02150.8359,W,2.08,7.52,300812,,,A*75
$GPGGA,090340.000,6423.3970,N,02150.8359,W,1,04,5.3,-1.6,M,60.6,M,,0000*67
$GPGSA,A,3,25,27,12,09,,,,,,,,,5.4,5.3,1.0*3C
$GPGSV,3,1,12,12,69,124,32,14,61,244,,25,48,205,22,09,26,107,33*75
$GPGSV,3,2,12,32,22,326,,27,18,107,36,31,17,274,22,17,12,023,18*7A
$GPGSV,3,3,12,22,11,233,,04,08,061,,20,08,352,,01,03,323,*7D
$GPRMC,090340.000,A,6423.3970,N,02150.8359,W,1.44,358.78,300812,,,A*75
$GPGGA,090341.000,6423.3977,N,02150.8356,W,1,04,5.3,-1.6,M,60.6,M,,0000*6E
$GPGSA,A,3,25,27,12,09,,,,,,,,,5.4,5.3,1.0*3C
$GPRMC,090341.000,A,6423.3977,N,02150.8356,W,2.42,8.11,300812,,,A*70
$GPGGA,090342.000,6423.3983,N,02150.8355,W,1,04,5.3,-1.6,M,60.6,M,,0000*65
$GPGSA,A,3,25,27,12,09,,,,,,,,,5.4,5.3,1.0*3C
$GPRMC,090342.000,A,6423.3983,N,02150.8355,W,2.02,7.03,300812,,,A*73
$GPGGA,090343.000,6423.3988,N,02150.8353,W,1,04,5.3,-1.5,M,60.6,M,,0000*6A
$GPGSA,A,3,25,27,12,09,,,,,,,,,5.4,5.3,1.0*3C
$GPRMC,090343.000,A,6423.3988,N,02150.8353,W,1.97,8.86,300812,,,A*72
$GPGGA,090344.000,6423.3990,N,02150.8350,W,1,04,5.3,-1.5,M,60.6,M,,0000*67
$GPGSA,A,3,25,27,12,09,,,,,,,,,5.4,5.3,1.0*3C
$GPRMC,090344.000,A,6423.3990,N,02150.8350,W,1.40,16.92,300812,,,A*4F
$GPGGA,090345.000,6423.3992,N,02150.8347,W,1,04,5.3,-1.4,M,60.6,M,,0000*63
$GPGSA,A,3,25,27,12,09,,,,,,,,,5.4,5.3,1.0*3C
$GPGSV,3,1,12,12,69,124,32,14,61,244,,25,48,205,22,09,26,107,33*75
$GPGSV,3,2,12,32,22,326,,27,18,107,36,31,17,274,22,17,12,023,18*7A
$GPGSV,3,3,12,22,11,233,17,04,08,061,,20,08,352,,01,03,323,*7B
$GPRMC,090345.000,A,6423.3992,N,02150.8347,W,1.42,18.79,300812,,,A*43
$GPGGA,090346.000,6423.3991,N,02150.8347,W,1,04,5.3,-1.3,M,60.6,M,,0000*64
$GPGSA,A,3,25,27,12,09,,,,,,,,,5.4,5.3,1.0*3C
$GPRMC,090347.000,A,6423.3985,N,02150.8349,W,1.23,194.81,300812,,,A*7C
$GPGGA,090348.000,6423.3980,N,02150.8349,W,1,04,5.3,-1.1,M,60.6,M,,0000*66
$GPGSA,A,3,25,27,12,09,,,,,,,,,5.4,5.3,1.0*3C
$GPRMC,090348.000,A,6423.3980,N,02150.8349,W,0.99,185.65,300812,,,A*7C
$GPGGA,090349.000,6423.3972,N,02150.8349,W,1,04,5.3,-0.9,M,60.6,M,,0000*63
$GPGSA,A,3,25,27,12,09,,,,,,,,,5.4,5.3,1.0*3C
$GPRMC,090349.000,A,6423.3972,N,02150.8349,W,1.34,175.79,300812,,,A*74
$GPGGA,090350.000,6423.3969,N,02150.8347,W,1,04,5.3,-0.8,M,60.6,M,,0000*6E
$GPGSA,A,3,25,27,12,09,,,,,,,,,5.4,5.3,1.0*3C
$GPGSV,3,1,12,12,69,124,32,14,61,244,,25,48,205,22,09,26,107,33*75
$GPGSV,3,2,12,32,22,326,,27,18,107,35,31,17,274,21,17,12,023,18*7A
$GPGSV,3,3,12,22,11,233,17,04,08,061,,20,08,352,,01,03,323,*7B
$GPRMC,090351.000,A,6423.3963,N,02150.8347,W,0.88,180.19,300812,,,A*79
$GPGGA,090352.000,6423.3964,N,02150.8345,W,1,04,5.3,-0.6,M,60.6,M,,0000*6D
$GPGSA,A,3,25,27,12,09,,,,,,,,,5.4,5.3,1.0*3C
$GPRMC,090352.000,A,6423.3964,N,02150.8345,W,0.92,20.12,300812,,,A*44
$GPGGA,090353.000,6423.3966,N,02150.8344,W,1,04,5.3,-0.5,M,60.6,M,,0000*6C
$GPGSA,A,3,25,27,12,09,,,,,,,,,5.4,5.3,1.0*3C
$GPRMC,090353.000,A,6423.3966,N,02150.8344,W,1.08,5.82,300812,,,A*7A
$GPGGA,090354.000,6423.3971,N,02150.8345,W,1,04,5.3,-0.5,M,60.6,M,,0000*6C
$GPGSA,A,3,25,27,12,09,,,,,,,,,5.4,5.3,1.0*3C
$GPRMC,090354.000,A,6423.3971,N,02150.8345,W,1.41,354.41,300812,,,A*7F
$GPGGA,090355.000,6423.3972,N,02150.8346,W,1,04,5.3,-0.4,M,60.6,M,,0000*6C
$GPGSA,A,3,25,27,12,09,,,,,,,,,5.4,5.3,1.0*3C
$GPGSV,3,1,12,12,69,124,32,14,61,244,,25,48,205,22,09,26,107,33*75
$GPGSV,3,2,12,32,22,326,,27,18,107,35,31,17,274,21,17,12,023,18*7A
$GPGSV,3,3,12,22,11,233,17,04,08,061,,20,08,352,,01,03,323,*7B
$GPRMC,090357.000,A,6423.3970,N,02150.8351,W,1.09,210.10,300812,,,A*71
$GPGGA,090358.000,6423.3968,N,02150.8351,W,1,04,5.3,-0.4,M,60.6,M,,0000*6C
$GPGSA,A,3,25,27,12,09,,,,,,,,,5.4,5.3,1.0*3C
$GPRMC,090414.000,A,6423.3956,N,02150.8342,W,1.01,19.26,300812,,,A*41
$GPGGA,090415.000,6423.3959,N,02150.8341,W,1,04,5.2,0.7,M,60.6,M,,0000*4E
$GPGSA,A,3,25,27,12,09,,,,,,,,,5.3,5.2,1.0*3A
$GPGSV,3,1,12,12,69,124,32,14,61,244,,25,48,205,21,09,26,107,33*76
$GPGSV,3,2,12,32,22,326,,27,18,107,35,31,17,274,20,17,12,023,18*7B
$GPGSV,3,3,12,22,11,233,16,04,08,061,,20,08,352,,01,03,323,*7A
$GPRMC,090416.000,A,6423.3962,N,02150.8341,W,1.01,355.42,300812,,,A*7E
$GPGGA,090417.000,6423.3969,N,02150.8339,W,1,04,5.2,0.7,M,60.6,M,,0000*40
$GPGSA,A,3,25,27,12,09,,,,,,,,,5.3,5.2,1.0*3A
$GPRMC,090417.000,A,6423.3969,N,02150.8339,W,1.95,4.72,300812,,,A*72
$GPGGA,090418.000,6423.3975,N,02150.8339,W,1,04,5.2,0.7,M,60.6,M,,0000*42
$GPGSA,A,3,25,27,12,09,,,,,,,,,5.3,5.2,1.0*3A
$GPRMC,090418.000,A,6423.3975,N,02150.8339,W,1.56,357.41,300812,,,A*7A
$GPGGA,090419.000,6423.3981,N,02150.8337,W,1,04,5.2,0.7,M,60.6,M,,0000*46
$GPGSA,A,3,25,27,12,09,,,,,,,,,5.3,5.2,1.0*3A
$GPRMC,090419.000,A,6423.3981,N,02150.8337,W,1.84,7.26,300812,,,A*76
$GPGGA,090420.000,6423.3984,N,02150.8336,W,1,04,5.2,0.7,M,60.6,M,,0000*48
$GPGSA,A,3,25,27,12,09,,,,,,,,,5.3,5.2,1.0*3A
$GPGSV,3,1,12,12,69,124,32,14,61,244,,25,48,205,21,09,26,107,33*76
$GPGSV,3,2,12,32,22,326,,27,18,107,35,31,17,274,19,17,12,023,18*71
$GPGSV,3,3,12,22,11,233,16,04,08,061,,20,08,352,,01,03,323,*7A
$GPRMC,090420.000,A,6423.3984,N,02150.8336,W,0.95,1.92,300812,,,A*70
$GPGGA,090421.000,6423.3984,N,02150.8335,W,1,04,5.2,0.8,M,60.6,M,,0000*45
$GPGSA,A,3,25,27,12,09,,,,,,,,,5.3,5.2,1.0*3A
$GPRMC,090426.000,A,6423.3977,N,02150.8334,W,1.21,181.39,300812,,,A*7E
$GPGGA,090427.000,6423.3968,N,02150.8336,W,1,04,5.2,1.2,M,60.6,M,,0000*49
$GPGSA,A,3,25,27,12,09,,,,,,,,,5.3,5.2,1.0*3A
$GPRMC,090427.000,A,6423.3968,N,02150.8336,W,2.32,188.30,300812,,,A*72
$GPGGA,090428.000,6423.3961,N,02150.8335,W,1,04,5.2,1.3,M,60.6,M,,0000*4D
$GPGSA,A,3,25,27,12,09,,,,,,,,,5.3,5.2,1.0*3A
$GPRMC,090428.000,A,6423.3961,N,02150.8335,W,1.57,180.75,300812,,,A*7E
$GPGGA,090429.000,6423.3961,N,02150.8333,W,1,04,5.2,1.4,M,60.6,M,,0000*4D
$GPGSA,A,3,25,27,12,09,,,,,,,,,5.3,5.2,1.0*3A
$GPRMC,090430.000,A,6423.3955,N,02150.8334,W,1.24,190.14,300812,,,A*73
$GPGGA,090431.000,6423.3954,N,02150.8333,W,1,04,5.2,1.6,M,60.6,M,,0000*40
$GPGSA,A,3,25,27,12,09,,,,,,,,,5.3,5.2,1.0*3A
$GPRMC,090432.000,A,6423.3958,N,02150.8332,W,1.09,4.69,300812,,,A*73
$GPGGA,090433.000,6423.3960,N,02150.8332,W,1,04,5.2,1.7,M,60.6,M,,0000*45
$GPGSA,A,3,25,27,12,09,,,,,,,,,5.3,5.2,1.0*3A
$GPRMC,090435.000,A,6423.3953,N,02150.8334,W,1.20,192.75,300812,,,A*71
$GPGGA,090436.000,6423.3950,N,02150.8334,W,1,04,5.2,1.9,M,60.6,M,,0000*4B
$GPGSA,A,3,25,27,12,09,,,,,,,,,5.3,5.2,1.0*3A
$GPRMC,090438.000,A,6423.3955,N,02150.8330,W,1.17,10.34,300812,,,A*44
$GPGGA,090439.000,6423.3958,N,02150.8328,W,1,04,5.2,2.1,M,60.6,M,,0000*4A
$GPGSA,A,3,25,27,12,09,,,,,,,,,5.3,5.2,1.0*3A
$GPRMC,090439.000,A,6423.3958,N,02150.8328,W,1.03,19.19,300812,,,A*42
$GPGGA,090440.000,6423.3958,N,02150.8328,W,1,04,5.2,2.1,M,60.6,M,,0000*44
$GPGSA,A,3,25,27,12,09,,,,,,,,,5.3,5.2,1.0*3A
$GPGSV,3,1,12,12,68,120,32,14,61,242,,25,49,204,21,09,25,107,33*76
$GPGSV,3,2,12,32,22,325,,31,19,274,19,27,17,107,35,17,11,022,17*7E
$GPGSV,3,3,12,22,09,233,16,04,09,060,,20,09,351,,01,03,322,*70
$GPRMC,090441.000,A,6423.3954,N,02150.8329,W,0.97,198.31,300812,,,A*7E
$GPGGA,090442.000,6423.3948,N,02150.8332,W,1,04,5.2,2.2,M,60.6,M,,0000*4F
$GPGSA,A,3,25,27,12,09,,,,,,,,,5.3,5.2,1.0*3A
$GPRMC,090442.000,A,6423.3948,N,02150.8332,W,1.66,195.25,300812,,,A*7D
$GPGGA,090443.000,6423.3942,N,02150.8332,W,1,04,5.2,2.3,M,60.6,M,,0000*45
$GPGSA,A,3,25,27,12,09,,,,,,,,,5.3,5.2,1.0*3A
$GPRMC,090443.000,A,6423.3942,N,02150.8332,W,1.37,183.67,300812,,,A*73
$GPGGA,090444.000,6423.3937,N,02150.8331,W,1,04,5.2,2.4,M,60.6,M,,0000*44
$GPGSA,A,3,25,27,12,09,,,,,,,,,5.3,5.2,1.0*3A
$GPRMC,090444.000,A,6423.3937,N,02150.8331,W,1.07,170.98,300812,,,A*7A
$GPGGA,090445.000,6423.3933,N,02150.8330,W,1,04,5.2,2.5,M,60.6,M,,0000*41
$GPGSA,A,3,25,27,12,09,,,,,,,,,5.3,5.2,1.0*3A
$GPGSV,3,1,12,12,68,120,32,14,61,242,,25,49,204,21,09,25,107,33*76
$GPGSV,3,2,12,32,22,325,18,31,19,274,19,27,17,107,34,17,11,022,16*77
$GPGSV,3,3,12,22,09,233,16,04,09,060,,20,09,351,17,01,03,322,*76
$GPRMC,090450.000,A,6423.3925,N,02150.8326,W,1.24,12.55,300812,,,A*4F
$GPGGA,090451.000,6423.3931,N,02150.8324,W,1,04,5.2,3.0,M,60.6,M,,0000*47
$GPGSA,A,3,25,27,12,09,,,,,,,,,5.3,5.2,1.0*3A
$GPRMC,090451.000,A,6423.3931,N,02150.8324,W,1.74,6.80,300812,,,A*71
$GPGGA,090452.000,6423.3936,N,02150.8324,W,1,04,5.2,3.0,M,60.6,M,,0000*43
$GPGSA,A,3,25,27,12,09,,,,,,,,,5.3,5.2,1.0*3A
$GPRMC,090452.000,A,6423.3936,N,02150.8324,W,1.61,0.19,300812,,,A*77
$GPGGA,090453.000,6423.3939,N,02150.8325,W,1,04,5.2,3.0,M,60.6,M,,0000*4C
$GPGSA,A,3,25,27,12,09,,,,,,,,,5.3,5.2,1.0*3A
$GPRMC,090453.000,A,6423.3939,N,02150.8325,W,0.85,344.99,300812,,,A*78
$GPGGA,090454.000,6423.3939,N,02150.8328,W,1,04,5.2,3.0,M,60.6,M,,0000*46
$GPGSA,A,3,25,27,12,09,,,,,,,,,5.3,5.2,1.0*3A
$GPRMC,090458.000,A,6423.3943,N,02150.8326,W,1.36,11.60,300812,,,A*41
$GPGGA,090459.000,6423.3949,N,02150.8323,W,1,04,5.2,3.0,M,60.6,M,,0000*47
$GPGSA,A,3,25,27,12,09,,,,,,,,,5.3,5.2,1.0*3A
$GPRMC,090459.000,A,6423.3949,N,02150.8323,W,1.78,12.34,300812,,,A*47
$GPGGA,090500.000,6423.3951,N,02150.8322,W,1,04,5.2,3.0,M,60.6,M,,0000*42
$GPGSA,A,3,25,27,12,09,,,,,,,,,5.3,5.2,1.0*3A
$GPGSV,3,1,12,12,68,120,32,14,61,242,,25,49,204,21,09,25,107,33*76
$GPGSV,3,2,12,32,22,325,19,31,19,274,17,27,17,107,34,17,11,022,16*78
$GPGSV,3,3,12,22,09,233,15,04,09,060,,20,09,351,18,01,03,322,*7A
$GPRMC,090500.000,A,6423.3951,N,02150.8322,W,1.02,15.71,300812,,,A*49
$GPGGA,090501.000,6423.3949,N,02150.8321,W,1,04,5.2,3.1,M,60.6,M,,0000*48
$GPGSA,A,3,25,27,12,09,,,,,,,,,5.3,5.2,1.0*3A
$GPRMC,090504.000,A,6423.3947,N,02150.8319,W,0.88,22.09,300812,,,A*4A
$GPGGA,090505.000,6423.3950,N,02150.8317,W,1,04,5.2,3.3,M,60.6,M,,0000*43
$GPGSA,A,3,25,27,12,09,,,,,,,,,5.2,5.2,1.0*3B
$GPGSV,3,1,12,12,68,120,32,14,61,242,,25,49,204,22,09,25,107,33*75
$GPGSV,3,2,12,32,22,325,18,31,19,274,17,27,17,107,34,17,11,022,16*79
$GPGSV,3,3,12,22,09,233,15,04,09,060,,20,09,351,17,01,03,322,*75
$GPRMC,090505.000,A,6423.3950,N,02150.8317,W,1.18,9.08,300812,,,A*73
$GPGGA,090506.000,6423.3952,N,02150.8317,W,1,04,5.2,3.3,M,60.6,M,,0000*42
$GPGSA,A,3,25,27,12,09,,,,,,,,,5.2,5.2,1.0*3B
$GPRMC,090508.000,A,6423.3955,N,02150.8318,W,0.88,1.91,300812,,,A*74
$GPGGA,090509.000,6423.3961,N,02150.8315,W,1,04,5.1,3.3,M,60.6,M,,0000*4C
$GPGSA,A,3,25,27,12,09,,,,,,,,,5.2,5.1,1.0*38
$GPRMC,090509.000,A,6423.3961,N,02150.8315,W,1.97,11.50,300812,,,A*4C
$GPGGA,090510.000,6423.3965,N,02150.8313,W,1,04,5.1,3.3,M,60.6,M,,0000*46
$GPGSA,A,3,25,27,12,09,,,,,,,,,5.2,5.1,1.0*38
$GPGSV,3,1,12,12,68,120,32,14,61,242,,25,49,204,22,09,25,107,33*75
$GPGSV,3,2,12,32,22,325,18,31,19,274,15,27,17,107,34,17,11,022,16*7B
$GPGSV,3,3,12,22,09,233,15,04,09,060,16,20,09,351,17,01,03,322,*72
$GPRMC,090510.000,A,6423.3965,N,02150.8313,W,1.57,10.17,300812,,,A*48
$GPGGA,090511.000,6423.3966,N,02150.8313,W,1,04,5.1,3.3,M,60.6,M,,0000*44
$GPGSA,A,3,25,27,12,09,,,,,,,,,5.2,5.1,1.0*38
$GPRMC,090516.000,A,6423.3954,N,02150.8315,W,1.36,192.11,300812,,,A*70
$GPGGA,090517.000,6423.3950,N,02150.8316,W,1,04,5.1,3.5,M,60.6,M,,0000*44
$GPGSA,A,3,25,27,12,09,,,,,,,,,5.2,5.1,1.0*38
$GPRMC,090518.000,A,6423.3943,N,02150.8317,W,1.51,188.03,300812,,,A*73
$GPGGA,090519.000,6423.3937,N,02150.8318,W,1,04,5.1,3.6,M,60.6,M,,0000*46
$GPGSA,A,3,25,27,12,09,,,,,,,,,5.2,5.1,1.0*38
$GPRMC,090519.000,A,6423.3937,N,02150.8318,W,1.25,179.39,300812,,,A*7A
$GPGGA,090520.000,6423.3936,N,02150.8317,W,1,04,5.1,3.7,M,60.6,M,,0000*43
$GPGSA,A,3,25,27,12,09,,,,,,,,,5.2,5.1,1.0*38
$GPGSV,3,1,12,12,68,120,32,14,61,242,,25,49,204,23,09,25,107,33*74
$GPGSV,3,2,12,32,22,325,17,31,19,274,,27,17,107,34,17,11,022,15*73
$GPGSV,3,3,12,22,09,233,15,04,09,060,15,20,09,351,17,01,03,322,*71
$GPRMC,090521.000,A,6423.3940,N,02150.8315,W,1.46,16.41,300812,,,A*4E
$GPGGA,090522.000,6423.3943,N,02150.8315,W,1,04,5.1,3.7,M,60.6,M,,0000*41
$GPGSA,A,3,25,27,12,09,,,,,,,,,5.2,5.1,1.0*38
$GPRMC,090522.000,A,6423.3943,N,02150.8315,W,1.22,3.67,300812,,,A*7C
$GPGGA,090523.000,6423.3950,N,02150.8313,W,1,04,5.1,3.6,M,60.6,M,,0000*45
$GPGSA,A,3,25,27,12,09,,,,,,,,,5.2,5.1,1.0*38
$GPRMC,090523.000,A,6423.3950,N,02150.8313,W,2.17,6.90,300812,,,A*71
$GPGGA,090524.000,6423.3956,N,02150.8312,W,1,04,5.1,3.6,M,60.6,M,,0000*45
$GPGSA,A,3,25,27,12,09,,,,,,,,,5.2,5.1,1.0*38
$GPRMC,090524.000,A,6423.3956,N,02150.8312,W,1.85,5.41,300812,,,A*76
$GPGGA,090525.000,6423.3960,N,02150.8312,W,1,04,5.1,3.6,M,60.6,M,,0000*41
$GPGSA,A,3,25,27,12,09,,,,,,,,,5.2,5.1,1.0*38
$GPGSV,3,1,12,12,68,120,32,14,61,242,,25,49,204,23,09,25,107,33*74
$GPGSV,3,2,12,32,22,325,17,31,19,274,,27,17,107,34,17,11,022,15*73
$GPGSV,3,3,12,22,09,233,14,04,09,060,15,20,09,351,17,01,03,322,*70
$GPRMC,090525.000,A,6423.3960,N,02150.8312,W,1.16,355.92,300812,,,A*70
$GPGGA,090526.000,6423.3962,N,02150.8314,W,1,04,5.1,3.5,M,60.6,M,,0000*45
$GPGSA,A,3,25,27,12,09,,,,,,,,,5.2,5.1,1.0*38
$GPRMC,090534.000,A,6423.3961,N,02150.8320,W,0.99,3.08,300812,,,A*75
$GPGGA,090535.000,6423.3963,N,02150.8321,W,1,04,5.1,3.2,M,60.6,M,,0000*47
$GPGSA,A,3,25,27,12,09,,,,,,,,,5.2,5.1,1.0*38
$GPGSV,3,1,12,12,68,120,32,14,61,242,,25,49,204,24,09,25,107,33*73
