$GPRMC,002516.000,A,6358.0464,N,02234.5556,W,1.69,324.78,290812,,,A*72
$GPGGA,002517.000,6358.0472,N,02234.5569,W,1,09,0.9,49.2,M,60.8,M,,0000*7F
$GPGSA,A,3,30,29,13,04,10,02,23,05,07,,,,1.7,0.9,1.5*37
$GPRMC,002517.000,A,6358.0472,N,02234.5569,W,3.45,323.85,290812,,,A*71
$GPGGA,002518.000,6358.0483,N,02234.5588,W,1,09,0.9,49.2,M,60.8,M,,0000*71
$GPGSA,A,3,30,29,13,04,10,02,23,05,07,,,,1.7,0.9,1.5*37
$GPRMC,002518.000,A,6358.0483,N,02234.5588,W,5.20,323.60,290812,,,A*71
$GPGGA,002519.000,6358.0497,N,02234.5612,W,1,09,0.9,49.3,M,60.8,M,,0000*74
$GPGSA,A,3,30,29,13,04,10,02,23,05,07,,,,1.7,0.9,1.5*37
$GPRMC,002519.000,A,6358.0497,N,02234.5612,W,6.50,323.23,290812,,,A*76
$GPGGA,002520.000,6358.0511,N,02234.5638,W,1,09,0.9,49.3,M,60.8,M,,0000*79
$GPGSA,A,3,30,29,13,04,10,02,23,05,07,,,,1.7,0.9,1.5*37
$GPRMC,002520.000,A,6358.0511,N,02234.5638,W,6.74,322.97,290812,,,A*73
$GPGGA,002521.000,6358.0525,N,02234.5662,W,1,09,0.9,49.3,M,60.8,M,,0000*70
$GPGSA,A,3,30,29,13,04,10,02,23,05,07,,,,1.7,0.9,1.5*37
$GPGSV,3,1,12,10,75,204,42,13,62,103,46,02,60,253,47,04,45,172,44*7F
$GPGSV,3,2,12,23,36,063,47,05,25,263,44,29,22,325,42,07,18,134,25*7A
$GPGSV,3,3,12,30,14,028,43,16,04,053,,25,03,306,35,20,00,095,29*76
$GPRMC,002521.000,A,6358.0525,N,02234.5662,W,6.53,322.68,290812,,,A*7F
$GPGGA,002522.000,6358.0542,N,02234.5691,W,1,09,0.9,49.4,M,60.8,M,,0000*79
$GPGSA,A,3,30,29,13,04,10,02,23,05,07,,,,1.7,0.9,1.5*37
$GPRMC,002522.000,A,6358.0542,N,02234.5691,W,7.49,322.38,290812,,,A*7E
$GPGGA,002523.000,6358.0560,N,02234.5724,W,1,09,0.9,49.4,M,60.8,M,,0000*77
$GPGSA,A,3,30,29,13,04,10,02,23,05,07,,,,1.7,0.9,1.5*37
$GPRMC,002523.000,A,6358.0560,N,02234.5724,W,8.58,321.77,290812,,,A*77
$GPGGA,002524.000,6358.0579,N,02234.5760,W,1,09,0.9,49.5,M,60.8,M,,0000*79
$GPGSA,A,3,30,29,13,04,10,02,23,05,07,,,,1.7,0.9,1.5*37
$GPRMC,002524.000,A,6358.0579,N,02234.5760,W,9.11,321.55,290812,,,A*74
$GPGGA,002525.000,6358.0599,N,02234.5795,W,1,09,0.9,49.5,M,60.8,M,,0000*7C
$GPGSA,A,3,30,29,13,04,10,02,23,05,07,,,,1.7,0.9,1.5*37
$GPRMC,002525.000,A,6358.0599,N,02234.5795,W,9.08,322.01,290812,,,A*7B
$GPGGA,002526.000,6358.0619,N,02234.5829,W,1,09,0.9,49.6,M,60.8,M,,0000*7F
$GPGSA,A,3,30,29,13,04,10,02,23,05,07,,,,1.7,0.9,1.5*37
$GPGSV,3,1,12,10,75,204,42,13,62,103,47,02,60,253,47,04,45,172,45*7F
$GPGSV,3,2,12,23,36,063,47,05,25,263,43,29,22,325,42,07,18,134,30*79
$GPGSV,3,3,12,30,14,028,43,16,04,053,33,25,03,306,36,20,00,095,25*79
$GPRMC,002526.000,A,6358.0619,N,02234.5829,W,9.35,323.60,290812,,,A*73
$GPGGA,002527.000,6358.0641,N,02234.5863,W,1,09,0.9,49.6,M,60.8,M,,0000*7D
$GPGSA,A,3,30,29,13,04,10,02,23,05,07,,,,1.7,0.9,1.5*37
$GPRMC,002527.000,A,6358.0641,N,02234.5863,W,9.65,326.07,290812,,,A*70
$GPGGA,002528.000,6358.0664,N,02234.5893,W,1,09,0.9,49.7,M,60.8,M,,0000*7B
$GPGSA,A,3,30,29,13,04,10,02,23,05,07,,,,1.7,0.9,1.5*37
$GPRMC,002528.000,A,6358.0664,N,02234.5893,W,9.57,330.20,290812,,,A*74
$GPGGA,002529.000,6358.0687,N,02234.5915,W,1,09,0.9,49.7,M,60.8,M,,0000*78
$GPGSA,A,3,30,29,13,04,10,02,23,05,07,,,,1.7,0.9,1.5*37
$GPRMC,002529.000,A,6358.0687,N,02234.5915,W,9.09,339.03,290812,,,A*74
$GPGGA,002530.000,6358.0711,N,02234.5924,W,1,09,0.9,49.8,M,60.8,M,,0000*73
$GPGSA,A,3,30,29,13,04,10,02,23,05,07,,,,1.7,0.9,1.5*37
$GPRMC,002530.000,A,6358.0711,N,02234.5924,W,8.73,351.05,290812,,,A*74
$GPGGA,002531.000,6358.0734,N,02234.5920,W,1,09,0.9,49.9,M,60.8,M,,0000*70
$GPGSA,A,3,30,29,13,04,10,02,23,05,07,,,,1.7,0.9,1.5*37
$GPGSV,3,1,12,10,75,204,44,13,62,103,44,02,60,253,46,04,45,172,45*7B
$GPGSV,3,2,12,23,36,063,48,05,25,263,44,29,22,325,45,07,18,134,34*72
$GPGSV,3,3,12,30,14,028,43,16,04,053,33,25,03,306,40,20,00,095,25*78
$GPRMC,002531.000,A,6358.0734,N,02234.5920,W,8.42,5.63,290812,,,A*76
$GPGGA,002532.000,6358.0755,N,02234.5901,W,1,09,0.9,50.0,M,60.8,M,,0000*76
$GPGSA,A,3,30,29,13,04,10,02,23,05,07,,,,1.7,0.9,1.5*37
$GPRMC,002532.000,A,6358.0755,N,02234.5901,W,8.33,23.07,290812,,,A*41
$GPGGA,002533.000,6358.0774,N,02234.5865,W,1,09,0.9,50.1,M,60.8,M,,0000*76
$GPGSA,A,3,30,29,13,04,10,02,23,05,07,,,,1.7,0.9,1.5*37
$GPRMC,002533.000,A,6358.0774,N,02234.5865,W,9.12,41.91,290812,,,A*49
$GPGGA,002534.000,6358.0791,N,02234.5815,W,1,09,0.9,50.2,M,60.8,M,,0000*7E
$GPGSA,A,3,30,29,13,04,10,02,23,05,07,,,,1.7,0.9,1.5*37
$GPRMC,002534.000,A,6358.0791,N,02234.5815,W,10.25,53.88,290812,,,A*75
$GPGGA,002535.000,6358.0807,N,02234.5758,W,1,09,0.9,50.3,M,60.8,M,,0000*78
$GPGSA,A,3,30,29,13,04,10,02,23,05,07,,,,1.7,0.9,1.5*37
$GPRMC,002535.000,A,6358.0807,N,02234.5758,W,10.97,58.46,290812,,,A*72
$GPGGA,002536.000,6358.0822,N,02234.5699,W,1,09,0.9,50.4,M,60.8,M,,0000*77
$GPGSA,A,3,30,29,13,04,10,02,23,05,07,,,,1.7,0.9,1.5*37
$GPGSV,3,1,12,10,75,204,43,13,62,103,41,02,60,253,48,04,45,172,46*74
$GPGSV,3,2,12,23,36,063,43,05,25,263,38,29,22,325,44,07,18,134,47*77
$GPGSV,3,3,12,30,14,028,41,16,04,053,27,25,03,306,39,20,00,095,32*77
$GPRMC,002536.000,A,6358.0822,N,02234.5699,W,11.20,61.40,290812,,,A*7B
$GPGGA,002537.000,6358.0836,N,02234.5636,W,1,09,0.9,50.5,M,60.8,M,,0000*77
$GPGSA,A,3,30,29,13,04,10,02,23,05,07,,,,1.7,0.9,1.5*37
$GPRMC,002537.000,A,6358.0836,N,02234.5636,W,11.40,64.05,290812,,,A*78
$GPGGA,002538.000,6358.0850,N,02234.5573,W,1,09,0.9,50.6,M,60.8,M,,0000*79
$GPGSA,A,3,30,29,13,04,10,02,23,05,07,,,,1.7,0.9,1.5*37
$GPRMC,002538.000,A,6358.0850,N,02234.5573,W,11.45,63.68,290812,,,A*7C
$GPGGA,002539.000,6358.0865,N,02234.5511,W,1,09,0.9,50.7,M,60.8,M,,0000*7B
$GPGSA,A,3,30,29,13,04,10,02,23,05,07,,,,1.7,0.9,1.5*37
$GPRMC,002539.000,A,6358.0865,N,02234.5511,W,11.48,61.75,290812,,,A*7C
$GPGGA,002540.000,6358.0880,N,02234.5450,W,1,09,0.9,50.7,M,60.8,M,,0000*7A
$GPGSA,A,3,30,29,13,04,10,02,23,05,07,,,,1.7,0.9,1.5*37
$GPRMC,002540.000,A,6358.0880,N,02234.5450,W,11.43,60.89,290812,,,A*74
$GPGGA,002541.000,6358.0896,N,02234.5388,W,1,09,0.9,50.8,M,60.8,M,,0000*71
$GPGSA,A,3,30,29,13,04,10,02,23,05,07,,,,1.7,0.9,1.5*37
$GPGSV,3,1,12,10,75,204,43,13,62,103,41,02,60,253,48,04,45,172,47*75
$GPGSV,3,2,12,23,36,063,46,05,25,263,38,29,22,325,43,07,18,134,47*75
$GPGSV,3,3,12,30,14,028,37,16,04,053,30,25,03,306,37,20,00,095,32*7E
$GPRMC,002541.000,A,6358.0896,N,02234.5388,W,11.40,60.86,290812,,,A*7C
$GPGGA,002542.000,6358.0912,N,02234.5327,W,1,09,0.9,50.9,M,60.8,M,,0000*7B
$GPGSA,A,3,30,29,13,04,10,02,23,05,07,,,,1.7,0.9,1.5*37
$GPRMC,002542.000,A,6358.0912,N,02234.5327,W,11.52,59.36,290812,,,A*75
$GPGGA,002543.000,6358.0928,N,02234.5264,W,1,09,0.9,51.0,M,60.8,M,,0000*7D
$GPGSA,A,3,30,29,13,04,10,02,23,05,07,,,,1.7,0.9,1.5*37
$GPRMC,002543.000,A,6358.0928,N,02234.5264,W,11.62,60.77,290812,,,A*77
$GPGGA,002544.000,6358.0945,N,02234.5203,W,1,09,0.9,51.1,M,60.8,M,,0000*71
$GPGSA,A,3,30,29,13,04,10,02,23,05,07,,,,1.7,0.9,1.5*37
$GPRMC,002544.000,A,6358.0945,N,02234.5203,W,11.67,58.32,290812,,,A*75
$GPGGA,002545.000,6358.0963,N,02234.5141,W,1,09,0.9,51.2,M,60.8,M,,0000*72
$GPGSA,A,3,30,29,13,04,10,02,23,05,07,,,,1.7,0.9,1.5*37
$GPRMC,002545.000,A,6358.0963,N,02234.5141,W,11.75,56.72,290812,,,A*7C
$GPGGA,002546.000,6358.0981,N,02234.5081,W,1,09,0.9,51.3,M,60.8,M,,0000*71
$GPGSA,A,3,30,29,13,04,10,02,23,05,07,,,,1.7,0.9,1.5*37
$GPGSV,3,1,12,10,75,204,42,13,62,103,40,02,60,253,49,04,45,172,47*74
$GPGSV,3,2,12,23,36,063,45,05,25,263,39,29,22,325,43,07,18,134,47*77
$GPGSV,3,3,12,30,14,028,44,16,04,053,31,25,03,306,26,20,00,095,21*79
$GPRMC,002546.000,A,6358.0981,N,02234.5081,W,11.80,55.93,290812,,,A*78
$GPGGA,002547.000,6358.0999,N,02234.5020,W,1,09,0.9,51.4,M,60.8,M,,0000*75
$GPGSA,A,3,30,29,13,04,10,02,23,05,07,,,,1.7,0.9,1.5*37
$GPRMC,002547.000,A,6358.0999,N,02234.5020,W,11.59,56.42,290812,,,A*70
$GPGGA,002548.000,6358.1016,N,02234.4960,W,1,09,0.9,51.5,M,60.8,M,,0000*78
$GPGSA,A,3,30,29,13,04,10,02,23,05,07,,,,1.7,0.9,1.5*37
$GPRMC,002548.000,A,6358.1016,N,02234.4960,W,11.46,57.89,290812,,,A*74
$GPGGA,002549.000,6358.1032,N,02234.4898,W,1,09,0.9,51.5,M,60.8,M,,0000*79
$GPGSA,A,3,30,29,13,04,10,02,23,05,07,,,,1.7,0.9,1.5*37
$GPRMC,002549.000,A,6358.1032,N,02234.4898,W,11.42,59.82,290812,,,A*74
$GPGGA,002550.000,6358.1046,N,02234.4836,W,1,09,0.9,51.6,M,60.8,M,,0000*75
$GPGSA,A,3,30,29,13,04,10,02,23,05,07,,,,1.7,0.9,1.5*37
$GPRMC,002550.000,A,6358.1046,N,02234.4836,W,11.27,62.02,290812,,,A*78
$GPGGA,002551.000,6358.1060,N,02234.4773,W,1,09,0.9,51.7,M,60.8,M,,0000*7F
$GPGSA,A,3,30,29,13,04,10,02,23,05,07,,,,1.7,0.9,1.5*37
$GPGSV,3,1,12,10,75,203,42,13,62,103,39,02,60,253,49,04,45,172,47*7D
$GPGSV,3,2,12,23,35,063,45,05,25,263,38,29,23,325,42,07,18,134,46*74
$GPGSV,3,3,12,30,14,028,36,16,04,052,,25,03,306,20,20,00,095,21*79
$GPRMC,002551.000,A,6358.1060,N,02234.4773,W,11.23,63.11,290812,,,A*74
$GPGGA,002552.000,6358.1075,N,02234.4711,W,1,09,0.9,51.7,M,60.8,M,,0000*7C
$GPGSA,A,3,30,29,13,04,10,02,23,05,07,,,,1.7,0.9,1.5*37
$GPRMC,002552.000,A,6358.1075,N,02234.4711,W,11.12,62.98,290812,,,A*75
$GPGGA,002553.000,6358.1088,N,02234.4652,W,1,09,0.9,51.7,M,60.8,M,,0000*79
$GPGSA,A,3,30,29,13,04,10,02,23,05,07,,,,1.7,0.9,1.5*37
$GPRMC,002553.000,A,6358.1088,N,02234.4652,W,10.64,62.55,290812,,,A*71
$GPGGA,002554.000,6358.1100,N,02234.4594,W,1,09,0.9,51.7,M,60.8,M,,0000*76
$GPGSA,A,3,30,29,13,04,10,02,23,05,07,,,,1.7,0.9,1.5*37
$GPRMC,002554.000,A,6358.1100,N,02234.4594,W,10.08,65.94,290812,,,A*7E
$GPGGA,002555.000,6358.1108,N,02234.4539,W,1,09,0.9,51.8,M,60.8,M,,0000*77
$GPGSA,A,3,30,29,13,04,10,02,23,05,07,,,,1.7,0.9,1.5*37
$GPRMC,002555.000,A,6358.1108,N,02234.4539,W,9.27,71.02,290812,,,A*4F
$GPGGA,002556.000,6358.1115,N,02234.4483,W,1,09,0.9,51.8,M,60.8,M,,0000*78
$GPGSA,A,3,30,29,13,04,10,02,23,05,07,,,,1.7,0.9,1.5*37
$GPGSV,3,1,12,10,75,203,40,13,62,103,41,02,60,253,48,04,45,172,47*71
$GPGSV,3,2,12,23,35,063,46,05,25,263,39,29,23,325,42,07,18,134,45*75
$GPGSV,3,3,12,30,14,028,43,16,04,052,38,25,03,306,20,20,00,095,18*7A
$GPRMC,002556.000,A,6358.1115,N,02234.4483,W,9.12,76.18,290812,,,A*4A
$GPGGA,002557.000,6358.1119,N,02234.4429,W,1,09,0.9,51.8,M,60.8,M,,0000*75
$GPGSA,A,3,30,29,13,04,10,02,23,05,07,,,,1.7,0.9,1.5*37
$GPRMC,002557.000,A,6358.1119,N,02234.4429,W,8.78,80.77,290812,,,A*4A
$GPGGA,002558.000,6358.1122,N,02234.4376,W,1,09,0.9,51.7,M,60.8,M,,0000*70
$GPGSA,A,3,30,29,13,04,10,02,23,05,07,,,,1.7,0.9,1.5*37
$GPRMC,002558.000,A,6358.1122,N,02234.4376,W,8.40,83.91,290812,,,A*40
$GPGGA,002559.000,6358.1124,N,02234.4326,W,1,09,0.9,51.7,M,60.8,M,,0000*72
$GPGSA,A,3,30,29,13,04,10,02,23,05,07,,,,1.7,0.9,1.5*37
$GPRMC,002559.000,A,6358.1124,N,02234.4326,W,8.06,85.02,290812,,,A*4C
$GPGGA,002600.000,6358.1126,N,02234.4280,W,1,09,0.9,51.7,M,60.8,M,,0000*72
$GPGSA,A,3,30,29,13,04,10,02,23,05,07,,,,1.7,0.9,1.5*37
$GPRMC,002600.000,A,6358.1126,N,02234.4280,W,7.26,86.59,290812,,,A*4C
$GPGGA,002601.000,6358.1127,N,02234.4243,W,1,09,0.9,51.7,M,60.8,M,,0000*7D
$GPGSA,A,3,30,29,13,04,10,02,23,05,07,,,,1.7,0.9,1.5*37
$GPGSV,3,1,12,10,75,203,34,13,62,103,44,02,60,253,46,04,45,172,47*79
$GPGSV,3,2,12,23,35,063,41,05,25,263,35,29,23,325,35,07,18,134,40*7B
$GPGSV,3,3,12,30,14,028,27,16,04,052,38,25,03,306,26,20,00,095,23*76
$GPRMC,002601.000,A,6358.1127,N,02234.4243,W,5.83,86.62,290812,,,A*46
$GPGGA,002602.000,6358.1128,N,02234.4214,W,1,09,0.9,51.7,M,60.8,M,,0000*73
$GPGSA,A,3,30,29,13,04,10,02,23,05,07,,,,1.7,0.9,1.5*37
$GPRMC,002602.000,A,6358.1128,N,02234.4214,W,4.51,86.92,290812,,,A*49
$GPGGA,002603.000,6358.1128,N,02234.4195,W,1,09,0.9,51.8,M,60.8,M,,0000*77
$GPGSA,A,3,30,29,13,04,10,02,23,05,07,,,,1.7,0.9,1.5*37
$GPRMC,002603.000,A,6358.1128,N,02234.4195,W,2.78,86.91,290812,,,A*4C
$GPGGA,002604.000,6358.1129,N,02234.4185,W,1,09,0.9,51.8,M,60.8,M,,0000*70
$GPGSA,A,3,30,29,13,04,10,02,23,05,07,,,,1.7,0.9,1.5*37
$GPRMC,002604.000,A,6358.1129,N,02234.4185,W,1.48,86.38,290812,,,A*48
$GPGGA,002605.000,6358.1129,N,02234.4181,W,1,09,0.9,51.8,M,60.8,M,,0000*75
$GPGSA,A,3,30,29,13,04,10,02,23,05,07,,,,1.7,0.9,1.5*37
$GPRMC,002618.000,A,6358.1131,N,02234.4158,W,1.61,87.80,290812,,,A*45
$GPGGA,002619.000,6358.1131,N,02234.4139,W,1,09,0.9,52.1,M,60.8,M,,0000*78
$GPGSA,A,3,30,29,13,04,10,02,23,05,07,,,,1.7,0.9,1.5*37
$GPGSV,3,1,12,10,76,203,36,13,62,102,46,02,60,252,45,04,45,172,46*78
$GPGSV,3,2,12,23,35,063,43,05,26,263,37,29,23,325,38,07,19,134,40*74
$GPGSV,3,3,12,30,14,028,29,16,04,052,37,25,03,306,26,20,00,095,23*77
$GPRMC,002619.000,A,6358.1131,N,02234.4139,W,3.05,86.44,290812,,,A*4A
$GPGGA,002620.000,6358.1133,N,02234.4109,W,1,09,0.9,52.1,M,60.8,M,,0000*73
$GPGSA,A,3,30,29,13,04,10,02,23,05,07,,,,1.7,0.9,1.5*37
$GPRMC,002620.000,A,6358.1133,N,02234.4109,W,4.91,84.10,290812,,,A*48
$GPGGA,002621.000,6358.1135,N,02234.4073,W,1,09,0.9,52.0,M,60.8,M,,0000*79
$GPGSA,A,3,30,29,13,04,10,02,23,05,07,,,,1.7,0.9,1.5*37
$GPRMC,002621.000,A,6358.1135,N,02234.4073,W,6.07,83.68,290812,,,A*46
$GPGGA,002622.000,6358.1136,N,02234.4034,W,1,09,0.9,51.9,M,60.8,M,,0000*70
$GPGSA,A,3,30,29,13,04,10,02,23,05,07,,,,1.7,0.9,1.5*37
$GPRMC,002622.000,A,6358.1136,N,02234.4034,W,6.34,84.30,290812,,,A*4F
$GPGGA,002623.000,6358.1138,N,02234.3995,W,1,09,0.9,51.9,M,60.8,M,,0000*7A
$GPGSA,A,3,30,29,13,04,10,02,23,05,07,,,,1.7,0.9,1.5*37
$GPRMC,002623.000,A,6358.1138,N,02234.3995,W,6.40,85.54,290812,,,A*45
$GPGGA,002624.000,6358.1137,N,02234.3949,W,1,09,0.9,51.9,M,60.8,M,,0000*73
$GPGSA,A,3,30,29,13,04,10,02,23,05,07,,,,1.7,0.9,1.5*37
$GPGSV,3,1,12,10,76,203,32,13,62,102,46,02,60,252,45,04,45,172,46*7C
$GPGSV,3,2,12,23,35,063,43,05,26,263,37,29,23,325,40,07,19,134,42*79
$GPGSV,3,3,12,30,14,028,36,16,04,052,38,25,03,306,30,20,00,095,22*70
$GPRMC,002624.000,A,6358.1137,N,02234.3949,W,7.43,92.95,290812,,,A*45
$GPGGA,002625.000,6358.1131,N,02234.3898,W,1,09,0.9,51.8,M,60.8,M,,0000*78
$GPGSA,A,3,30,29,13,04,10,02,23,05,07,,,,1.7,0.9,1.5*37
$GPRMC,002625.000,A,6358.1131,N,02234.3898,W,8.63,103.51,290812,,,A*73
$GPGGA,002626.000,6358.1121,N,02234.3843,W,1,09,0.9,51.8,M,60.8,M,,0000*7C
$GPGSA,A,3,30,29,13,04,10,02,23,05,07,,,,1.7,0.9,1.5*37
$GPRMC,002626.000,A,6358.1121,N,02234.3843,W,9.68,114.08,290812,,,A*77
$GPGGA,002627.000,6358.1107,N,02234.3794,W,1,09,0.9,51.7,M,60.8,M,,0000*73
$GPGSA,A,3,30,29,13,04,10,02,23,05,07,,,,1.7,0.9,1.5*37
$GPRMC,002627.000,A,6358.1107,N,02234.3794,W,9.45,121.36,290812,,,A*73
$GPGGA,002628.000,6358.1092,N,02234.3746,W,1,09,0.9,51.6,M,60.8,M,,0000*7F
$GPGSA,A,3,30,29,13,04,10,02,23,05,07,,,,1.7,0.9,1.5*37
$GPRMC,002628.000,A,6358.1092,N,02234.3746,W,9.57,126.90,290812,,,A*76
$GPGGA,002629.000,6358.1076,N,02234.3696,W,1,09,0.9,51.6,M,60.8,M,,0000*78
$GPGSA,A,3,30,29,13,04,10,02,23,05,07,,,,1.7,0.9,1.5*37
$GPGSV,3,1,12,10,76,203,25,13,62,102,34,02,60,252,31,04,45,172,27*7B
$GPGSV,3,2,12,23,35,063,29,05,26,263,33,29,23,325,32,07,19,134,36*77
$GPGSV,3,3,12,30,14,028,25,16,04,052,38,25,03,306,21,20,00,095,21*71
$GPRMC,002629.000,A,6358.1076,N,02234.3696,W,9.97,126.58,290812,,,A*79
$GPGGA,002630.000,6358.1059,N,02234.3648,W,1,09,0.9,51.5,M,60.8,M,,0000*7D
$GPGSA,A,3,30,29,13,04,10,02,23,05,07,,,,1.7,0.9,1.5*37
$GPRMC,002630.000,A,6358.1059,N,02234.3648,W,10.01,128.52,290812,,,A*4C
$GPGGA,002631.000,6358.1041,N,02234.3599,W,1,09,0.9,51.4,M,60.8,M,,0000*7B
$GPGSA,A,3,30,29,13,04,10,02,23,05,07,,,,1.7,0.9,1.5*37
$GPRMC,002631.000,A,6358.1041,N,02234.3599,W,10.03,129.64,290812,,,A*4D
$GPGGA,002632.000,6358.1024,N,02234.3551,W,1,08,1.1,51.4,M,60.8,M,,0000*77
$GPGSA,A,3,29,13,04,10,02,23,05,07,,,,,1.9,1.1,1.6*30
$GPRMC,002632.000,A,6358.1024,N,02234.3551,W,10.04,129.46,290812,,,A*4E
$GPGGA,002633.000,6358.1007,N,02234.3502,W,1,08,1.3,51.4,M,60.8,M,,0000*73
$GPGSA,A,3,30,29,13,04,10,02,23,05,,,,,2.5,1.3,2.2*3E
$GPRMC,002633.000,A,6358.1007,N,02234.3502,W,9.96,128.44,290812,,,A*78
$GPGGA,002634.000,6358.0990,N,02234.3454,W,1,09,0.9,51.3,M,60.8,M,,0000*7D
$GPGSA,A,3,30,29,13,04,10,02,23,05,07,,,,1.7,0.9,1.5*37
$GPGSV,3,1,12,10,76,203,27,13,62,102,33,02,60,252,26,04,45,172,38*76
$GPGSV,3,2,12,23,35,063,32,05,26,263,31,29,23,325,26,07,19,134,21*7C
$GPGSV,3,3,12,30,14,028,36,16,04,052,23,25,03,306,21,20,00,095,*7A
$GPRMC,002634.000,A,6358.0990,N,02234.3454,W,9.82,129.28,290812,,,A*75
$GPGGA,002635.000,6358.0972,N,02234.3407,W,1,09,0.9,51.3,M,60.8,M,,0000*76
$GPGSA,A,3,30,29,13,04,10,02,23,05,07,,,,1.7,0.9,1.5*37
$GPRMC,002635.000,A,6358.0972,N,02234.3407,W,9.81,129.58,290812,,,A*7A
$GPGGA,002636.000,6358.0954,N,02234.3359,W,1,09,0.9,51.3,M,60.8,M,,0000*7D
$GPGSA,A,3,30,29,13,04,10,02,23,05,07,,,,1.7,0.9,1.5*37
$GPRMC,002636.000,A,6358.0954,N,02234.3359,W,10.11,130.85,290812,,,A*48
$GPGGA,002637.000,6358.0935,N,02234.3310,W,1,09,0.9,51.3,M,60.8,M,,0000*76
$GPGSA,A,3,30,29,13,04,10,02,23,05,07,,,,1.7,0.9,1.5*37
$GPRMC,002637.000,A,6358.0935,N,02234.3310,W,10.34,131.31,290812,,,A*4A
$GPGGA,002638.000,6358.0917,N,02234.3262,W,1,09,0.9,51.3,M,60.8,M,,0000*7D
$GPGSA,A,3,30,29,13,04,10,02,23,05,07,,,,1.7,0.9,1.5*37
$GPRMC,002638.000,A,6358.0917,N,02234.3262,W,10.25,131.74,290812,,,A*40
$GPGGA,002639.000,6358.0897,N,02234.3216,W,1,09,0.9,51.3,M,60.8,M,,0000*76
$GPGSA,A,3,30,29,13,04,10,02,23,05,07,,,,1.7,0.9,1.5*37
$GPGSV,3,1,12,10,76,203,27,13,62,102,32,02,60,252,25,04,45,172,36*7A
$GPGSV,3,2,12,23,35,063,34,05,26,263,31,29,23,325,19,07,19,134,32*74
$GPGSV,3,3,12,30,14,028,34,16,04,052,25,25,03,306,28,20,00,095,26*73
$GPRMC,002639.000,A,6358.0897,N,02234.3216,W,10.28,133.95,290812,,,A*4B
$GPGGA,002640.000,6358.0878,N,02234.3167,W,1,09,0.9,51.2,M,60.8,M,,0000*7D
$GPGSA,A,3,30,29,13,04,10,02,23,05,07,,,,1.7,0.9,1.5*37
$GPRMC,002640.000,A,6358.0878,N,02234.3167,W,10.58,132.55,290812,,,A*4B
$GPGGA,002641.000,6358.0858,N,02234.3116,W,1,09,0.9,51.1,M,60.8,M,,0000*7B
$GPGSA,A,3,30,29,13,04,10,02,23,05,07,,,,1.7,0.9,1.5*37
$GPRMC,002641.000,A,6358.0858,N,02234.3116,W,10.78,131.79,290812,,,A*41
$GPGGA,002642.000,6358.0837,N,02234.3066,W,1,08,1.0,50.8,M,60.8,M,,0000*76
$GPGSA,A,3,30,29,04,10,02,23,05,07,,,,,1.9,1.0,1.7*31
$GPRMC,002642.000,A,6358.0837,N,02234.3066,W,10.82,133.19,290812,,,A*4C
$GPGGA,002643.000,6358.0816,N,02234.3015,W,1,09,0.9,50.6,M,60.8,M,,0000*77
$GPGSA,A,3,30,29,13,04,10,02,23,05,07,,,,1.7,0.9,1.5*37
$GPRMC,002643.000,A,6358.0816,N,02234.3015,W,11.08,133.01,290812,,,A*40
$GPGGA,002644.000,6358.0795,N,02234.2963,W,1,09,0.9,50.5,M,60.8,M,,0000*7E
$GPGSA,A,3,30,29,13,04,10,02,23,05,07,,,,1.7,0.9,1.5*37
$GPGSV,3,1,12,10,76,203,38,13,62,102,38,02,60,252,32,04,45,172,44*7D
$GPGSV,3,2,12,23,35,063,41,05,26,263,29,29,23,325,30,07,19,134,37*71
$GPGSV,3,3,12,30,14,028,34,16,04,052,,25,03,306,16,20,00,095,*7D
$GPRMC,002644.000,A,6358.0795,N,02234.2963,W,11.21,132.93,290812,,,A*4B
$GPGGA,002645.000,6358.0774,N,02234.2910,W,1,09,0.9,50.4,M,60.8,M,,0000*75
$GPGSA,A,3,30,29,13,04,10,02,23,05,07,,,,1.7,0.9,1.5*37
$GPRMC,002645.000,A,6358.0774,N,02234.2910,W,11.39,132.56,290812,,,A*41
$GPGGA,002646.000,6358.0753,N,02234.2856,W,1,09,0.9,50.4,M,60.8,M,,0000*70
$GPGSA,A,3,30,29,13,04,10,02,23,05,07,,,,1.7,0.9,1.5*37
$GPRMC,002646.000,A,6358.0753,N,02234.2856,W,11.58,132.17,290812,,,A*46
$GPGGA,002647.000,6358.0731,N,02234.2798,W,1,09,0.9,50.4,M,60.8,M,,0000*78
$GPGSA,A,3,30,29,13,04,10,02,23,05,07,,,,1.7,0.9,1.5*37
$GPRMC,002647.000,A,6358.0731,N,02234.2798,W,12.15,131.06,290812,,,A*47
$GPGGA,002648.000,6358.0708,N,02234.2734,W,1,09,0.9,50.4,M,60.8,M,,0000*7B
$GPGSA,A,3,30,29,13,04,10,02,23,05,07,,,,1.7,0.9,1.5*37
$GPRMC,002648.000,A,6358.0708,N,02234.2734,W,13.11,129.01,290812,,,A*4F
$GPGGA,002649.000,6358.0685,N,02234.2666,W,1,09,0.9,50.5,M,60.8,M,,0000*79
$GPGSA,A,3,30,29,13,04,10,02,23,05,07,,,,1.7,0.9,1.5*37
$GPGSV,3,1,12,10,76,203,39,13,62,102,39,02,60,252,35,04,45,172,44*7A
$GPGSV,3,2,12,23,35,063,41,05,26,263,37,29,23,325,25,07,19,134,38*75
$GPGSV,3,3,12,30,14,028,26,16,04,052,,25,03,306,28,20,00,095,26*77
$GPRMC,002649.000,A,6358.0685,N,02234.2666,W,13.59,127.30,290812,,,A*4C
$GPGGA,002650.000,6358.0663,N,02234.2593,W,1,09,0.9,50.5,M,60.8,M,,0000*70
$GPGSA,A,3,30,29,13,04,10,02,23,05,07,,,,1.7,0.9,1.5*37
$GPRMC,002650.000,A,6358.0663,N,02234.2593,W,14.08,124.79,290812,,,A*48
$GPGGA,002651.000,6358.0639,N,02234.2511,W,1,09,0.9,50.5,M,60.8,M,,0000*74
$GPGSA,A,3,30,29,13,04,10,02,23,05,07,,,,1.7,0.9,1.5*37
$GPRMC,002651.000,A,6358.0639,N,02234.2511,W,15.56,123.09,290812,,,A*46
$GPGGA,002652.000,6358.0614,N,02234.2417,W,1,09,0.9,50.5,M,60.8,M,,0000*7F
$GPGSA,A,3,30,29,13,04,10,02,23,05,07,,,,1.7,0.9,1.5*37
$GPRMC,002652.000,A,6358.0614,N,02234.2417,W,17.70,121.29,290812,,,A*4B
$GPGGA,002653.000,6358.0587,N,02234.2306,W,1,08,1.1,50.6,M,60.8,M,,0000*7B
$GPGSA,A,3,29,13,04,10,02,23,05,07,,,,,1.9,1.1,1.6*30
$GPRMC,002653.000,A,6358.0587,N,02234.2306,W,20.28,119.24,290812,,,A*4B
$GPGGA,002654.000,6358.0559,N,02234.2185,W,1,08,1.1,50.6,M,60.8,M,,0000*76
$GPGSA,A,3,29,13,04,10,02,23,05,07,,,,,1.9,1.1,1.6*30
$GPGSV,3,1,12,10,76,203,38,13,62,102,40,02,60,252,39,04,45,172,47*7A
$GPGSV,3,2,12,23,35,063,41,05,26,263,40,29,23,325,27,07,19,134,39*76
$GPGSV,3,3,12,30,14,028,,16,04,052,32,25,03,306,25,20,00,095,*7B
$GPRMC,002654.000,A,6358.0559,N,02234.2185,W,21.82,117.23,290812,,,A*4E
$GPGGA,002655.000,6358.0533,N,02234.2064,W,1,09,0.9,50.6,M,60.8,M,,0000*7D
$GPGSA,A,3,30,29,13,04,10,02,23,05,07,,,,1.7,0.9,1.5*37
$GPRMC,002655.000,A,6358.0533,N,02234.2064,W,21.50,116.07,290812,,,A*45
$GPGGA,002656.000,6358.0509,N,02234.1943,W,1,09,0.9,50.6,M,60.8,M,,0000*78
$GPGSA,A,3,30,29,13,04,10,02,23,05,07,,,,1.7,0.9,1.5*37
$GPRMC,002656.000,A,6358.0509,N,02234.1943,W,21.11,114.54,290812,,,A*41
$GPGGA,002657.000,6358.0485,N,02234.1817,W,1,09,0.9,50.5,M,60.8,M,,0000*7F
$GPGSA,A,3,30,29,13,04,10,02,23,05,07,,,,1.8,0.9,1.5*38
$GPRMC,002657.000,A,6358.0485,N,02234.1817,W,21.85,112.45,290812,,,A*4E
$GPGGA,002658.000,6358.0464,N,02234.1684,W,1,09,0.9,50.5,M,60.8,M,,0000*7B
$GPGSA,A,3,30,29,13,04,10,02,23,05,07,,,,1.8,0.9,1.5*38
$GPRMC,002658.000,A,6358.0464,N,02234.1684,W,22.51,110.04,290812,,,A*47
$GPGGA,002659.000,6358.0446,N,02234.1546,W,1,09,0.9,50.4,M,60.8,M,,0000*76
$GPGSA,A,3,30,29,13,04,10,02,23,05,07,,,,1.8,0.9,1.5*38
$GPGSV,3,1,12,10,76,203,32,13,62,102,43,02,60,252,31,04,45,172,46*7A
$GPGSV,3,2,12,23,35,063,41,05,26,263,32,29,23,325,33,07,19,134,31*7E
$GPGSV,3,3,12,30,14,028,37,16,04,052,28,25,03,306,18,20,00,095,*7A
$GPRMC,002659.000,A,6358.0446,N,02234.1546,W,23.03,106.36,290812,,,A*4B
$GPGGA,002700.000,6358.0430,N,02234.1401,W,1,09,0.9,50.4,M,60.8,M,,0000*78
$GPGSA,A,3,30,29,13,04,10,02,23,05,07,,,,1.8,0.9,1.5*38
$GPRMC,002700.000,A,6358.0430,N,02234.1401,W,23.70,103.45,290812,,,A*40
$GPGGA,002701.000,6358.0416,N,02234.1249,W,1,09,0.9,50.4,M,60.8,M,,0000*77
$GPGSA,A,3,30,29,13,04,10,02,23,05,07,,,,1.8,0.9,1.5*38
$GPRMC,002701.000,A,6358.0416,N,02234.1249,W,24.71,101.26,290812,,,A*4E
$GPGGA,002702.000,6358.0405,N,02234.1096,W,1,09,0.9,50.4,M,60.8,M,,0000*76
$GPGSA,A,3,30,29,13,04,10,02,23,05,07,,,,1.8,0.9,1.5*38
$GPRMC,002702.000,A,6358.0405,N,02234.1096,W,24.85,99.43,290812,,,A*77
$GPGGA,002703.000,6358.0395,N,02234.0941,W,1,09,0.9,50.4,M,60.8,M,,0000*7B
$GPGSA,A,3,30,29,13,04,10,02,23,05,07,,,,1.8,0.9,1.5*38
$GPRMC,002703.000,A,6358.0395,N,02234.0941,W,24.86,98.08,290812,,,A*77
$GPGGA,002704.000,6358.0386,N,02234.0786,W,1,09,0.9,50.4,M,60.8,M,,0000*7B
$GPGSA,A,3,30,29,13,04,10,02,23,05,07,,,,1.8,0.9,1.5*38
$GPGSV,3,1,12,10,76,203,28,13,62,102,39,02,60,252,19,04,45,172,46*76
$GPGSV,3,2,12,23,35,063,41,05,26,263,32,29,23,325,32,07,19,134,30*7E
$GPGSV,3,3,12,30,14,028,27,16,04,052,32,25,03,306,27,20,00,095,*7C
$GPRMC,002704.000,A,6358.0386,N,02234.0786,W,24.91,97.37,290812,,,A*72
$GPGGA,002705.000,6358.0376,N,02234.0630,W,1,09,0.9,50.3,M,60.8,M,,0000*7E
$GPGSA,A,3,30,29,13,04,10,02,23,05,07,,,,1.8,0.9,1.5*38
$GPRMC,002705.000,A,6358.0376,N,02234.0630,W,25.11,97.58,290812,,,A*70
$GPGGA,002706.000,6358.0367,N,02234.0472,W,1,09,0.9,50.3,M,60.8,M,,0000*79
$GPGSA,A,3,30,29,13,04,10,02,23,05,07,,,,1.8,0.9,1.5*38
$GPRMC,002706.000,A,6358.0367,N,02234.0472,W,25.33,97.34,290812,,,A*7D
$GPGGA,002707.000,6358.0358,N,02234.0313,W,1,09,0.9,50.3,M,60.8,M,,0000*74
$GPGSA,A,3,30,29,13,04,10,02,23,05,07,,,,1.8,0.9,1.5*38
$GPRMC,002707.000,A,6358.0358,N,02234.0313,W,25.65,97.24,290812,,,A*72
$GPGGA,002708.000,6358.0348,N,02234.0151,W,1,09,0.9,50.2,M,60.8,M,,0000*7F
$GPGSA,A,3,30,29,13,04,10,02,23,05,07,,,,1.8,0.9,1.5*38
$GPRMC,002708.000,A,6358.0348,N,02234.0151,W,25.98,97.52,290812,,,A*7B
$GPGGA,002709.000,6358.0339,N,02233.9991,W,1,09,0.9,50.1,M,60.8,M,,0000*71
$GPGSA,A,3,30,29,13,04,10,02,23,05,07,,,,1.8,0.9,1.5*38
$GPGSV,3,1,12,10,76,203,34,13,62,102,39,02,60,252,27,04,45,172,46*76
$GPGSV,3,2,12,23,35,063,41,05,26,263,35,29,23,325,33,07,19,134,23*7A
$GPGSV,3,3,12,30,14,028,32,16,04,052,28,25,03,306,15,20,00,095,*72
$GPRMC,002709.000,A,6358.0339,N,02233.9991,W,25.63,97.74,290812,,,A*76
$GPGGA,002710.000,6358.0330,N,02233.9836,W,1,09,0.9,50.0,M,60.8,M,,0000*7D
$GPGSA,A,3,30,29,13,04,10,02,23,05,07,,,,1.8,0.9,1.5*38
$GPRMC,002710.000,A,6358.0330,N,02233.9836,W,24.80,97.45,290812,,,A*75
$GPGGA,002711.000,6358.0322,N,02233.9687,W,1,09,0.9,49.9,M,60.8,M,,0000*7A
$GPGSA,A,3,30,29,13,04,10,02,23,05,07,,,,1.8,0.9,1.5*38
$GPRMC,002711.000,A,6358.0322,N,02233.9687,W,23.83,96.93,290812,,,A*7D
$GPGGA,002712.000,6358.0315,N,02233.9543,W,1,09,0.9,49.9,M,60.8,M,,0000*76
$GPGSA,A,3,30,29,13,04,10,02,23,05,07,,,,1.8,0.9,1.5*38
$GPRMC,002712.000,A,6358.0315,N,02233.9543,W,22.93,96.55,290812,,,A*7B
$GPGGA,002713.000,6358.0308,N,02233.9404,W,1,09,0.9,49.8,M,60.8,M,,0000*78
$GPGSA,A,3,30,29,13,04,10,02,23,05,07,,,,1.8,0.9,1.5*38
$GPRMC,002713.000,A,6358.0308,N,02233.9404,W,22.20,96.38,290812,,,A*77
$GPGGA,002714.000,6358.0301,N,02233.9268,W,1,09,0.9,49.7,M,60.8,M,,0000*75
$GPGSA,A,3,30,29,13,04,10,02,23,05,07,,,,1.8,0.9,1.5*38
$GPGSV,3,1,12,10,76,203,33,13,62,102,39,02,60,252,27,04,45,172,47*70
$GPGSV,3,2,12,23,35,063,40,05,26,263,36,29,23,325,34,07,19,134,36*7B
$GPGSV,3,3,12,30,14,028,31,16,04,052,28,25,03,306,16,20,00,095,*72
$GPRMC,002714.000,A,6358.0301,N,02233.9268,W,21.72,96.35,290812,,,A*7C
$GPGGA,002715.000,6358.0295,N,02233.9133,W,1,09,0.9,49.7,M,60.8,M,,0000*75
$GPGSA,A,3,30,29,13,04,10,02,23,05,07,,,,1.8,0.9,1.5*38
$GPRMC,002715.000,A,6358.0295,N,02233.9133,W,21.35,96.30,290812,,,A*7A
$GPGGA,002716.000,6358.0288,N,02233.9000,W,1,09,0.9,49.7,M,60.8,M,,0000*7B
$GPGSA,A,3,30,29,13,04,10,02,23,05,07,,,,1.8,0.9,1.5*38
$GPRMC,002716.000,A,6358.0288,N,02233.9000,W,21.32,96.38,290812,,,A*7B
$GPGGA,002717.000,6358.0281,N,02233.8866,W,1,09,0.9,49.6,M,60.8,M,,0000*7B
$GPGSA,A,3,30,29,13,04,10,02,23,05,07,,,,1.8,0.9,1.5*38
$GPRMC,002717.000,A,6358.0281,N,02233.8866,W,21.32,96.79,290812,,,A*7F
$GPGGA,002718.000,6358.0274,N,02233.8735,W,1,09,0.9,49.6,M,60.8,M,,0000*77
$GPGSA,A,3,30,29,13,04,10,02,23,05,07,,,,1.8,0.9,1.5*38
$GPRMC,002718.000,A,6358.0274,N,02233.8735,W,20.90,97.06,290812,,,A*73
$GPGGA,002719.000,6358.0267,N,02233.8610,W,1,09,0.9,49.5,M,60.8,M,,0000*71
$GPGSA,A,3,30,29,13,04,10,02,23,05,07,,,,1.8,0.9,1.5*38
$GPGSV,3,1,11,10,76,201,28,13,61,101,39,02,60,252,27,04,44,172,46*7B
$GPGSV,3,2,11,23,35,063,40,05,26,263,36,29,23,324,33,07,19,133,28*76
$GPGSV,3,3,11,30,14,027,31,16,04,052,24,25,03,305,22*48
$GPRMC,002719.000,A,6358.0267,N,02233.8610,W,19.84,97.14,290812,,,A*7A
$GPGGA,002720.000,6358.0261,N,02233.8491,W,1,09,0.9,49.5,M,60.8,M,,0000*76
$GPGSA,A,3,30,29,13,04,10,02,23,05,07,,,,1.8,0.9,1.5*38
$GPRMC,002720.000,A,6358.0261,N,02233.8491,W,18.91,96.67,290812,,,A*7D
$GPGGA,002721.000,6358.0257,N,02233.8375,W,1,09,0.9,49.5,M,60.8,M,,0000*7F
$GPGSA,A,3,30,29,13,04,10,02,23,05,07,,,,1.8,0.9,1.5*38
$GPRMC,002721.000,A,6358.0257,N,02233.8375,W,18.47,95.40,290812,,,A*79
$GPGGA,002722.000,6358.0254,N,02233.8260,W,1,09,0.9,49.5,M,60.8,M,,0000*7A
$GPGSA,A,3,30,29,13,04,10,02,23,05,07,,,,1.8,0.9,1.5*38
$GPRMC,002722.000,A,6358.0254,N,02233.8260,W,18.26,93.20,290812,,,A*7B
$GPGGA,002723.000,6358.0253,N,02233.8144,W,1,09,0.9,49.5,M,60.8,M,,0000*79
$GPGSA,A,3,30,29,13,04,10,02,23,05,07,,,,1.8,0.9,1.5*38
$GPRMC,002723.000,A,6358.0253,N,02233.8144,W,18.25,91.44,290812,,,A*7B
$GPGGA,002724.000,6358.0253,N,02233.8028,W,1,09,0.9,49.4,M,60.8,M,,0000*74
$GPGSA,A,3,30,29,13,04,10,02,23,05,07,,,,1.8,0.9,1.5*38
$GPGSV,3,1,11,10,76,201,36,13,61,101,35,02,60,252,20,04,44,172,45*7C
$GPGSV,3,2,11,23,35,063,40,05,26,263,35,29,23,324,28,07,19,133,35*73
$GPGSV,3,3,11,30,14,027,32,16,04,052,33,25,03,305,26*49
$GPRMC,002724.000,A,6358.0253,N,02233.8028,W,18.39,90.02,290812,,,A*79
$GPGGA,002725.000,6358.0253,N,02233.7911,W,1,09,0.9,49.3,M,60.8,M,,0000*7E
$GPGSA,A,3,30,29,13,04,10,02,23,05,07,,,,1.8,0.9,1.5*38
$GPRMC,002725.000,A,6358.0253,N,02233.7911,W,18.58,89.51,290812,,,A*7D
$GPGGA,002726.000,6358.0254,N,02233.7793,W,1,09,0.9,49.1,M,60.8,M,,0000*7C
$GPGSA,A,3,30,29,13,04,10,02,23,05,07,,,,1.8,0.9,1.5*38
$GPRMC,002726.000,A,6358.0254,N,02233.7793,W,18.65,89.27,290812,,,A*72
$GPGGA,002727.000,6358.0255,N,02233.7675,W,1,09,0.9,48.8,M,60.8,M,,0000*7D
$GPGSA,A,3,30,29,13,04,10,02,23,05,07,,,,1.8,0.9,1.5*38
$GPRMC,002727.000,A,6358.0255,N,02233.7675,W,18.79,88.79,290812,,,A*7C
$GPGGA,002728.000,6358.0256,N,02233.7555,W,1,09,0.9,48.5,M,60.8,M,,0000*7D
$GPGSA,A,3,30,29,13,04,10,02,23,05,07,,,,1.8,0.9,1.5*38
$GPRMC,002728.000,A,6358.0256,N,02233.7555,W,18.94,88.53,290812,,,A*7A
$GPGGA,002729.000,6358.0258,N,02233.7436,W,1,09,0.9,48.2,M,60.8,M,,0000*71
$GPGSA,A,3,30,29,13,04,10,02,23,05,07,,,,1.8,0.9,1.5*38
$GPGSV,3,1,11,10,76,201,35,13,61,101,34,02,60,252,29,04,44,172,45*77
$GPGSV,3,2,11,23,35,063,41,05,26,263,35,29,23,324,28,07,19,133,34*73
$GPGSV,3,3,11,30,14,027,40,16,04,052,34,25,03,305,27*4A
$GPRMC,002729.000,A,6358.0258,N,02233.7436,W,18.97,88.25,290812,,,A*73
$GPGGA,002730.000,6358.0259,N,02233.7316,W,1,09,0.9,47.8,M,60.8,M,,0000*78
$GPGSA,A,3,30,29,13,04,10,02,23,05,07,,,,1.8,0.9,1.5*38
$GPRMC,002730.000,A,6358.0259,N,02233.7316,W,19.06,88.14,290812,,,A*74
$GPGGA,002731.000,6358.0261,N,02233.7197,W,1,09,0.9,47.4,M,60.8,M,,0000*75
$GPGSA,A,3,30,29,13,04,10,02,23,05,07,,,,1.8,0.9,1.5*38
$GPRMC,002731.000,A,6358.0261,N,02233.7197,W,18.89,88.23,290812,,,A*77
$GPGGA,002732.000,6358.0263,N,02233.7080,W,1,09,0.9,47.0,M,60.8,M,,0000*77
$GPGSA,A,3,30,29,13,04,10,02,23,05,07,,,,1.8,0.9,1.5*38
$GPRMC,002732.000,A,6358.0263,N,02233.7080,W,18.53,88.38,290812,,,A*7C
$GPGGA,002733.000,6358.0264,N,02233.6965,W,1,08,1.0,46.6,M,60.8,M,,0000*7C
$GPGSA,A,3,30,29,04,10,02,23,05,07,,,,,1.9,1.0,1.7*31
$GPRMC,002733.000,A,6358.0264,N,02233.6965,W,18.14,88.30,290812,,,A*72
$GPGGA,002734.000,6358.0266,N,02233.6853,W,1,09,0.9,46.1,M,60.8,M,,0000*73
$GPGSA,A,3,30,29,13,04,10,02,23,05,07,,,,1.8,0.9,1.5*38
$GPGSV,3,1,11,10,76,201,31,13,61,101,34,02,60,252,31,04,44,172,45*7A
$GPGSV,3,2,11,23,35,063,41,05,26,263,35,29,23,324,31,07,19,133,34*7B
$GPGSV,3,3,11,30,14,027,41,16,04,052,34,25,03,305,27*4B
$GPRMC,002734.000,A,6358.0266,N,02233.6853,W,17.78,88.14,290812,,,A*70
$GPGGA,002735.000,6358.0268,N,02233.6743,W,1,09,0.9,45.7,M,60.8,M,,0000*77
$GPGSA,A,3,30,29,13,04,10,02,23,05,07,,,,1.8,0.9,1.5*38
$GPRMC,002735.000,A,6358.0268,N,02233.6743,W,17.49,87.96,290812,,,A*76
$GPGGA,002736.000,6358.0270,N,02233.6634,W,1,09,0.9,45.2,M,60.8,M,,0000*79
$GPGSA,A,3,30,29,13,04,10,02,23,05,07,,,,1.8,0.9,1.5*38
$GPRMC,002736.000,A,6358.0270,N,02233.6634,W,17.32,87.59,290812,,,A*72
$GPGGA,002737.000,6358.0271,N,02233.6526,W,1,09,0.9,44.7,M,60.8,M,,0000*7D
$GPGSA,A,3,30,29,13,04,10,02,23,05,07,,,,1.8,0.9,1.5*38
$GPRMC,002737.000,A,6358.0271,N,02233.6526,W,17.04,87.97,290812,,,A*75
$GPGGA,002738.000,6358.0273,N,02233.6421,W,1,09,0.9,44.2,M,60.8,M,,0000*73
$GPGSA,A,3,30,29,13,04,10,02,23,05,07,,,,1.8,0.9,1.5*38
$GPRMC,002738.000,A,6358.0273,N,02233.6421,W,16.67,88.36,290812,,,A*7E
$GPGGA,002739.000,6358.0274,N,02233.6319,W,1,09,0.9,43.8,M,60.8,M,,0000*74
$GPGSA,A,3,30,29,13,04,10,02,23,05,07,,,,1.8,0.9,1.5*38
$GPGSV,3,1,11,10,76,201,33,13,61,101,33,02,60,252,36,04,44,172,45*78
$GPGSV,3,2,11,23,35,063,41,05,26,263,35,29,23,324,26,07,19,133,34*7D
$GPGSV,3,3,11,30,14,027,41,16,04,052,35,25,03,305,27*4A
$GPRMC,002739.000,A,6358.0274,N,02233.6319,W,16.18,88.80,290812,,,A*71
$GPGGA,002740.000,6358.0275,N,02233.6220,W,1,09,0.9,43.4,M,60.8,M,,0000*7C
$GPGSA,A,3,30,29,13,04,10,02,23,05,07,,,,1.8,0.9,1.5*38
$GPRMC,002740.000,A,6358.0275,N,02233.6220,W,15.68,88.54,290812,,,A*78
$GPGGA,002741.000,6358.0280,N,02233.6124,W,1,08,1.3,43.1,M,60.8,M,,0000*7F
$GPGSA,A,3,30,29,13,04,10,02,23,05,,,,,2.5,1.3,2.2*3E
$GPRMC,002741.000,A,6358.0280,N,02233.6124,W,15.31,84.14,290812,,,A*70
$GPGGA,002742.000,6358.0288,N,02233.6027,W,1,09,0.9,42.8,M,60.8,M,,0000*74
$GPGSA,A,3,30,29,13,04,10,02,23,07,05,,,,1.8,0.9,1.5*38
$GPRMC,002742.000,A,6358.0288,N,02233.6027,W,15.63,78.68,290812,,,A*76
$GPGGA,002743.000,6358.0300,N,02233.5930,W,1,09,0.9,42.6,M,60.8,M,,0000*76
$GPGSA,A,3,30,29,13,04,10,02,23,07,05,,,,1.8,0.9,1.5*38
$GPRMC,002743.000,A,6358.0300,N,02233.5930,W,16.11,74.06,290812,,,A*78
$GPGGA,002744.000,6358.0316,N,02233.5833,W,1,09,0.9,42.3,M,60.8,M,,0000*71
$GPGSA,A,3,30,29,13,04,10,02,23,07,05,,,,1.8,0.9,1.5*38
$GPGSV,3,1,11,10,76,201,27,13,61,101,43,02,60,252,29,04,44,172,36*70
$GPGSV,3,2,11,23,35,063,42,05,26,263,24,29,23,324,38,07,19,133,33*76
$GPGSV,3,3,11,30,14,027,32,16,04,052,31,25,03,305,31*4D
$GPRMC,002744.000,A,6358.0316,N,02233.5833,W,16.33,70.10,290812,,,A*79
$GPGGA,002745.000,6358.0333,N,02233.5737,W,1,09,0.9,42.0,M,60.8,M,,0000*7F
$GPGSA,A,3,30,29,13,04,10,02,23,07,05,,,,1.8,0.9,1.5*38
$GPRMC,002745.000,A,6358.0333,N,02233.5737,W,16.55,67.28,290812,,,A*79
$GPGGA,002746.000,6358.0352,N,02233.5641,W,1,09,0.9,41.7,M,60.8,M,,0000*7F
$GPGSA,A,3,30,29,13,04,10,02,23,07,05,,,,1.8,0.9,1.5*38
$GPRMC,002746.000,A,6358.0352,N,02233.5641,W,16.75,66.10,290812,,,A*75
$GPGGA,002747.000,6358.0371,N,02233.5546,W,1,09,0.9,41.5,M,60.8,M,,0000*79
$GPGSA,A,3,30,29,13,04,10,02,23,07,05,,,,1.8,0.9,1.5*38
$GPRMC,002747.000,A,6358.0371,N,02233.5546,W,16.61,65.11,290812,,,A*76
$GPGGA,002748.000,6358.0390,N,02233.5454,W,1,09,0.9,41.3,M,60.8,M,,0000*7D
$GPGSA,A,3,30,29,13,04,10,02,23,07,05,,,,1.8,0.9,1.5*38
$GPRMC,002748.000,A,6358.0390,N,02233.5454,W,16.19,64.42,290812,,,A*7C
$GPGGA,002749.000,6358.0410,N,02233.5363,W,1,09,0.9,41.0,M,60.8,M,,0000*73
$GPGSA,A,3,30,29,13,04,10,02,23,07,05,,,,1.8,0.9,1.5*38
$GPGSV,3,1,11,10,76,201,29,13,61,101,39,02,60,252,21,04,44,172,38*75
$GPGSV,3,2,11,23,35,063,42,05,26,263,22,29,23,324,29,07,19,133,35*76
$GPGSV,3,3,11,30,14,027,32,16,04,052,32,25,03,305,22*4C
$GPRMC,002749.000,A,6358.0410,N,02233.5363,W,16.05,64.04,290812,,,A*7E
$GPGGA,002750.000,6358.0430,N,02233.5275,W,1,09,0.9,40.8,M,60.8,M,,0000*76
$GPGSA,A,3,30,29,13,04,10,02,23,07,05,,,,1.8,0.9,1.5*38
$GPRMC,002750.000,A,6358.0430,N,02233.5275,W,15.64,62.66,290812,,,A*74
$GPGGA,002751.000,6358.0450,N,02233.5192,W,1,09,0.9,40.4,M,60.8,M,,0000*77
$GPGSA,A,3,30,29,13,04,10,02,23,07,05,,,,1.8,0.9,1.5*38
$GPRMC,002751.000,A,6358.0450,N,02233.5192,W,14.97,60.34,290812,,,A*71
$GPGGA,002752.000,6358.0471,N,02233.5115,W,1,09,0.9,40.1,M,60.8,M,,0000*7D
$GPGSA,A,3,30,29,13,04,10,02,23,07,05,,,,1.8,0.9,1.5*38
$GPRMC,002752.000,A,6358.0471,N,02233.5115,W,14.35,57.84,290812,,,A*79
$GPGGA,002753.000,6358.0493,N,02233.5039,W,1,09,0.9,39.7,M,60.8,M,,0000*77
$GPGSA,A,3,30,29,13,04,10,02,23,07,05,,,,1.8,0.9,1.5*38
$GPRMC,002753.000,A,6358.0493,N,02233.5039,W,14.27,56.00,290812,,,A*75
$GPGGA,002754.000,6358.0516,N,02233.4966,W,1,09,0.9,39.4,M,60.8,M,,0000*7D
$GPGSA,A,3,30,29,13,04,10,02,23,07,05,,,,1.8,0.9,1.5*38
$GPGSV,3,1,11,10,76,201,30,13,61,101,41,02,60,252,32,04,44,172,39*71
$GPGSV,3,2,11,23,35,063,41,05,26,263,17,29,23,324,38,07,19,133,35*73
$GPGSV,3,3,11,30,14,027,27,16,04,052,28,25,03,305,31*41
$GPRMC,002754.000,A,6358.0516,N,02233.4966,W,14.01,54.82,290812,,,A*70
$GPGGA,002755.000,6358.0538,N,02233.4897,W,1,09,0.9,39.0,M,60.8,M,,0000*7B
$GPGSA,A,3,30,29,13,04,10,02,23,07,05,,,,1.8,0.9,1.5*38
$GPRMC,002755.000,A,6358.0538,N,02233.4897,W,13.50,53.91,290812,,,A*74
$GPGGA,002756.000,6358.0558,N,02233.4836,W,1,09,0.9,38.6,M,60.8,M,,0000*72
$GPGSA,A,3,30,29,13,04,10,02,23,07,05,,,,1.8,0.9,1.5*38
$GPRMC,002756.000,A,6358.0558,N,02233.4836,W,12.07,52.93,290812,,,A*7A
$GPGGA,002757.000,6358.0574,N,02233.4787,W,1,09,0.9,38.2,M,60.8,M,,0000*7C
$GPGSA,A,3,30,29,13,04,10,02,23,07,05,,,,1.8,0.9,1.5*38
$GPRMC,002757.000,A,6358.0574,N,02233.4787,W,9.61,51.97,290812,,,A*4D
$GPGGA,002758.000,6358.0589,N,02233.4746,W,1,09,0.9,37.8,M,60.8,M,,0000*79
$GPGSA,A,3,30,29,13,04,10,02,23,07,05,,,,1.8,0.9,1.5*38
$GPRMC,002758.000,A,6358.0589,N,02233.4746,W,8.20,51.11,290812,,,A*47
$GPGGA,002759.000,6358.0604,N,02233.4705,W,1,09,0.9,37.5,M,60.8,M,,0000*74
$GPGSA,A,3,30,29,13,04,10,02,23,07,05,,,,1.8,0.9,1.5*38
$GPGSV,3,1,11,10,76,201,35,13,61,101,41,02,60,252,33,04,44,172,39*75
$GPGSV,3,2,11,23,35,063,41,05,26,263,34,29,23,324,35,07,19,133,31*7B
$GPGSV,3,3,11,30,14,027,36,16,04,052,29,25,03,305,34*45
$GPRMC,002759.000,A,6358.0604,N,02233.4705,W,8.36,49.56,290812,,,A*4A
$GPGGA,002800.000,6358.0620,N,02233.4663,W,1,09,0.9,37.2,M,60.8,M,,0000*77
$GPGSA,A,3,30,29,13,04,10,02,23,07,05,,,,1.8,0.9,1.5*38
$GPRMC,002800.000,A,6358.0620,N,02233.4663,W,8.74,48.97,290812,,,A*44
$GPGGA,002801.000,6358.0637,N,02233.4622,W,1,09,0.9,36.9,M,60.8,M,,0000*7F
$GPGSA,A,3,30,29,13,04,10,02,23,07,05,,,,1.8,0.9,1.5*38
$GPRMC,002801.000,A,6358.0637,N,02233.4622,W,8.65,48.41,290812,,,A*4D
$GPGGA,002802.000,6358.0654,N,02233.4579,W,1,09,0.9,36.6,M,60.8,M,,0000*7B
$GPGSA,A,3,30,29,13,04,10,02,23,07,05,,,,1.8,0.9,1.5*38
$GPRMC,002802.000,A,6358.0654,N,02233.4579,W,9.10,48.15,290812,,,A*44
$GPGGA,002803.000,6358.0673,N,02233.4531,W,1,09,0.9,36.3,M,60.8,M,,0000*76
$GPGSA,A,3,30,29,13,04,10,02,23,07,05,,,,1.8,0.9,1.5*38
$GPRMC,002803.000,A,6358.0673,N,02233.4531,W,10.13,47.63,290812,,,A*79
$GPGGA,002804.000,6358.0693,N,02233.4481,W,1,09,0.9,35.9,M,60.8,M,,0000*7C
$GPGSA,A,3,30,29,13,04,10,02,23,07,05,,,,1.8,0.9,1.5*38
$GPGSV,3,1,11,10,76,201,29,13,61,101,44,02,60,252,33,04,44,172,41*72
$GPGSV,3,2,11,23,35,063,40,05,26,263,30,29,23,324,30,07,19,133,35*7F
$GPGSV,3,3,11,30,14,027,31,16,04,052,30,25,03,305,26*49
$GPRMC,002804.000,A,6358.0693,N,02233.4481,W,10.87,47.33,290812,,,A*72
$GPGGA,002805.000,6358.0714,N,02233.4428,W,1,09,0.9,35.6,M,60.8,M,,0000*7F
$GPGSA,A,3,30,29,13,04,10,02,23,07,05,,,,1.8,0.9,1.5*38
$GPRMC,002805.000,A,6358.0714,N,02233.4428,W,11.28,47.06,290812,,,A*7C
$GPGGA,002806.000,6358.0737,N,02233.4374,W,1,08,1.1,35.3,M,60.8,M,,0000*7E
$GPGSA,A,3,30,29,13,04,10,02,23,07,,,,,2.0,1.1,1.7*3D
$GPRMC,002806.000,A,6358.0737,N,02233.4374,W,11.92,46.42,290812,,,A*70
$GPGGA,002807.000,6358.0761,N,02233.4319,W,1,08,0.9,34.9,M,60.8,M,,0000*75
$GPGSA,A,3,30,29,13,04,02,23,07,05,,,,,2.0,0.9,1.7*30
$GPRMC,002807.000,A,6358.0761,N,02233.4319,W,12.31,44.51,290812,,,A*73
$GPGGA,002808.000,6358.0786,N,02233.4265,W,1,08,0.9,34.6,M,60.8,M,,0000*76
$GPGSA,A,3,30,29,13,04,02,23,07,05,,,,,2.0,0.9,1.7*30
$GPRMC,002808.000,A,6358.0786,N,02233.4265,W,12.30,43.59,290812,,,A*71
$GPGGA,002809.000,6358.0810,N,02233.4210,W,1,08,0.9,34.3,M,60.8,M,,0000*70
$GPGSA,A,3,30,29,13,04,02,23,07,05,,,,,2.0,0.9,1.7*30
$GPGSV,3,1,11,10,76,201,20,13,61,101,44,02,60,252,33,04,44,172,41*7B
$GPGSV,3,2,11,23,35,063,40,05,26,263,22,29,23,324,34,07,19,133,34*79
$GPGSV,3,3,11,30,14,027,32,16,04,052,30,25,03,305,29*45
$GPRMC,002809.000,A,6358.0810,N,02233.4210,W,12.27,45.46,290812,,,A*7C
$GPGGA,002810.000,6358.0834,N,02233.4154,W,1,08,0.9,34.0,M,60.8,M,,0000*7E
$GPGSA,A,3,30,29,13,04,02,23,07,05,,,,,2.0,0.9,1.7*30
$GPRMC,002810.000,A,6358.0834,N,02233.4154,W,12.40,45.03,290812,,,A*71
$GPGGA,002811.000,6358.0860,N,02233.4095,W,1,09,0.9,33.7,M,60.8,M,,0000*73
$GPGSA,A,3,30,29,13,04,10,02,23,07,05,,,,1.8,0.9,1.5*38
$GPRMC,002811.000,A,6358.0860,N,02233.4095,W,13.31,44.54,290812,,,A*79
$GPGGA,002812.000,6358.0889,N,02233.4034,W,1,09,0.9,33.5,M,60.8,M,,0000*7E
$GPGSA,A,3,30,29,13,04,10,02,23,07,05,,,,1.8,0.9,1.5*38
$GPRMC,002812.000,A,6358.0889,N,02233.4034,W,14.15,43.87,290812,,,A*7E
$GPGGA,002813.000,6358.0918,N,02233.3972,W,1,09,0.9,33.4,M,60.8,M,,0000*7B
$GPGSA,A,3,30,29,13,04,10,02,23,07,05,,,,1.8,0.9,1.5*38
$GPRMC,002813.000,A,6358.0918,N,02233.3972,W,14.64,42.64,290812,,,A*70
$GPGGA,002814.000,6358.0948,N,02233.3909,W,1,08,1.1,33.2,M,60.8,M,,0000*7B
$GPGSA,A,3,29,13,04,10,02,23,07,05,,,,,1.9,1.1,1.6*30
$GPGSV,3,1,11,10,76,201,27,13,61,101,44,02,60,252,32,04,44,172,41*7D
$GPGSV,3,2,11,23,35,063,40,05,26,263,35,29,23,324,36,07,19,133,35*7C
$GPGSV,3,3,11,30,14,027,,16,04,052,31,25,03,305,23*4F
$GPRMC,002814.000,A,6358.0948,N,02233.3909,W,14.50,43.03,290812,,,A*79
$GPGGA,002815.000,6358.0976,N,02233.3849,W,1,09,0.9,33.0,M,60.8,M,,0000*78
$GPGSA,A,3,30,29,13,04,10,02,23,07,05,,,,1.8,0.9,1.5*38
$GPRMC,002815.000,A,6358.0976,N,02233.3849,W,14.11,43.48,290812,,,A*7A
$GPGGA,002816.000,6358.1003,N,02233.3788,W,1,09,0.9,32.9,M,60.8,M,,0000*7B
$GPGSA,A,3,30,29,13,04,10,02,23,07,05,,,,1.8,0.9,1.5*38
$GPRMC,002816.000,A,6358.1003,N,02233.3788,W,13.74,44.87,290812,,,A*71
$GPGGA,002817.000,6358.1028,N,02233.3728,W,1,09,0.9,32.7,M,60.8,M,,0000*77
$GPGSA,A,3,30,29,13,04,10,02,23,07,05,,,,1.8,0.9,1.5*38
$GPRMC,002817.000,A,6358.1028,N,02233.3728,W,12.85,46.80,290812,,,A*79
$GPGGA,002818.000,6358.1050,N,02233.3671,W,1,09,0.9,32.4,M,60.8,M,,0000*79
$GPGSA,A,3,30,29,13,04,10,02,23,07,05,,,,1.8,0.9,1.5*38
$GPRMC,002818.000,A,6358.1050,N,02233.3671,W,12.19,47.81,290812,,,A*71
$GPGGA,002819.000,6358.1074,N,02233.3611,W,1,07,1.5,32.1,M,60.8,M,,0000*7E
$GPGSA,A,3,30,13,04,10,02,23,07,,,,,,2.5,1.5,2.0*33
$GPGSV,3,1,11,10,76,199,20,13,61,100,43,02,60,251,31,04,44,172,40*7F
$GPGSV,3,2,11,23,34,063,40,05,27,263,,29,23,324,,07,19,133,34*7E
$GPGSV,3,3,11,30,15,027,31,16,05,052,39,25,02,305,26*41
$GPRMC,002819.000,A,6358.1074,N,02233.3611,W,12.62,47.56,290812,,,A*76
$GPGGA,002820.000,6358.1098,N,02233.3552,W,1,09,0.9,31.8,M,60.8,M,,0000*7B
$GPGSA,A,3,30,05,13,04,10,02,23,07,29,,,,1.8,0.9,1.5*38
$GPRMC,002820.000,A,6358.1098,N,02233.3552,W,12.90,46.52,290812,,,A*72
$GPGGA,002821.000,6358.1124,N,02233.3490,W,1,09,0.9,31.5,M,60.8,M,,0000*7E
$GPGSA,A,3,30,05,13,04,10,02,23,07,29,,,,1.8,0.9,1.5*38
$GPRMC,002821.000,A,6358.1124,N,02233.3490,W,13.47,45.94,290812,,,A*78
$GPGGA,002822.000,6358.1151,N,02233.3428,W,1,09,0.9,31.3,M,60.8,M,,0000*7A
$GPGSA,A,3,30,05,13,04,10,02,23,07,29,,,,1.8,0.9,1.5*38
$GPRMC,002822.000,A,6358.1151,N,02233.3428,W,13.92,45.46,290812,,,A*7D
$GPGGA,002823.000,6358.1179,N,02233.3363,W,1,09,0.9,31.1,M,60.8,M,,0000*7B
$GPGSA,A,3,30,05,13,04,10,02,23,07,29,,,,1.8,0.9,1.5*38
$GPRMC,002823.000,A,6358.1179,N,02233.3363,W,14.36,45.63,290812,,,A*70
$GPGGA,002824.000,6358.1207,N,02233.3297,W,1,09,0.9,30.9,M,60.8,M,,0000*75
$GPGSA,A,3,30,05,13,04,10,02,23,07,29,,,,1.8,0.9,1.5*38
$GPGSV,3,1,11,10,76,199,24,13,61,100,42,02,60,251,32,04,44,172,40*79
$GPGSV,3,2,11,23,34,063,40,05,27,263,33,29,23,324,39,07,19,133,30*70
$GPGSV,3,3,11,30,15,027,36,16,05,052,38,25,02,305,29*48
$GPRMC,002824.000,A,6358.1207,N,02233.3297,W,14.58,45.68,290812,,,A*74
$GPGGA,002825.000,6358.1236,N,02233.3231,W,1,09,0.9,30.7,M,60.8,M,,0000*74
$GPGSA,A,3,30,05,13,04,10,02,23,07,29,,,,1.8,0.9,1.5*38
$GPRMC,002825.000,A,6358.1236,N,02233.3231,W,14.77,45.16,290812,,,A*7F
$GPGGA,002826.000,6358.1266,N,02233.3165,W,1,09,0.9,30.6,M,60.8,M,,0000*71
$GPGSA,A,3,30,05,13,04,10,02,23,07,29,,,,1.8,0.9,1.5*38
$GPRMC,002826.000,A,6358.1266,N,02233.3165,W,15.12,44.61,290812,,,A*78
$GPGGA,002827.000,6358.1297,N,02233.3097,W,1,09,0.9,30.5,M,60.8,M,,0000*71
$GPGSA,A,3,30,05,13,04,10,02,23,07,29,,,,1.8,0.9,1.5*38
$GPRMC,002827.000,A,6358.1297,N,02233.3097,W,15.59,43.92,290812,,,A*7F
$GPGGA,002828.000,6358.1330,N,02233.3029,W,1,09,0.9,30.4,M,60.8,M,,0000*76
$GPGSA,A,3,30,05,13,04,10,02,23,07,29,,,,1.8,0.9,1.5*38
$GPRMC,002828.000,A,6358.1330,N,02233.3029,W,15.99,42.52,290812,,,A*78
$GPGGA,002829.000,6358.1365,N,02233.2960,W,1,09,0.9,30.2,M,60.8,M,,0000*74
$GPGSA,A,3,30,05,13,04,10,02,23,07,29,,,,1.8,0.9,1.5*38
$GPGSV,3,1,11,10,76,199,24,13,61,100,43,02,60,251,34,04,44,172,40*7E
$GPGSV,3,2,11,23,34,063,40,05,27,263,30,29,23,324,34,07,19,133,40*79
$GPGSV,3,3,11,30,15,027,36,16,05,052,23,25,02,305,33*49
$GPRMC,002829.000,A,6358.1365,N,02233.2960,W,16.80,40.71,290812,,,A*74
$GPGGA,002830.000,6358.1404,N,02233.2891,W,1,09,0.9,30.1,M,60.8,M,,0000*70
$GPGSA,A,3,30,05,13,04,10,02,23,07,29,,,,1.8,0.9,1.5*38
$GPRMC,002830.000,A,6358.1404,N,02233.2891,W,17.74,37.95,290812,,,A*73
$GPGGA,002831.000,6358.1447,N,02233.2821,W,1,09,0.9,30.0,M,60.8,M,,0000*7C
$GPGSA,A,3,30,05,13,04,10,02,23,07,29,,,,1.8,0.9,1.5*38
$GPRMC,002831.000,A,6358.1447,N,02233.2821,W,19.26,35.62,290812,,,A*7D
$GPGGA,002832.000,6358.1495,N,02233.2749,W,1,09,0.9,29.8,M,60.8,M,,0000*71
$GPGSA,A,3,30,05,13,04,10,02,23,07,29,,,,1.8,0.9,1.5*38
$GPRMC,002832.000,A,6358.1495,N,02233.2749,W,20.90,33.34,290812,,,A*72
$GPGGA,002833.000,6358.1547,N,02233.2676,W,1,09,0.9,29.6,M,60.8,M,,0000*7D
$GPGSA,A,3,30,05,13,04,10,02,23,07,29,,,,1.8,0.9,1.5*38
$GPRMC,002833.000,A,6358.1547,N,02233.2676,W,22.06,31.91,290812,,,A*70
$GPGGA,002834.000,6358.1600,N,02233.2603,W,1,09,0.9,29.4,M,60.8,M,,0000*7A
$GPGSA,A,3,30,05,13,04,10,02,23,07,29,,,,1.8,0.9,1.5*38
$GPGSV,3,1,11,10,76,199,23,13,61,100,43,02,60,251,26,04,44,172,41*7B
$GPGSV,3,2,11,23,34,063,40,05,27,263,21,29,23,324,37,07,19,133,28*74
$GPGSV,3,3,11,30,15,027,35,16,05,052,27,25,02,305,33*4E
$GPRMC,002834.000,A,6358.1600,N,02233.2603,W,22.56,31.08,290812,,,A*70
$GPGGA,002835.000,6358.1654,N,02233.2530,W,1,09,0.9,29.2,M,60.8,M,,0000*7F
$GPGSA,A,3,30,05,13,04,10,02,23,07,29,,,,1.8,0.9,1.5*38
$GPRMC,002835.000,A,6358.1654,N,02233.2530,W,22.90,30.79,290812,,,A*7E
$GPGGA,002836.000,6358.1710,N,02233.2455,W,1,08,1.3,28.8,M,60.8,M,,0000*7E
$GPGSA,A,3,30,05,13,04,10,02,23,29,,,,,2.5,1.3,2.2*3E
$GPRMC,002836.000,A,6358.1710,N,02233.2455,W,23.35,31.12,290812,,,A*7C
$GPGGA,002837.000,6358.1765,N,02233.2378,W,1,09,0.9,28.5,M,60.8,M,,0000*72
$GPGSA,A,3,30,05,13,04,10,02,23,07,29,,,,1.8,0.9,1.5*38
$GPRMC,002837.000,A,6358.1765,N,02233.2378,W,23.56,31.31,290812,,,A*73
$GPGGA,002838.000,6358.1821,N,02233.2302,W,1,09,0.9,28.1,M,60.8,M,,0000*7B
$GPGSA,A,3,30,05,13,04,10,02,23,07,29,,,,1.8,0.9,1.5*38
$GPRMC,002838.000,A,6358.1821,N,02233.2302,W,23.60,31.26,290812,,,A*7D
$GPGGA,002839.000,6358.1877,N,02233.2226,W,1,09,0.9,27.8,M,60.8,M,,0000*78
$GPGSA,A,3,30,05,13,04,10,02,23,07,29,,,,1.8,0.9,1.5*38
$GPGSV,3,1,11,10,76,199,25,13,61,100,43,02,60,251,34,04,44,172,40*7F
$GPGSV,3,2,11,23,34,063,40,05,27,263,31,29,23,324,39,07,19,133,26*75
$GPGSV,3,3,11,30,15,027,36,16,05,052,28,25,02,305,26*46
$GPRMC,002839.000,A,6358.1877,N,02233.2226,W,23.38,31.35,290812,,,A*77
$GPGGA,002840.000,6358.1931,N,02233.2151,W,1,09,0.9,27.5,M,60.8,M,,0000*7B
$GPGSA,A,3,30,05,13,04,10,02,23,07,29,,,,1.8,0.9,1.5*38
$GPRMC,002840.000,A,6358.1931,N,02233.2151,W,22.86,31.40,290812,,,A*7F
$GPGGA,002841.000,6358.1983,N,02233.2079,W,1,09,0.9,27.2,M,60.8,M,,0000*7F
$GPGSA,A,3,30,05,13,04,10,02,23,07,29,,,,1.8,0.9,1.5*38
$GPRMC,002841.000,A,6358.1983,N,02233.2079,W,22.20,31.39,290812,,,A*7E
$GPGGA,002842.000,6358.2034,N,02233.2011,W,1,09,0.9,27.0,M,60.8,M,,0000*76
$GPGSA,A,3,30,05,13,04,10,02,23,07,29,,,,1.8,0.9,1.5*38
$GPRMC,002842.000,A,6358.2034,N,02233.2011,W,21.32,30.81,290812,,,A*77
$GPGGA,002843.000,6358.2083,N,02233.1946,W,1,09,0.9,26.8,M,60.8,M,,0000*7A
$GPGSA,A,3,30,05,13,04,10,02,23,07,29,,,,1.8,0.9,1.5*38
$GPRMC,002843.000,A,6358.2083,N,02233.1946,W,20.46,30.98,290812,,,A*78
$GPGGA,002844.000,6358.2131,N,02233.1883,W,1,09,0.9,26.7,M,60.8,M,,0000*72
$GPGSA,A,3,30,05,13,04,10,02,23,07,29,,,,1.8,0.9,1.5*38
$GPGSV,3,1,11,10,76,199,33,13,61,100,43,02,60,251,33,04,44,172,39*71
$GPGSV,3,2,11,23,34,063,40,05,27,263,32,29,23,324,39,07,19,133,32*73
$GPGSV,3,3,11,30,15,027,36,16,05,052,22,25,02,305,19*40
$GPRMC,002844.000,A,6358.2131,N,02233.1883,W,19.66,30.66,290812,,,A*76
$GPGGA,002845.000,6358.2177,N,02233.1824,W,1,09,0.9,26.6,M,60.8,M,,0000*7D
$GPGSA,A,3,30,05,13,04,10,02,23,07,29,,,,1.8,0.9,1.5*38
$GPRMC,002845.000,A,6358.2177,N,02233.1824,W,19.00,30.23,290812,,,A*79
$GPGGA,002846.000,6358.2221,N,02233.1765,W,1,09,0.9,26.4,M,60.8,M,,0000*76
$GPGSA,A,3,30,05,13,04,10,02,23,07,29,,,,1.8,0.9,1.5*38
$GPRMC,002846.000,A,6358.2221,N,02233.1765,W,18.47,30.57,290812,,,A*71
$GPGGA,002847.000,6358.2265,N,02233.1707,W,1,08,1.1,26.4,M,60.8,M,,0000*7B
$GPGSA,A,3,30,13,04,10,02,23,07,29,,,,,2.0,1.1,1.7*3D
$GPRMC,002847.000,A,6358.2265,N,02233.1707,W,18.13,31.07,290812,,,A*71
$GPGGA,002848.000,6358.2308,N,02233.1648,W,1,09,0.9,26.3,M,60.8,M,,0000*7B
$GPGSA,A,3,30,05,13,04,10,02,23,07,29,,,,1.8,0.9,1.5*38
$GPRMC,002848.000,A,6358.2308,N,02233.1648,W,18.03,31.78,290812,,,A*77
$GPGGA,002849.000,6358.2351,N,02233.1591,W,1,09,0.9,26.3,M,60.8,M,,0000*71
$GPGSA,A,3,30,05,13,04,10,02,23,07,29,,,,1.8,0.9,1.5*38
$GPGSV,3,1,11,10,76,198,29,13,61,100,43,02,60,250,34,04,44,172,39*7D
$GPGSV,3,2,11,23,34,063,40,05,27,263,36,29,23,324,40,07,20,133,34*75
$GPGSV,3,3,11,30,15,027,33,16,05,052,29,25,02,305,17*40
$GPRMC,002849.000,A,6358.2351,N,02233.1591,W,18.03,30.99,290812,,,A*73
$GPGGA,002850.000,6358.2395,N,02233.1534,W,1,09,0.9,26.2,M,60.8,M,,0000*7F
$GPGSA,A,3,30,05,13,04,10,02,23,07,29,,,,1.8,0.9,1.5*38
$GPRMC,002850.000,A,6358.2395,N,02233.1534,W,18.03,30.25,290812,,,A*7B
$GPGGA,002851.000,6358.2438,N,02233.1480,W,1,09,0.9,26.1,M,60.8,M,,0000*73
$GPGSA,A,3,30,05,13,04,10,02,23,07,29,,,,1.8,0.9,1.5*38
$GPRMC,002851.000,A,6358.2438,N,02233.1480,W,17.73,29.85,290812,,,A*7E
$GPGGA,002852.000,6358.2480,N,02233.1426,W,1,09,0.9,26.0,M,60.8,M,,0000*7E
$GPGSA,A,3,30,05,13,04,10,02,23,07,29,,,,1.8,0.9,1.5*38
$GPRMC,002852.000,A,6358.2480,N,02233.1426,W,17.24,29.93,290812,,,A*77
$GPGGA,002853.000,6358.2521,N,02233.1374,W,1,09,0.9,26.0,M,60.8,M,,0000*75
$GPGSA,A,3,30,05,13,04,10,02,23,07,29,,,,1.8,0.9,1.5*38
$GPRMC,002853.000,A,6358.2521,N,02233.1374,W,16.79,30.04,290812,,,A*73
$GPGGA,002854.000,6358.2561,N,02233.1322,W,1,09,0.9,25.9,M,60.8,M,,0000*7F
$GPGSA,A,3,30,05,13,04,10,02,23,07,29,,,,1.8,0.9,1.5*38
$GPGSV,3,1,11,10,76,198,30,13,61,100,43,02,60,250,35,04,44,172,39*74
$GPGSV,3,2,11,23,34,063,40,05,27,263,27,29,23,324,40,07,20,133,36*77
$GPGSV,3,3,11,30,15,027,35,16,05,052,29,25,02,305,*40
$GPRMC,002854.000,A,6358.2561,N,02233.1322,W,16.59,30.54,290812,,,A*74
$GPGGA,002855.000,6358.2600,N,02233.1271,W,1,09,0.9,25.9,M,60.8,M,,0000*7D
$GPGSA,A,3,30,05,13,04,10,02,23,07,29,,,,1.8,0.9,1.5*38
$GPRMC,002855.000,A,6358.2600,N,02233.1271,W,16.30,30.23,290812,,,A*79
$GPGGA,002856.000,6358.2639,N,02233.1221,W,1,09,0.9,25.8,M,60.8,M,,0000*70
$GPGSA,A,3,30,05,13,04,10,02,23,07,29,,,,1.8,0.9,1.5*38
$GPRMC,002856.000,A,6358.2639,N,02233.1221,W,16.04,30.09,290812,,,A*7A
$GPGGA,002857.000,6358.2677,N,02233.1171,W,1,09,0.9,25.8,M,60.8,M,,0000*7D
$GPGSA,A,3,30,05,13,04,10,02,23,07,29,,,,1.8,0.9,1.5*38
$GPRMC,002857.000,A,6358.2677,N,02233.1171,W,15.91,29.89,290812,,,A*78
$GPGGA,002858.000,6358.2715,N,02233.1122,W,1,09,0.9,25.8,M,60.8,M,,0000*71
$GPGSA,A,3,30,05,13,04,10,02,23,07,29,,,,1.8,0.9,1.5*38
$GPRMC,002858.000,A,6358.2715,N,02233.1122,W,15.80,30.08,290812,,,A*75
$GPGGA,002859.000,6358.2754,N,02233.1073,W,1,09,0.9,25.9,M,60.8,M,,0000*71
$GPGSA,A,3,30,05,13,04,10,02,23,07,29,,,,1.8,0.9,1.5*38
$GPGSV,3,1,11,10,76,198,24,13,61,100,43,02,60,250,34,04,44,172,39*70
$GPGSV,3,2,11,23,34,063,40,05,27,263,26,29,23,324,39,07,20,133,32*7C
$GPGSV,3,3,11,30,15,027,36,16,05,052,,25,02,305,*48
$GPRMC,002859.000,A,6358.2754,N,02233.1073,W,15.96,29.88,290812,,,A*73
$GPGGA,002900.000,6358.2793,N,02233.1024,W,1,09,0.9,25.9,M,60.8,M,,0000*75
$GPGSA,A,3,30,05,13,04,10,02,23,07,29,,,,1.8,0.9,1.5*38
$GPRMC,002900.000,A,6358.2793,N,02233.1024,W,15.91,29.56,290812,,,A*73
$GPGGA,002901.000,6358.2831,N,02233.0975,W,1,09,0.9,26.0,M,60.8,M,,0000*75
$GPGSA,A,3,30,05,13,04,10,02,23,07,29,,,,1.8,0.9,1.5*38
$GPRMC,002901.000,A,6358.2831,N,02233.0975,W,15.88,30.23,290812,,,A*7B
$GPGGA,002902.000,6358.2869,N,02233.0926,W,1,09,0.9,26.0,M,60.8,M,,0000*7D
$GPGSA,A,3,30,05,13,04,10,02,23,07,29,,,,1.8,0.9,1.5*38
$GPRMC,002902.000,A,6358.2869,N,02233.0926,W,15.64,30.19,290812,,,A*78
$GPGGA,002903.000,6358.2906,N,02233.0878,W,1,09,0.9,26.0,M,60.8,M,,0000*7E
$GPGSA,A,3,30,05,13,04,10,02,23,07,29,,,,1.8,0.9,1.5*38
$GPRMC,002903.000,A,6358.2906,N,02233.0878,W,15.30,30.25,290812,,,A*75
$GPGGA,002904.000,6358.2942,N,02233.0830,W,1,09,0.9,26.0,M,60.8,M,,0000*75
$GPGSA,A,3,30,05,13,04,10,02,23,07,29,,,,1.8,0.9,1.5*38
$GPGSV,3,1,11,10,76,198,28,13,61,100,44,02,60,250,25,04,44,172,38*7A
$GPGSV,3,2,11,23,34,063,40,05,27,263,33,29,23,324,39,07,20,133,26*7D
$GPGSV,3,3,11,30,15,027,36,16,05,052,33,25,02,305,*48
$GPRMC,002904.000,A,6358.2942,N,02233.0830,W,15.10,30.91,290812,,,A*73
$GPGGA,002905.000,6358.2977,N,02233.0781,W,1,09,0.9,26.0,M,60.8,M,,0000*77
$GPGSA,A,3,30,05,13,04,10,02,23,07,29,,,,1.8,0.9,1.5*38
$GPRMC,002905.000,A,6358.2977,N,02233.0781,W,14.97,31.57,290812,,,A*74
$GPGGA,002906.000,6358.3012,N,02233.0733,W,1,09,0.9,26.0,M,60.8,M,,0000*76
$GPGSA,A,3,30,05,13,04,10,02,23,07,29,,,,1.8,0.9,1.5*38
$GPRMC,002906.000,A,6358.3012,N,02233.0733,W,14.84,32.11,290812,,,A*76
$GPGGA,002907.000,6358.3047,N,02233.0684,W,1,08,1.0,26.0,M,60.8,M,,0000*73
$GPGSA,A,3,30,05,13,04,10,23,07,29,,,,,1.9,1.0,1.6*30
$GPRMC,002907.000,A,6358.3047,N,02233.0684,W,14.81,32.13,290812,,,A*7D
$GPGGA,002908.000,6358.3082,N,02233.0633,W,1,09,0.9,25.9,M,60.8,M,,0000*7A
$GPGSA,A,3,30,05,13,04,10,02,23,07,29,,,,1.8,0.9,1.5*38
$GPRMC,002908.000,A,6358.3082,N,02233.0633,W,14.92,33.11,290812,,,A*76
$GPGGA,002909.000,6358.3116,N,02233.0584,W,1,09,0.9,25.8,M,60.8,M,,0000*79
$GPGSA,A,3,30,05,13,04,10,02,23,07,29,,,,1.8,0.9,1.5*38
$GPGSV,3,1,11,10,76,198,31,13,61,100,44,02,60,250,35,04,44,172,39*72
$GPGSV,3,2,11,23,34,063,40,05,27,263,35,29,23,324,30,07,20,133,24*70
$GPGSV,3,3,11,30,15,027,30,16,05,052,26,25,02,305,18*43
$GPRMC,002909.000,A,6358.3116,N,02233.0584,W,14.68,33.20,290812,,,A*73
$GPGGA,002910.000,6358.3150,N,02233.0534,W,1,09,0.9,25.7,M,60.8,M,,0000*77
$GPGSA,A,3,30,05,13,04,10,02,23,07,29,,,,1.8,0.9,1.5*38
$GPRMC,002910.000,A,6358.3150,N,02233.0534,W,14.62,33.31,290812,,,A*78
$GPGGA,002911.000,6358.3183,N,02233.0481,W,1,09,0.9,25.5,M,60.8,M,,0000*75
$GPGSA,A,3,30,05,13,04,10,02,23,07,29,,,,1.8,0.9,1.5*38
$GPRMC,002911.000,A,6358.3183,N,02233.0481,W,14.75,35.47,290812,,,A*79
$GPGGA,002912.000,6358.3216,N,02233.0424,W,1,09,0.9,25.3,M,60.8,M,,0000*70
$GPGSA,A,3,30,05,13,04,10,02,23,07,29,,,,1.8,0.9,1.5*38
$GPRMC,002912.000,A,6358.3216,N,02233.0424,W,14.80,37.48,290812,,,A*7D
$GPGGA,002913.000,6358.3248,N,02233.0366,W,1,09,0.9,25.0,M,60.8,M,,0000*78
$GPGSA,A,3,30,05,13,04,10,02,23,07,29,,,,1.8,0.9,1.5*38
$GPRMC,002913.000,A,6358.3248,N,02233.0366,W,14.87,38.75,290812,,,A*70
$GPGGA,002914.000,6358.3280,N,02233.0306,W,1,09,0.9,24.8,M,60.8,M,,0000*74
$GPGSA,A,3,30,05,13,04,10,02,23,07,29,,,,1.8,0.9,1.5*38
$GPGSV,3,1,11,10,76,198,25,13,61,100,44,02,60,250,30,04,44,172,40*7C
$GPGSV,3,2,11,23,34,063,45,05,27,263,28,29,23,324,38,07,20,133,35*71
$GPGSV,3,3,11,30,15,027,32,16,05,052,33,25,02,305,23*4D
$GPRMC,002914.000,A,6358.3280,N,02233.0306,W,14.89,39.94,290812,,,A*75
$GPGGA,002915.000,6358.3310,N,02233.0246,W,1,09,0.9,24.5,M,60.8,M,,0000*75
$GPGSA,A,3,30,05,13,04,10,02,23,07,29,,,,1.8,0.9,1.5*38
$GPRMC,002915.000,A,6358.3310,N,02233.0246,W,14.77,40.47,290812,,,A*78
$GPGGA,002916.000,6358.3341,N,02233.0185,W,1,09,0.9,24.2,M,60.8,M,,0000*79
$GPGSA,A,3,30,05,13,04,10,02,23,07,29,,,,1.8,0.9,1.5*38
$GPRMC,002916.000,A,6358.3341,N,02233.0185,W,14.61,41.54,290812,,,A*77
$GPGGA,002917.000,6358.3369,N,02233.0125,W,1,09,0.9,23.9,M,60.8,M,,0000*74
$GPGSA,A,3,30,05,13,04,10,02,23,07,29,,,,1.8,0.9,1.5*38
$GPRMC,002917.000,A,6358.3369,N,02233.0125,W,14.15,42.42,290812,,,A*71
$GPGGA,002918.000,6358.3398,N,02233.0064,W,1,09,0.9,23.6,M,60.8,M,,0000*7E
$GPGSA,A,3,30,05,13,04,10,02,23,07,29,,,,1.8,0.9,1.5*38
$GPRMC,002918.000,A,6358.3398,N,02233.0064,W,14.18,42.89,290812,,,A*7E
$GPGGA,002919.000,6358.3427,N,02233.0002,W,1,08,1.1,23.3,M,60.8,M,,0000*71
$GPGSA,A,3,30,13,04,10,02,23,07,29,,,,,2.0,1.1,1.7*3D
$GPGSV,3,1,11,10,76,198,19,13,61,100,44,02,60,250,35,04,44,172,41*77
$GPGSV,3,2,11,23,34,063,43,05,27,263,,29,23,324,37,07,20,133,39*7E
$GPGSV,3,3,11,30,15,027,24,16,05,052,33,25,02,305,30*48
$GPRMC,002919.000,A,6358.3427,N,02233.0002,W,14.32,43.38,290812,,,A*7F
$GPGGA,002920.000,6358.3454,N,02232.9942,W,1,09,0.9,23.0,M,60.8,M,,0000*71
$GPGSA,A,3,30,05,13,04,10,02,23,07,29,,,,1.8,0.9,1.5*38
$GPRMC,002920.000,A,6358.3454,N,02232.9942,W,13.91,43.94,290812,,,A*7C
$GPGGA,002921.000,6358.3481,N,02232.9882,W,1,09,0.9,22.8,M,60.8,M,,0000*7C
$GPGSA,A,3,30,05,13,04,10,02,23,07,29,,,,1.8,0.9,1.5*38
$GPRMC,002921.000,A,6358.3481,N,02232.9882,W,13.67,44.13,290812,,,A*79
$GPGGA,002922.000,6358.3506,N,02232.9826,W,1,09,0.9,22.5,M,60.8,M,,0000*72
$GPGSA,A,3,30,05,13,04,10,02,23,07,29,,,,1.8,0.9,1.5*38
$GPRMC,002922.000,A,6358.3506,N,02232.9826,W,12.48,44.89,290812,,,A*75
$GPGGA,002923.000,6358.3527,N,02232.9775,W,1,09,0.9,22.3,M,60.8,M,,0000*7F
$GPGSA,A,3,30,05,13,04,10,02,23,07,29,,,,1.8,0.9,1.5*38
$GPRMC,002923.000,A,6358.3527,N,02232.9775,W,11.31,45.43,290812,,,A*74
$GPGGA,002924.000,6358.3548,N,02232.9727,W,1,09,0.9,22.1,M,60.8,M,,0000*74
$GPGSA,A,3,30,05,13,04,10,02,23,07,29,,,,1.8,0.9,1.5*38
$GPGSV,3,1,11,10,76,197,27,13,61,099,43,02,60,250,36,04,43,172,41*77
$GPGSV,3,2,11,23,34,063,42,05,27,263,31,29,23,324,37,07,20,133,25*70
$GPGSV,3,3,11,30,15,026,34,16,05,051,34,25,02,305,24*49
$GPRMC,002924.000,A,6358.3548,N,02232.9727,W,10.70,45.53,290812,,,A*78
$GPGGA,002925.000,6358.3569,N,02232.9680,W,1,09,0.9,21.9,M,60.8,M,,0000*71
$GPGSA,A,3,30,05,13,04,10,02,23,07,29,,,,1.8,0.9,1.5*38
$GPRMC,002925.000,A,6358.3569,N,02232.9680,W,10.45,45.25,290812,,,A*71
$GPGGA,002926.000,6358.3587,N,02232.9638,W,1,09,0.9,21.8,M,60.8,M,,0000*70
$GPGSA,A,3,30,05,13,04,10,02,23,07,29,,,,1.8,0.9,1.5*38
$GPRMC,002926.000,A,6358.3587,N,02232.9638,W,9.30,45.66,290812,,,A*4C
$GPGGA,002927.000,6358.3604,N,02232.9598,W,1,09,0.9,21.8,M,60.8,M,,0000*70
$GPGSA,A,3,30,05,13,04,10,02,23,07,29,,,,1.8,0.9,1.5*38
$GPRMC,002927.000,A,6358.3604,N,02232.9598,W,8.83,45.97,290812,,,A*4B
$GPGGA,002928.000,6358.3620,N,02232.9558,W,1,09,0.9,21.7,M,60.8,M,,0000*7A
$GPGSA,A,3,30,05,13,04,10,02,23,07,29,,,,1.8,0.9,1.5*38
$GPRMC,002928.000,A,6358.3620,N,02232.9558,W,8.64,46.99,290812,,,A*4A
$GPGGA,002929.000,6358.3636,N,02232.9518,W,1,09,0.9,21.7,M,60.8,M,,0000*78
$GPGSA,A,3,30,05,13,04,10,02,23,07,29,,,,1.8,0.9,1.5*38
$GPGSV,3,1,11,10,76,197,20,13,61,099,43,02,60,250,30,04,43,172,40*77
$GPGSV,3,2,11,23,34,063,41,05,27,263,25,29,23,324,37,07,20,133,19*79
$GPGSV,3,3,11,30,15,026,35,16,05,051,24,25,02,305,23*4E
$GPRMC,002929.000,A,6358.3636,N,02232.9518,W,8.46,47.91,290812,,,A*41
$GPGGA,002930.000,6358.3651,N,02232.9479,W,1,08,1.1,21.7,M,60.8,M,,0000*7F
$GPGSA,A,3,30,13,04,10,02,23,07,29,,,,,2.0,1.1,1.7*3D
$GPRMC,002930.000,A,6358.3651,N,02232.9479,W,8.35,48.58,290812,,,A*40
$GPGGA,002931.000,6358.3665,N,02232.9439,W,1,09,0.9,21.8,M,60.8,M,,0000*7A
$GPGSA,A,3,30,05,13,04,10,02,23,07,29,,,,1.8,0.9,1.5*38
$GPRMC,002931.000,A,6358.3665,N,02232.9439,W,8.18,50.55,290812,,,A*49
$GPGGA,002932.000,6358.3679,N,02232.9400,W,1,09,0.9,21.8,M,60.8,M,,0000*7E
$GPGSA,A,3,30,05,13,04,10,02,23,07,29,,,,1.8,0.9,1.5*38
$GPRMC,002932.000,A,6358.3679,N,02232.9400,W,7.92,51.49,290812,,,A*4C
$GPGGA,002933.000,6358.3691,N,02232.9363,W,1,09,0.9,21.8,M,60.8,M,,0000*7B
$GPGSA,A,3,30,05,13,04,10,02,23,07,29,,,,1.8,0.9,1.5*38
$GPRMC,002933.000,A,6358.3691,N,02232.9363,W,7.13,53.57,290812,,,A*4D
$GPGGA,002934.000,6358.3700,N,02232.9332,W,1,09,0.9,21.8,M,60.8,M,,0000*71
$GPGSA,A,3,30,05,13,04,10,02,23,07,29,,,,1.8,0.9,1.5*38
$GPGSV,3,1,11,10,76,197,19,13,61,099,38,02,60,250,29,04,43,172,37*79
