$GPGGA,185128.000,5229.6329,N,01319.4871,E,1,05,1.7,42.7,M,44.8,M,,0000*63
$GPGSA,A,3,01,11,19,20,14,,,,,,,,3.2,1.7,2.7*3E
$GPRMC,185128.000,A,5229.6329,N,01319.4871,E,0.85,24.78,090912,,,A*5C
$GPGGA,185129.000,5229.6327,N,01319.4878,E,1,06,1.7,44.9,M,44.8,M,,0000*6E
$GPGSA,A,3,01,11,19,32,20,14,,,,,,,3.0,1.7,2.5*3F
$GPGSV,3,1,11,11,79,214,37,01,68,289,33,32,61,227,27,14,41,066,30*7D
$GPGSV,3,2,11,19,35,175,22,20,29,241,20,22,20,065,18,28,19,291,19*71
$GPGSV,3,3,11,17,12,320,24,03,05,169,12,09,03,004,16*49
$GPRMC,185129.000,A,5229.6327,N,01319.4878,E,1.41,79.74,090912,,,A*57
$GPGGA,185130.000,5229.6324,N,01319.4880,E,1,08,1.1,47.2,M,44.8,M,,0000*62
$GPGSA,A,3,01,22,11,19,32,28,20,14,,,,,1.9,1.1,1.5*3B
$GPRMC,185136.000,A,5229.6314,N,01319.4875,E,2.32,14.64,090912,,,A*59
$GPGGA,185137.000,5229.6317,N,01319.4869,E,1,06,1.8,61.3,M,44.8,M,,0000*60
$GPGSA,A,3,22,11,19,32,20,14,,,,,,,2.7,1.8,2.0*32
$GPRMC,185137.000,A,5229.6317,N,01319.4869,E,2.85,341.39,090912,,,A*61
$GPGGA,185138.000,5229.6321,N,01319.4864,E,1,07,1.2,63.7,M,44.8,M,,0000*6A
$GPGSA,A,3,01,22,11,19,32,28,14,,,,,,2.1,1.2,1.7*33
$GPRMC,185138.000,A,5229.6321,N,01319.4864,E,2.88,343.32,090912,,,A*62
$GPGGA,185139.000,5229.6324,N,01319.4861,E,1,06,1.2,66.3,M,44.8,M,,0000*6B
$GPGSA,A,3,01,22,11,19,28,14,,,,,,,2.1,1.2,1.7*32
$GPGSV,3,1,11,11,79,214,15,01,68,289,15,32,61,227,13,14,41,066,18*74
$GPGSV,3,2,11,19,35,175,13,20,29,241,07,22,20,065,16,28,19,291,12*73
$GPGSV,3,3,11,17,12,320,15,03,05,169,,09,03,004,*4F
$GPRMC,185139.000,A,5229.6324,N,01319.4861,E,2.10,357.64,090912,,,A*64
$GPGGA,185140.000,5229.6325,N,01319.4862,E,1,05,1.2,68.9,M,44.8,M,,0000*60
$GPGSA,A,3,01,22,19,28,14,,,,,,,,2.4,1.2,2.1*32
$GPRMC,185140.000,A,5229.6325,N,01319.4862,E,1.44,16.80,090912,,,A*56
$GPGGA,185141.000,5229.6325,N,01319.4861,E,1,05,5.0,71.6,M,44.8,M,,0000*63
$GPGSA,A,3,01,22,11,28,14,,,,,,,,6.1,5.0,3.5*38
$GPRMC,185141.000,A,5229.6325,N,01319.4861,E,0.91,2.91,090912,,,A*68
$GPGGA,185142.000,5229.6320,N,01319.4857,E,1,05,5.0,74.1,M,44.8,M,,0000*62
$GPGSA,A,3,01,22,11,28,14,,,,,,,,6.1,5.0,3.5*38
$GPRMC,185142.000,A,5229.6320,N,01319.4857,E,0.86,218.98,090912,,,A*6D
$GPGGA,185143.000,5229.6312,N,01319.4852,E,1,06,1.2,76.5,M,44.8,M,,0000*64
$GPGSA,A,3,01,22,11,19,28,14,,,,,,,2.1,1.2,1.7*32
$GPRMC,185143.000,A,5229.6312,N,01319.4852,E,2.21,205.89,090912,,,A*6B
$GPGGA,185144.000,5229.6302,N,01319.4842,E,1,05,1.2,78.6,M,44.8,M,,0000*6D
$GPGSA,A,3,01,22,19,28,14,,,,,,,,2.4,1.2,2.1*32
$GPGSV,3,1,11,11,79,214,12,01,68,289,14,32,61,227,,14,41,066,15*7D
$GPGSV,3,2,11,19,35,175,12,20,29,241,,22,20,065,14,28,19,291,13*76
$GPGSV,3,3,11,17,12,320,17,03,05,169,,09,03,004,*4D
$GPRMC,185144.000,A,5229.6302,N,01319.4842,E,3.02,214.29,090912,,,A*66
$GPGGA,185145.000,5229.6292,N,01319.4832,E,0,03,,80.4,M,44.8,M,,0000*4C
$GPGSA,A,1,01,22,14,,,,,,,,,,,,*1A
$GPRMC,185237.000,A,5229.6491,N,01319.4451,E,5.49,358.06,090912,,,A*6F
$GPGGA,185238.000,5229.6491,N,01319.4460,E,1,04,3.1,130.8,M,44.8,M,,0000*57
$GPGSA,A,3,14,28,01,32,,,,,,,,,4.5,3.1,3.3*3E
$GPRMC,185238.000,A,5229.6491,N,01319.4460,E,2.92,347.92,090912,,,A*60
$GPGGA,185239.000,5229.6496,N,01319.4464,E,1,04,3.1,125.9,M,44.8,M,,0000*50
$GPGSA,A,3,14,28,01,32,,,,,,,,,4.5,3.1,3.3*3E
$GPGSV,3,1,11,11,79,214,,01,68,289,14,32,61,227,15,14,41,066,14*7B
$GPGSV,3,2,11,19,35,175,14,20,29,241,,22,20,065,11,28,19,291,17*71
$GPGSV,3,3,11,17,12,320,,03,05,169,,09,03,004,*4B
$GPRMC,185239.000,A,5229.6496,N,01319.4464,E,3.54,334.83,090912,,,A*6D
$GPGGA,185240.000,5229.6496,N,01319.4470,E,1,05,1.4,120.6,M,44.8,M,,0000*57
$GPGSA,A,3,14,19,28,01,32,,,,,,,,2.5,1.4,2.1*34
$GPRMC,185240.000,A,5229.6496,N,01319.4470,E,2.90,331.31,090912,,,A*63
$GPGGA,185241.000,5229.6480,N,01319.4484,E,1,06,1.2,113.8,M,44.8,M,,0000*51
$GPGSA,A,3,14,22,19,28,01,32,,,,,,,2.2,1.2,1.9*3E
$GPRMC,185246.000,A,5229.6400,N,01319.4556,E,1.02,176.19,090912,,,A*6C
$GPGGA,185247.000,5229.6383,N,01319.4564,E,1,06,1.4,81.3,M,44.8,M,,0000*6B
$GPGSA,A,3,14,19,28,01,32,11,,,,,,,2.3,1.4,1.8*38
$GPRMC,185247.000,A,5229.6383,N,01319.4564,E,1.55,213.77,090912,,,A*6A
$GPGGA,185248.000,5229.6363,N,01319.4571,E,1,05,5.0,76.8,M,44.8,M,,0000*6E
$GPGSA,A,3,19,28,01,32,11,,,,,,,,5.8,5.0,2.9*33
$GPRMC,185248.000,A,5229.6363,N,01319.4571,E,2.49,203.63,090912,,,A*65
$GPGGA,185249.000,5229.6345,N,01319.4574,E,1,05,5.0,72.4,M,44.8,M,,0000*66
$GPGSA,A,3,19,28,01,32,11,,,,,,,,5.8,5.0,2.9*33
$GPGSV,3,1,11,11,79,214,27,01,68,289,20,32,61,227,20,14,41,066,15*7E
$GPGSV,3,2,11,19,35,175,20,20,29,241,,22,20,065,15,28,19,291,17*72
$GPGSV,3,3,11,17,12,320,18,03,05,169,,09,03,004,*42
$GPRMC,185249.000,A,5229.6345,N,01319.4574,E,2.44,222.37,090912,,,A*6A
$GPGGA,185250.000,5229.6332,N,01319.4579,E,1,07,1.3,68.6,M,44.8,M,,0000*6F
$GPGSA,A,3,14,19,28,01,32,11,20,,,,,,2.2,1.3,1.8*3C
$GPRMC,185250.000,A,5229.6332,N,01319.4579,E,1.45,228.59,090912,,,A*6F
$GPGGA,185251.000,5229.6323,N,01319.4586,E,1,07,1.3,65.2,M,44.8,M,,0000*67
$GPGSA,A,3,14,19,28,01,32,11,20,,,,,,2.2,1.3,1.8*3C
$GPRMC,185252.000,A,5229.6317,N,01319.4594,E,0.89,348.65,090912,,,A*60
$GPGGA,185253.000,5229.6314,N,01319.4600,E,1,07,1.2,59.0,M,44.8,M,,0000*60
$GPGSA,A,3,14,22,19,28,32,11,20,,,,,,2.2,1.2,1.8*3C
$GPRMC,185253.000,A,5229.6314,N,01319.4600,E,1.84,349.87,090912,,,A*6D
$GPGGA,185254.000,5229.6316,N,01319.4606,E,1,07,1.3,56.1,M,44.8,M,,0000*6C
$GPGSA,A,3,14,19,28,01,32,11,20,,,,,,2.2,1.3,1.8*3C
$GPGSV,3,1,11,11,79,214,22,01,68,289,19,32,61,227,26,14,41,066,13*71
$GPGSV,3,2,11,19,35,175,24,20,29,241,14,22,20,065,14,28,19,291,16*73
$GPGSV,3,3,11,17,12,320,18,03,05,169,,09,03,004,*42
$GPRMC,185254.000,A,5229.6316,N,01319.4606,E,2.88,359.38,090912,,,A*64
$GPGGA,185255.000,5229.6317,N,01319.4614,E,1,07,1.3,53.7,M,44.8,M,,0000*6C
$GPGSA,A,3,14,19,28,01,32,11,20,,,,,,2.2,1.3,1.8*3C
$GPRMC,185255.000,A,5229.6317,N,01319.4614,E,2.70,14.84,090912,,,A*5D
$GPGGA,185256.000,5229.6316,N,01319.4621,E,1,08,1.1,51.5,M,44.8,M,,0000*65
$GPGSA,A,3,14,22,19,28,01,32,11,20,,,,,1.9,1.1,1.5*3B
$GPRMC,185256.000,A,5229.6316,N,01319.4621,E,1.95,21.07,090912,,,A*5C
$GPGGA,185257.000,5229.6316,N,01319.4626,E,1,07,1.3,49.4,M,44.8,M,,0000*66
$GPGSA,A,3,14,19,28,01,32,11,20,,,,,,2.2,1.3,1.8*3C
$GPRMC,185257.000,A,5229.6316,N,01319.4626,E,1.71,9.47,090912,,,A*6E
$GPGGA,185258.000,5229.6316,N,01319.4631,E,1,07,1.3,47.6,M,44.8,M,,0000*63
$GPGSA,A,3,14,19,28,01,32,11,20,,,,,,2.2,1.3,1.8*3C
$GPRMC,185258.000,A,5229.6316,N,01319.4631,E,1.48,6.53,090912,,,A*67
$GPGGA,185259.000,5229.6313,N,01319.4632,E,1,07,1.3,45.8,M,44.8,M,,0000*68
$GPGSA,A,3,14,19,28,01,32,11,20,,,,,,2.2,1.3,1.8*3C
$GPGSV,3,1,11,11,79,214,21,01,68,289,23,32,61,227,25,14,41,066,14*7F
$GPGSV,3,2,11,19,35,175,22,20,29,241,13,22,20,065,15,28,19,291,26*70
$GPGSV,3,3,11,17,12,320,24,03,05,169,,09,03,004,*4D
$GPRMC,185302.000,A,5229.6298,N,01319.4634,E,0.93,227.88,090912,,,A*6B
$GPGGA,185303.000,5229.6293,N,01319.4629,E,1,06,2.7,41.9,M,44.8,M,,0000*66
$GPGSA,A,3,19,28,01,32,11,20,,,,,,,3.7,2.7,2.5*34
$GPRMC,185303.000,A,5229.6293,N,01319.4629,E,1.45,246.00,090912,,,A*60
$GPGGA,185304.000,5229.6289,N,01319.4624,E,1,07,1.3,41.3,M,44.8,M,,0000*6B
$GPGSA,A,3,14,19,28,01,32,11,20,,,,,,2.2,1.3,1.8*3C
$GPGSV,3,1,11,11,79,214,14,01,68,289,28,32,61,227,25,14,41,066,15*73
$GPGSV,3,2,11,19,35,175,21,20,29,241,13,22,20,065,16,28,19,291,25*73
$GPGSV,3,3,11,17,12,320,29,03,05,169,,09,03,004,*40
$GPRMC,185304.000,A,5229.6289,N,01319.4624,E,1.33,248.60,090912,,,A*68
$GPGGA,185305.000,5229.6285,N,01319.4620,E,1,06,2.7,41.1,M,44.8,M,,0000*66
$GPGSA,A,3,19,28,01,32,11,20,,,,,,,3.7,2.7,2.5*34
$GPRMC,185305.000,A,5229.6285,N,01319.4620,E,1.12,259.85,090912,,,A*69
$GPGGA,185306.000,5229.6283,N,01319.4616,E,1,07,1.3,41.0,M,44.8,M,,0000*61
$GPGSA,A,3,14,19,28,01,32,11,20,,,,,,2.2,1.3,1.8*3C
$GPRMC,185306.000,A,5229.6283,N,01319.4616,E,1.04,280.63,090912,,,A*62
$GPGGA,185307.000,5229.6282,N,01319.4612,E,1,06,1.4,41.1,M,44.8,M,,0000*62
$GPGSA,A,3,14,19,28,01,32,11,,,,,,,2.3,1.4,1.8*38
$GPRMC,185307.000,A,5229.6282,N,01319.4612,E,1.06,311.40,090912,,,A*6C
$GPGGA,185308.000,5229.6280,N,01319.4610,E,1,05,3.1,41.4,M,44.8,M,,0000*6C
$GPGSA,A,3,14,28,01,32,11,,,,,,,,4.5,3.1,3.3*3E
$GPRMC,185310.000,A,5229.6277,N,01319.4616,E,0.82,67.67,090912,,,A*5E
$GPGGA,185311.000,5229.6277,N,01319.4618,E,1,06,2.0,43.6,M,44.8,M,,0000*67
$GPGSA,A,3,14,28,01,32,11,20,,,,,,,3.0,2.0,2.2*3E
$GPRMC,185311.000,A,5229.6277,N,01319.4618,E,1.18,16.45,090912,,,A*55
$GPGGA,185312.000,5229.6280,N,01319.4617,E,1,07,1.3,44.5,M,44.8,M,,0000*66
$GPGSA,A,3,14,19,28,01,32,11,20,,,,,,2.2,1.3,1.8*3C
$GPRMC,185312.000,A,5229.6280,N,01319.4617,E,1.75,353.03,090912,,,A*6A
$GPGGA,185313.000,5229.6283,N,01319.4614,E,1,06,2.0,45.4,M,44.8,M,,0000*66
$GPGSA,A,3,14,28,01,32,11,20,,,,,,,3.0,2.0,2.2*3E
$GPRMC,185313.000,A,5229.6283,N,01319.4614,E,2.22,343.19,090912,,,A*60
$GPGGA,185314.000,5229.6284,N,01319.4613,E,1,06,2.0,46.4,M,44.8,M,,0000*62
$GPGSA,A,3,14,28,01,32,11,20,,,,,,,3.0,2.0,2.2*3E
$GPGSV,3,1,11,11,79,214,21,01,68,289,26,32,61,227,23,14,41,066,19*71
$GPGSV,3,2,11,19,35,175,16,20,29,241,12,22,20,065,14,28,19,291,27*76
$GPGSV,3,3,11,17,12,320,25,03,05,169,,09,03,004,*4C
$GPRMC,185314.000,A,5229.6284,N,01319.4613,E,1.09,347.60,090912,,,A*67
$GPGGA,185315.000,5229.6283,N,01319.4612,E,1,07,1.3,47.3,M,44.8,M,,0000*62
$GPGSA,A,3,14,19,28,01,32,11,20,,,,,,2.2,1.3,1.8*3C
$GPRMC,185319.000,A,5229.6276,N,01319.4606,E,1.12,287.34,090912,,,A*65
$GPGGA,185320.000,5229.6274,N,01319.4602,E,1,05,1.4,50.4,M,44.8,M,,0000*69
$GPGSA,A,3,14,19,28,01,11,,,,,,,,2.4,1.4,1.9*3F
$GPRMC,185320.000,A,5229.6274,N,01319.4602,E,1.32,256.58,090912,,,A*6D
$GPGGA,185321.000,5229.6271,N,01319.4601,E,1,05,1.4,50.7,M,44.8,M,,0000*6D
$GPGSA,A,3,14,19,28,01,11,,,,,,,,2.4,1.4,1.9*3F
$GPRMC,185324.000,A,5229.6268,N,01319.4597,E,1.25,266.27,090912,,,A*66
$GPGGA,185325.000,5229.6268,N,01319.4597,E,1,05,1.4,51.9,M,44.8,M,,0000*62
$GPGSA,A,3,14,19,28,01,11,,,,,,,,2.4,1.4,1.9*3F
$GPRMC,185326.000,A,5229.6267,N,01319.4598,E,0.83,215.61,090912,,,A*6F
$GPGGA,185327.000,5229.6262,N,01319.4601,E,1,05,1.4,52.4,M,44.8,M,,0000*68
$GPGSA,A,3,14,19,28,01,11,,,,,,,,2.4,1.4,1.9*3F
$GPRMC,185327.000,A,5229.6262,N,01319.4601,E,1.59,174.74,090912,,,A*6E
$GPGGA,185328.000,5229.6255,N,01319.4602,E,1,05,1.4,52.6,M,44.8,M,,0000*62
$GPGSA,A,3,14,19,28,01,11,,,,,,,,2.4,1.4,1.9*3F
$GPRMC,185328.000,A,5229.6255,N,01319.4602,E,2.41,190.29,090912,,,A*6E
$GPGGA,185329.000,5229.6247,N,01319.4605,E,1,05,1.4,52.9,M,44.8,M,,0000*68
$GPGSA,A,3,14,19,28,01,11,,,,,,,,2.4,1.4,1.9*3F
$GPGSV,3,1,11,11,79,214,12,01,68,289,29,32,61,227,,14,41,066,18*7E
$GPGSV,3,2,11,19,35,175,18,20,29,241,,22,20,065,13,28,19,291,19*71
$GPGSV,3,3,11,17,12,320,18,03,05,169,,09,03,004,*42
$GPRMC,185329.000,A,5229.6247,N,01319.4605,E,2.35,177.74,090912,,,A*69
$GPGGA,185330.000,5229.6242,N,01319.4610,E,1,04,1.4,53.2,M,44.8,M,,0000*6A
$GPGSA,A,3,14,19,28,01,,,,,,,,,2.9,1.4,2.5*3D
$GPRMC,185330.000,A,5229.6242,N,01319.4610,E,1.22,164.23,090912,,,A*65
$GPGGA,185331.000,5229.6240,N,01319.4613,E,1,04,1.4,53.5,M,44.8,M,,0000*6D
$GPGSA,A,3,14,19,28,01,,,,,,,,,2.9,1.4,2.5*3D
$GPRMC,185334.000,A,5229.6236,N,01319.4615,E,0.82,222.12,090912,,,A*6F
$GPGGA,185335.000,5229.6236,N,01319.4616,E,1,04,1.4,55.1,M,44.8,M,,0000*6F
$GPGSA,A,3,14,19,28,01,,,,,,,,,2.9,1.4,2.5*3D
$GPRMC,185336.000,A,5229.6235,N,01319.4615,E,0.90,229.85,090912,,,A*68
$GPGGA,185337.000,5229.6234,N,01319.4618,E,1,04,1.4,56.1,M,44.8,M,,0000*62
$GPGSA,A,3,14,19,28,01,,,,,,,,,2.9,1.4,2.5*3D
$GPRMC,185340.000,A,5229.6229,N,01319.4622,E,1.16,248.37,090912,,,A*61
$GPGGA,185341.000,5229.6226,N,01319.4617,E,1,04,1.4,57.6,M,44.8,M,,0000*69
$GPGSA,A,3,14,19,28,01,,,,,,,,,2.9,1.4,2.5*3D
$GPRMC,185341.000,A,5229.6226,N,01319.4617,E,1.60,235.28,090912,,,A*6C
$GPGGA,185342.000,5229.6224,N,01319.4613,E,1,05,1.4,57.6,M,44.8,M,,0000*6D
$GPGSA,A,3,14,19,28,01,32,,,,,,,,2.5,1.4,2.1*34
$GPRMC,185342.000,A,5229.6224,N,01319.4613,E,1.40,247.98,090912,,,A*65
$GPGGA,185343.000,5229.6224,N,01319.4613,E,1,04,5.8,57.5,M,44.8,M,,0000*66
$GPGSA,A,3,19,28,01,32,,,,,,,,,6.5,5.8,2.9*35
$GPRMC,185344.000,A,5229.6222,N,01319.4618,E,0.94,140.20,090912,,,A*61
$GPGGA,185345.000,5229.6222,N,01319.4623,E,1,05,1.4,57.3,M,44.8,M,,0000*6A
$GPGSA,A,3,14,19,28,01,32,,,,,,,,2.5,1.4,2.1*34
$GPRMC,185348.000,A,5229.6225,N,01319.4630,E,0.89,167.52,090912,,,A*6C
$GPGGA,185349.000,5229.6222,N,01319.4633,E,1,03,6.5,57.8,M,44.8,M,,0000*6C
$GPGSA,A,2,14,28,01,,,,,,,,,,6.6,6.5,1.0*3F
$GPGSV,3,1,11,11,78,207,,01,69,289,30,32,62,227,15,14,40,064,18*73
$GPGSV,3,2,11,19,34,174,18,20,31,242,,22,19,065,,28,19,290,19*72
$GPGSV,3,3,11,17,13,320,19,03,04,169,,09,03,003,*44
$GPRMC,185349.000,A,5229.6222,N,01319.4633,E,1.44,169.57,090912,,,A*62
$GPGGA,185350.000,5229.6221,N,01319.4634,E,1,05,1.4,57.8,M,44.8,M,,0000*60
$GPGSA,A,3,14,19,28,01,32,,,,,,,,2.5,1.4,2.1*34
$GPRMC,185350.000,A,5229.6221,N,01319.4634,E,0.93,187.52,090912,,,A*60
$GPGGA,185351.000,5229.6222,N,01319.4638,E,1,05,1.4,57.8,M,44.8,M,,0000*6E
$GPGSA,A,3,14,19,28,01,32,,,,,,,,2.5,1.4,2.1*34
$GPRMC,185352.000,A,5229.6224,N,01319.4643,E,1.11,39.09,090912,,,A*56
$GPGGA,185353.000,5229.6226,N,01319.4646,E,1,05,1.4,57.8,M,44.8,M,,0000*61
$GPGSA,A,3,14,19,28,01,32,,,,,,,,2.5,1.4,2.1*34
$GPRMC,185356.000,A,5229.6228,N,01319.4657,E,0.85,78.77,090912,,,A*5B
$GPGGA,185357.000,5229.6228,N,01319.4659,E,1,03,4.7,58.3,M,44.8,M,,0000*61
$GPGSA,A,2,19,28,01,,,,,,,,,,4.8,4.7,1.0*3E
$GPRMC,185400.000,A,5229.6235,N,01319.4656,E,1.63,356.95,090912,,,A*68
$GPGGA,185401.000,5229.6237,N,01319.4656,E,1,05,1.4,58.6,M,44.8,M,,0000*61
$GPGSA,A,3,14,19,28,01,32,,,,,,,,2.5,1.4,2.1*34
$GPRMC,185401.000,A,5229.6237,N,01319.4656,E,1.17,12.15,090912,,,A*53
$GPGGA,185402.000,5229.6239,N,01319.4658,E,1,05,1.4,58.8,M,44.8,M,,0000*6C
$GPGSA,A,3,14,19,28,01,32,,,,,,,,2.5,1.4,2.1*34
$GPRMC,185402.000,A,5229.6239,N,01319.4658,E,1.13,42.82,090912,,,A*5F
$GPGGA,185403.000,5229.6239,N,01319.4662,E,1,05,1.4,59.0,M,44.8,M,,0000*6D
$GPGSA,A,3,14,19,28,01,32,,,,,,,,2.5,1.4,2.1*34
$GPRMC,185403.000,A,5229.6239,N,01319.4662,E,1.28,53.60,090912,,,A*53
$GPGGA,185404.000,5229.6241,N,01319.4661,E,1,04,1.4,59.1,M,44.8,M,,0000*66
$GPGSA,A,3,14,19,28,01,,,,,,,,,2.8,1.4,2.5*3C
$GPGSV,3,1,11,11,78,207,,01,69,289,30,32,62,227,16,14,40,064,17*7F
$GPGSV,3,2,11,19,34,174,16,20,31,242,,22,19,065,,28,19,290,20*76
$GPGSV,3,3,11,17,13,320,22,03,04,169,,09,03,003,*4C
$GPRMC,185404.000,A,5229.6241,N,01319.4661,E,0.96,9.99,090912,,,A*65
$GPGGA,185405.000,5229.6240,N,01319.4667,E,1,05,1.4,59.1,M,44.8,M,,0000*61
$GPGSA,A,3,14,19,28,01,32,,,,,,,,2.5,1.4,2.1*34
$GPRMC,185405.000,A,5229.6240,N,01319.4667,E,1.36,82.75,090912,,,A*59
$GPGGA,185406.000,5229.6238,N,01319.4672,E,1,05,1.4,59.1,M,44.8,M,,0000*69
$GPGSA,A,3,14,19,28,01,32,,,,,,,,2.5,1.4,2.1*34
$GPRMC,185406.000,A,5229.6238,N,01319.4672,E,1.28,104.34,090912,,,A*64
$GPGGA,185407.000,5229.6236,N,01319.4676,E,1,04,3.2,59.1,M,44.8,M,,0000*67
$GPGSA,A,3,14,28,01,32,,,,,,,,,4.6,3.2,3.3*3E
$GPRMC,185407.000,A,5229.6236,N,01319.4676,E,0.98,111.35,090912,,,A*60
$GPGGA,185408.000,5229.6237,N,01319.4678,E,1,05,1.4,58.9,M,44.8,M,,0000*6B
$GPGSA,A,3,14,19,28,01,32,,,,,,,,2.5,1.4,2.1*34
$GPRMC,185413.000,A,5229.6231,N,01319.4687,E,0.97,61.76,090912,,,A*52
$GPGGA,185414.000,5229.6234,N,01319.4698,E,1,04,1.4,56.3,M,44.8,M,,0000*6E
$GPGSA,A,3,14,19,28,01,,,,,,,,,2.8,1.4,2.5*3C
$GPGSV,3,1,11,11,78,207,,01,69,289,30,32,62,227,18,14,40,064,17*71
$GPGSV,3,2,11,19,34,174,15,20,31,242,,22,19,065,,28,19,290,20*75
$GPGSV,3,3,11,17,13,320,23,03,04,169,,09,03,003,*4D
$GPRMC,185414.000,A,5229.6234,N,01319.4698,E,2.36,62.08,090912,,,A*5D
$GPGGA,185415.000,5229.6235,N,01319.4710,E,1,05,1.4,55.7,M,44.8,M,,0000*69
$GPGSA,A,3,14,19,28,01,32,,,,,,,,2.5,1.4,2.1*34
$GPRMC,185415.000,A,5229.6235,N,01319.4710,E,2.17,70.14,090912,,,A*51
$GPGGA,185416.000,5229.6235,N,01319.4713,E,1,05,1.4,55.3,M,44.8,M,,0000*6D
$GPGSA,A,3,14,19,28,01,32,,,,,,,,2.5,1.4,2.1*34
$GPRMC,185418.000,A,5229.6235,N,01319.4709,E,1.09,302.14,090912,,,A*6E
$GPGGA,185419.000,5229.6237,N,01319.4704,E,1,04,3.2,54.5,M,44.8,M,,0000*64
$GPGSA,A,3,14,28,01,32,,,,,,,,,4.6,3.2,3.3*3E
$GPGSV,3,1,11,11,78,206,11,01,69,289,30,32,62,227,18,14,40,064,17*70
$GPGSV,3,2,11,19,33,174,15,20,31,242,,22,19,065,,28,19,289,20*7A
$GPGSV,3,3,11,17,14,319,24,03,04,169,,09,02,003,*46
$GPRMC,185419.000,A,5229.6237,N,01319.4704,E,1.46,316.75,090912,,,A*69
$GPGGA,185420.000,5229.6239,N,01319.4702,E,1,03,4.7,54.0,M,44.8,M,,0000*66
$GPGSA,A,2,28,01,32,,,,,,,,,,4.8,4.7,1.0*37
$GPRMC,185420.000,A,5229.6239,N,01319.4702,E,1.39,336.51,090912,,,A*67
$GPGGA,185421.000,5229.6240,N,01319.4698,E,1,04,5.8,53.4,M,44.8,M,,0000*61
$GPGSA,A,3,19,28,01,32,,,,,,,,,6.6,5.8,3.0*3E
$GPRMC,185421.000,A,5229.6240,N,01319.4698,E,1.00,311.93,090912,,,A*6B
$GPGGA,185422.000,5229.6240,N,01319.4697,E,1,04,5.8,52.8,M,44.8,M,,0000*60
$GPGSA,A,3,19,28,01,32,,,,,,,,,6.6,5.8,3.0*3E
$GPRMC,185425.000,A,5229.6235,N,01319.4691,E,1.25,221.51,090912,,,A*6F
$GPGGA,185426.000,5229.6232,N,01319.4689,E,1,04,1.4,50.1,M,44.8,M,,0000*6D
$GPGSA,A,3,14,19,28,01,,,,,,,,,2.8,1.4,2.5*3C
$GPRMC,185426.000,A,5229.6232,N,01319.4689,E,0.92,211.75,090912,,,A*6A
$GPGGA,185427.000,5229.6231,N,01319.4694,E,1,04,1.4,49.8,M,44.8,M,,0000*62
$GPGSA,A,3,14,19,28,01,,,,,,,,,2.8,1.4,2.5*3C
$GPRMC,185427.000,A,5229.6231,N,01319.4694,E,0.93,110.10,090912,,,A*64
$GPGGA,185428.000,5229.6232,N,01319.4706,E,1,05,1.4,49.6,M,44.8,M,,0000*6B
$GPGSA,A,3,14,19,28,01,32,,,,,,,,2.5,1.4,2.1*34
$GPRMC,185428.000,A,5229.6232,N,01319.4706,E,2.39,75.03,090912,,,A*50
$GPGGA,185429.000,5229.6235,N,01319.4712,E,1,05,1.4,49.4,M,44.8,M,,0000*6A
$GPGSA,A,3,14,19,28,01,32,,,,,,,,2.5,1.4,2.1*34
$GPGSV,3,1,11,11,78,205,,01,69,289,31,32,62,227,18,14,40,064,18*7D
$GPGSV,3,2,11,19,33,174,15,20,31,242,,22,19,065,,28,19,289,19*70
$GPGSV,3,3,11,17,14,319,24,03,04,169,,09,02,003,*46
$GPRMC,185429.000,A,5229.6235,N,01319.4712,E,1.50,45.57,090912,,,A*5D
$GPGGA,185430.000,5229.6241,N,01319.4716,E,1,05,1.4,49.2,M,44.8,M,,0000*63
$GPGSA,A,3,14,19,28,01,32,,,,,,,,2.5,1.4,2.1*34
$GPRMC,185430.000,A,5229.6241,N,01319.4716,E,2.07,16.27,090912,,,A*52
$GPGGA,185431.000,5229.6248,N,01319.4722,E,1,05,1.4,49.0,M,44.8,M,,0000*6E
$GPGSA,A,3,14,19,28,01,32,,,,,,,,2.5,1.4,2.1*34
$GPRMC,185431.000,A,5229.6248,N,01319.4722,E,2.56,24.51,090912,,,A*59
$GPGGA,185432.000,5229.6252,N,01319.4724,E,1,04,3.2,49.1,M,44.8,M,,0000*64
$GPGSA,A,3,14,28,01,32,,,,,,,,,4.6,3.2,3.3*3E
$GPRMC,185432.000,A,5229.6252,N,01319.4724,E,1.54,19.63,090912,,,A*59
$GPGGA,185433.000,5229.6254,N,01319.4728,E,1,05,1.3,49.4,M,44.8,M,,0000*68
$GPGSA,A,3,14,19,28,01,32,,,,,,,,2.5,1.3,2.1*33
$GPRMC,185433.000,A,5229.6254,N,01319.4728,E,0.99,44.94,090912,,,A*52
$GPGGA,185434.000,5229.6256,N,01319.4735,E,1,04,3.2,49.5,M,44.8,M,,0000*62
$GPGSA,A,3,14,28,01,32,,,,,,,,,4.6,3.2,3.3*3E
$GPGSV,3,1,11,11,78,205,,01,69,289,31,32,62,227,18,14,40,064,17*72
$GPGSV,3,2,11,19,33,174,15,20,31,242,,22,19,065,,28,19,289,18*71
$GPGSV,3,3,11,17,14,319,24,03,04,169,,09,02,003,*46
$GPRMC,185434.000,A,5229.6256,N,01319.4735,E,1.55,77.29,090912,,,A*5C
$GPGGA,185435.000,5229.6255,N,01319.4740,E,1,05,1.3,49.9,M,44.8,M,,0000*6C
$GPGSA,A,3,14,19,28,01,32,,,,,,,,2.5,1.3,2.1*33
$GPRMC,185435.000,A,5229.6255,N,01319.4740,E,1.07,108.09,090912,,,A*60
$GPGGA,185436.000,5229.6252,N,01319.4740,E,1,05,1.3,50.3,M,44.8,M,,0000*6A
$GPGSA,A,3,14,19,28,01,32,,,,,,,,2.5,1.3,2.1*33
$GPRMC,185436.000,A,5229.6252,N,01319.4740,E,1.09,182.78,090912,,,A*6E
$GPGGA,185437.000,5229.6247,N,01319.4731,E,1,05,1.3,50.6,M,44.8,M,,0000*6C
$GPGSA,A,3,14,19,28,01,32,,,,,,,,2.5,1.3,2.1*33
$GPRMC,185437.000,A,5229.6247,N,01319.4731,E,2.75,218.39,090912,,,A*60
$GPGGA,185438.000,5229.6243,N,01319.4723,E,1,05,1.3,50.6,M,44.8,M,,0000*64
$GPGSA,A,3,14,19,28,01,32,,,,,,,,2.5,1.3,2.1*33
$GPRMC,185438.000,A,5229.6243,N,01319.4723,E,2.39,220.83,090912,,,A*6A
$GPGGA,185439.000,5229.6239,N,01319.4716,E,1,05,1.3,50.5,M,44.8,M,,0000*6D
$GPGSA,A,3,14,19,28,01,32,,,,,,,,2.5,1.3,2.1*33
$GPGSV,3,1,11,11,78,205,,01,69,289,31,32,62,227,18,14,40,064,16*73
$GPGSV,3,2,11,19,33,174,15,20,31,242,,22,19,065,,28,19,289,18*71
$GPGSV,3,3,11,17,14,319,25,03,04,169,,09,02,003,*47
$GPRMC,185439.000,A,5229.6239,N,01319.4716,E,2.28,215.64,090912,,,A*6F
$GPGGA,185440.000,5229.6234,N,01319.4709,E,1,05,1.3,50.3,M,44.8,M,,0000*66
$GPGSA,A,3,14,19,28,01,32,,,,,,,,2.5,1.3,2.1*33
$GPRMC,185440.000,A,5229.6234,N,01319.4709,E,2.43,210.04,090912,,,A*6C
$GPGGA,185441.000,5229.6228,N,01319.4700,E,1,05,1.3,50.1,M,44.8,M,,0000*61
$GPGSA,A,3,14,19,28,01,32,,,,,,,,2.5,1.3,2.1*33
$GPRMC,185441.000,A,5229.6228,N,01319.4700,E,3.07,211.00,090912,,,A*6D
$GPGGA,185442.000,5229.6222,N,01319.4692,E,1,04,3.2,49.7,M,44.8,M,,0000*6E
$GPGSA,A,3,14,28,01,32,,,,,,,,,4.6,3.2,3.3*3E
$GPRMC,185442.000,A,5229.6222,N,01319.4692,E,2.96,209.07,090912,,,A*69
$GPGGA,185443.000,5229.6219,N,01319.4687,E,1,05,1.3,49.4,M,44.8,M,,0000*62
$GPGSA,A,3,14,19,28,01,32,,,,,,,,2.5,1.3,2.1*33
$GPRMC,185443.000,A,5229.6219,N,01319.4687,E,2.07,202.69,090912,,,A*6F
$GPGGA,185444.000,5229.6217,N,01319.4683,E,1,05,1.3,49.1,M,44.8,M,,0000*6A
$GPGSA,A,3,14,19,28,01,32,,,,,,,,2.5,1.3,2.1*33
$GPGSV,3,1,11,11,78,205,,01,69,289,31,32,62,227,18,14,40,064,17*72
$GPGSV,3,2,11,19,33,174,15,20,31,242,,22,19,065,,28,19,289,17*7E
$GPGSV,3,3,11,17,14,319,25,03,04,169,,09,02,003,*47
$GPRMC,185444.000,A,5229.6217,N,01319.4683,E,1.18,209.70,090912,,,A*6C
$GPGGA,185445.000,5229.6218,N,01319.4684,E,1,04,1.4,48.8,M,44.8,M,,0000*6D
$GPGSA,A,3,14,19,28,01,,,,,,,,,2.8,1.4,2.4*3D
$GPRMC,185446.000,A,5229.6223,N,01319.4688,E,1.33,48.24,090912,,,A*5D
$GPGGA,185447.000,5229.6230,N,01319.4695,E,1,05,1.3,47.5,M,44.8,M,,0000*61
$GPGSA,A,3,14,19,28,01,32,,,,,,,,2.5,1.3,2.1*33
$GPRMC,185447.000,A,5229.6230,N,01319.4695,E,2.58,44.49,090912,,,A*5B
$GPGGA,185448.000,5229.6235,N,01319.4700,E,1,05,1.3,46.8,M,44.8,M,,0000*6A
$GPGSA,A,3,14,19,28,01,32,,,,,,,,2.5,1.3,2.1*33
$GPRMC,185448.000,A,5229.6235,N,01319.4700,E,1.68,45.86,090912,,,A*5E
$GPGGA,185449.000,5229.6239,N,01319.4702,E,1,04,5.9,46.1,M,44.8,M,,0000*63
$GPGSA,A,3,19,28,01,32,,,,,,,,,6.6,5.9,3.0*3F
$GPGSV,3,1,11,11,78,205,,01,69,289,31,32,62,227,19,14,40,064,17*73
$GPGSV,3,2,11,19,33,174,14,20,31,242,,22,19,065,,28,19,289,17*7F
$GPGSV,3,3,11,17,14,319,25,03,04,169,,09,02,003,*47
$GPRMC,185449.000,A,5229.6239,N,01319.4702,E,1.07,33.31,090912,,,A*55
$GPGGA,185450.000,5229.6243,N,01319.4701,E,1,04,5.9,45.2,M,44.8,M,,0000*65
$GPGSA,A,3,19,28,01,32,,,,,,,,,6.6,5.9,3.0*3F
$GPRMC,185451.000,A,5229.6248,N,01319.4696,E,1.09,318.22,090912,,,A*60
$GPGGA,185452.000,5229.6252,N,01319.4694,E,1,03,7.1,44.1,M,44.8,M,,0000*65
$GPGSA,A,2,19,01,32,,,,,,,,,,7.1,7.1,1.0*3A
$GPRMC,185454.000,A,5229.6255,N,01319.4689,E,0.81,203.30,090912,,,A*6E
$GPGGA,185455.000,5229.6255,N,01319.4686,E,1,04,5.9,42.3,M,44.8,M,,0000*6F
$GPGSA,A,3,19,28,01,32,,,,,,,,,6.6,5.9,3.0*3F
$GPRMC,185455.000,A,5229.6255,N,01319.4686,E,1.48,185.27,090912,,,A*6F
$GPGGA,185456.000,5229.6251,N,01319.4681,E,1,05,1.3,42.1,M,44.8,M,,0000*62
$GPGSA,A,3,14,19,28,01,32,,,,,,,,2.5,1.3,2.1*33
$GPRMC,185456.000,A,5229.6251,N,01319.4681,E,2.38,186.36,090912,,,A*68
$GPGGA,185457.000,5229.6251,N,01319.4679,E,1,04,3.2,42.0,M,44.8,M,,0000*67
$GPGSA,A,3,14,28,01,32,,,,,,,,,4.6,3.2,3.3*3E
$GPRMC,185457.000,A,5229.6251,N,01319.4679,E,1.22,185.86,090912,,,A*6E
$GPGGA,185458.000,5229.6253,N,01319.4677,E,1,04,3.2,41.7,M,44.8,M,,0000*60
$GPGSA,A,3,14,28,01,32,,,,,,,,,4.6,3.2,3.3*3E
$GPRMC,185500.000,A,5229.6267,N,01319.4664,E,2.91,321.27,090912,,,A*68
$GPGGA,185501.000,5229.6280,N,01319.4644,E,1,04,3.2,40.5,M,44.8,M,,0000*60
$GPGSA,A,3,14,28,01,32,,,,,,,,,4.6,3.2,3.3*3E
$GPRMC,185501.000,A,5229.6280,N,01319.4644,E,5.10,310.11,090912,,,A*6B
$GPGGA,185502.000,5229.6292,N,01319.4620,E,1,04,3.2,39.8,M,44.8,M,,0000*61
$GPGSA,A,3,14,28,01,32,,,,,,,,,4.6,3.2,3.3*3E
$GPRMC,185502.000,A,5229.6292,N,01319.4620,E,5.82,300.63,090912,,,A*66
$GPGGA,185503.000,5229.6305,N,01319.4595,E,1,04,3.2,38.9,M,44.8,M,,0000*62
$GPGSA,A,3,14,28,01,32,,,,,,,,,4.6,3.2,3.3*3E
$GPRMC,185503.000,A,5229.6305,N,01319.4595,E,5.94,303.76,090912,,,A*65
$GPGGA,185504.000,5229.6319,N,01319.4567,E,1,04,3.2,38.1,M,44.8,M,,0000*6D
$GPGSA,A,3,14,28,01,32,,,,,,,,,4.6,3.2,3.3*3E
$GPGSV,3,1,11,11,78,205,,01,69,289,31,32,62,227,20,14,40,064,16*78
$GPGSV,3,2,11,19,33,174,,20,31,242,,22,19,065,,28,19,289,14*79
$GPGSV,3,3,11,17,14,319,24,03,04,169,,09,02,003,*46
$GPRMC,185504.000,A,5229.6319,N,01319.4567,E,6.85,300.74,090912,,,A*60
$GPGGA,185505.000,5229.6332,N,01319.4534,E,1,04,3.2,37.4,M,44.8,M,,0000*69
$GPGSA,A,3,14,28,01,32,,,,,,,,,4.7,3.2,3.3*3F
$GPRMC,185505.000,A,5229.6332,N,01319.4534,E,7.51,294.13,090912,,,A*6B
$GPGGA,185506.000,5229.6341,N,01319.4498,E,1,03,3.9,36.9,M,44.8,M,,0000*69
$GPGSA,A,2,14,01,32,,,,,,,,,,4.0,3.9,1.0*39
$GPRMC,185506.000,A,5229.6341,N,01319.4498,E,7.78,283.29,090912,,,A*6F
$GPGGA,185507.000,5229.6347,N,01319.4460,E,1,04,3.2,36.7,M,44.8,M,,0000*6B
$GPGSA,A,3,14,28,01,32,,,,,,,,,4.7,3.2,3.3*3F
$GPRMC,185507.000,A,5229.6347,N,01319.4460,E,8.16,277.68,090912,,,A*66
$GPGGA,185508.000,5229.6352,N,01319.4422,E,1,04,3.2,37.0,M,44.8,M,,0000*60
$GPGSA,A,3,14,28,01,32,,,,,,,,,4.7,3.2,3.3*3F
$GPRMC,185508.000,A,5229.6352,N,01319.4422,E,7.99,272.62,090912,,,A*6C
$GPGGA,185509.000,5229.6351,N,01319.4387,E,1,03,3.9,37.3,M,44.8,M,,0000*65
$GPGSA,A,2,14,01,32,,,,,,,,,,4.0,3.9,1.0*39
$GPGSV,3,1,11,11,78,205,,01,69,289,31,32,62,227,19,14,40,064,15*71
$GPGSV,3,2,11,19,33,174,,20,31,242,,22,19,065,,28,19,289,14*79
$GPGSV,3,3,11,17,14,319,24,03,04,169,,09,02,003,*46
$GPRMC,185509.000,A,5229.6351,N,01319.4387,E,7.38,263.13,090912,,,A*6B
$GPGGA,185510.000,5229.6350,N,01319.4352,E,0,00,,37.6,M,44.8,M,,0000*47
$GPGSA,A,1,,,,,,,,,,,,,,,*1E
$GPRMC,185511.000,A,5229.6342,N,01319.4313,E,8.54,247.82,090912,,,A*66
$GPGGA,185512.000,5229.6333,N,01319.4286,E,1,04,3.2,38.9,M,44.8,M,,0000*62
$GPGSA,A,3,14,28,01,32,,,,,,,,,4.7,3.2,3.3*3F
$GPRMC,185512.000,A,5229.6333,N,01319.4286,E,6.70,243.79,090912,,,A*66
$GPGGA,185513.000,5229.6331,N,01319.4272,E,1,03,3.9,39.3,M,44.8,M,,0000*6D
$GPGSA,A,2,14,01,32,,,,,,,,,,4.0,3.9,1.0*39
$GPRMC,185513.000,A,5229.6331,N,01319.4272,E,3.31,258.18,090912,,,A*63
$GPGGA,185514.000,5229.6329,N,01319.4260,E,0,00,,39.6,M,44.8,M,,0000*43
$GPGSA,A,1,,,,,,,,,,,,,,,*1E
$GPGSV,3,1,11,11,78,205,,01,69,289,31,32,62,227,19,14,40,064,16*72
$GPGSV,3,2,11,19,33,174,,20,31,242,,22,19,065,,28,19,289,13*7E
$GPGSV,3,3,11,17,14,319,24,03,04,169,,09,02,003,*46
$GPRMC,185516.000,A,5229.6330,N,01319.4249,E,1.16,347.91,090912,,,A*66
$GPGGA,185517.000,5229.6324,N,01319.4254,E,1,04,3.2,40.6,M,44.8,M,,0000*6E
$GPGSA,A,3,22,28,01,32,,,,,,,,,4.3,3.2,2.8*34
$GPRMC,185517.000,A,5229.6324,N,01319.4254,E,0.97,170.03,090912,,,A*6B
$GPGGA,185518.000,5229.6315,N,01319.4258,E,1,04,3.2,40.9,M,44.8,M,,0000*60
$GPGSA,A,3,22,28,01,32,,,,,,,,,4.3,3.2,2.8*34
$GPRMC,185518.000,A,5229.6315,N,01319.4258,E,1.56,162.97,090912,,,A*68
$GPGGA,185519.000,5229.6304,N,01319.4265,E,1,04,3.2,41.4,M,44.8,M,,0000*63
$GPGSA,A,3,22,28,01,32,,,,,,,,,4.3,3.2,2.8*34
$GPGSV,3,1,11,11,78,205,,01,69,289,31,32,62,227,18,14,40,064,17*72
$GPGSV,3,2,11,19,33,174,,20,31,242,,22,19,065,17,28,19,289,12*79
$GPGSV,3,3,11,17,14,319,23,03,04,169,,09,02,003,*41
$GPRMC,185519.000,A,5229.6304,N,01319.4265,E,1.87,152.72,090912,,,A*63
$GPGGA,185520.000,5229.6294,N,01319.4272,E,0,00,,41.9,M,44.8,M,,0000*40
$GPGSA,A,1,,,,,,,,,,,,,,,*1E
$GPRMC,185521.000,A,5229.6280,N,01319.4268,E,3.19,198.28,090912,,,A*64
$GPGGA,185522.000,5229.6266,N,01319.4264,E,0,00,,43.0,M,44.8,M,,0000*43
$GPGSA,A,1,,,,,,,,,,,,,,,*1E
$GPRMC,185524.000,A,5229.6232,N,01319.4236,E,7.19,221.81,090912,,,A*65
$GPGGA,185525.000,5229.6211,N,01319.4211,E,0,00,,44.5,M,44.8,M,,0000*44
$GPGSA,A,1,,,,,,,,,,,,,,,*1E
$GPRMC,185526.000,A,5229.6173,N,01319.4150,E,15.71,226.77,090912,,,A*51
$GPGGA,185527.000,5229.6135,N,01319.4095,E,1,03,3.9,45.4,M,44.8,M,,0000*6B
$GPGSA,A,2,22,01,32,,,,,,,,,,4.0,3.9,1.0*3C
$GPRMC,185527.000,A,5229.6135,N,01319.4095,E,14.95,224.43,090912,,,A*54
$GPGGA,185528.000,5229.6112,N,01319.4054,E,1,03,3.9,45.8,M,44.8,M,,0000*60
$GPGSA,A,2,22,01,32,,,,,,,,,,4.0,3.9,1.0*3C
$GPRMC,185528.000,A,5229.6112,N,01319.4054,E,10.14,227.27,090912,,,A*5F
$GPGGA,185529.000,5229.6090,N,01319.4016,E,0,00,,46.2,M,44.8,M,,0000*43
$GPGSA,A,1,,,,,,,,,,,,,,,*1E
$GPGSV,3,1,11,11,78,205,,01,69,289,31,32,62,227,17,14,40,064,17*7D
$GPGSV,3,2,11,19,33,174,,20,31,242,,22,19,065,15,28,19,289,*78
$GPGSV,3,3,11,17,14,319,23,03,04,169,,09,02,003,*41
$GPRMC,185530.000,A,5229.6080,N,01319.3994,E,5.17,231.39,090912,,,A*61
$GPGGA,185531.000,5229.6075,N,01319.3977,E,1,03,3.9,46.7,M,44.8,M,,0000*6B
$GPGSA,A,2,22,01,32,,,,,,,,,,4.0,3.9,1.0*3C
$GPRMC,185531.000,A,5229.6075,N,01319.3977,E,3.96,234.70,090912,,,A*60
$GPGGA,185532.000,5229.6072,N,01319.3960,E,1,03,3.9,47.0,M,44.8,M,,0000*6F
$GPGSA,A,2,22,01,32,,,,,,,,,,4.0,3.9,1.0*3C
$GPRMC,185532.000,A,5229.6072,N,01319.3960,E,3.99,236.84,090912,,,A*64
$GPGGA,185533.000,5229.6073,N,01319.3939,E,1,03,3.9,47.3,M,44.8,M,,0000*60
$GPGSA,A,2,22,01,32,,,,,,,,,,4.0,3.9,1.0*3C
$GPRMC,185533.000,A,5229.6073,N,01319.3939,E,3.75,254.82,090912,,,A*68
$GPGGA,185534.000,5229.6075,N,01319.3919,E,0,00,,47.5,M,44.8,M,,0000*43
$GPGSA,A,1,,,,,,,,,,,,,,,*1E
$GPGSV,3,1,11,11,78,205,,01,69,289,30,32,62,227,17,14,40,064,17*7C
$GPGSV,3,2,11,19,33,174,,20,31,242,,22,19,065,14,28,19,289,*79
$GPGSV,3,3,11,17,14,319,23,03,04,169,,09,02,003,*41
$GPRMC,185535.000,A,5229.6083,N,01319.3896,E,4.19,283.01,090912,,,A*69
$GPGGA,185536.000,5229.6097,N,01319.3871,E,1,03,3.9,48.0,M,44.8,M,,0000*6E
$GPGSA,A,2,22,01,32,,,,,,,,,,4.0,3.9,1.0*3C
$GPRMC,185536.000,A,5229.6097,N,01319.3871,E,4.92,296.86,090912,,,A*6E
$GPGGA,185537.000,5229.6113,N,01319.3847,E,1,03,3.9,48.2,M,44.8,M,,0000*65
$GPGSA,A,2,22,01,32,,,,,,,,,,4.0,3.9,1.0*3C
$GPRMC,185537.000,A,5229.6113,N,01319.3847,E,4.90,300.39,090912,,,A*6F
$GPGGA,185538.000,5229.6126,N,01319.3825,E,1,03,3.9,48.4,M,44.8,M,,0000*6E
$GPGSA,A,2,22,01,32,,,,,,,,,,4.0,3.9,1.0*3C
$GPRMC,185538.000,A,5229.6126,N,01319.3825,E,3.99,298.30,090912,,,A*65
$GPGGA,185539.000,5229.6139,N,01319.3805,E,0,00,,48.6,M,44.8,M,,0000*47
$GPGSA,A,1,,,,,,,,,,,,,,,*1E
$GPGSV,3,1,11,11,78,205,,01,69,289,30,32,62,227,17,14,40,064,17*7C
$GPGSV,3,2,11,19,33,174,,20,31,242,,22,19,065,,28,19,289,*7C
$GPGSV,3,3,11,17,14,319,24,03,04,169,,09,02,003,*46
$GPRMC,185550.000,A,5229.6246,N,01319.3615,E,2.36,325.15,090912,,,A*67
$GPGGA,185551.000,5229.6244,N,01319.3627,E,1,03,4.0,50.5,M,44.8,M,,0000*6C
$GPGSA,A,2,14,01,32,,,,,,,,,,4.1,4.0,1.0*36
$GPRMC,185552.000,A,5229.6238,N,01319.3644,E,1.37,141.71,090912,,,A*68
$GPGGA,185553.000,5229.6239,N,01319.3659,E,1,03,4.0,50.9,M,44.8,M,,0000*61
$GPGSA,A,2,14,01,32,,,,,,,,,,4.1,4.0,1.0*36
$GPRMC,185555.000,A,5229.6245,N,01319.3697,E,1.62,350.90,090912,,,A*66
$GPGGA,185556.000,5229.6249,N,01319.3717,E,1,03,4.0,51.6,M,44.8,M,,0000*66
$GPGSA,A,2,14,01,32,,,,,,,,,,4.1,4.0,1.0*36
$GPRMC,185556.000,A,5229.6249,N,01319.3717,E,1.84,326.31,090912,,,A*62
$GPGGA,185557.000,5229.6250,N,01319.3742,E,1,03,4.0,51.8,M,44.8,M,,0000*61
$GPGSA,A,2,14,01,32,,,,,,,,,,4.1,4.0,1.0*36
$GPRMC,185619.000,A,5229.6280,N,01319.4074,E,1.14,145.34,090912,,,A*61
$GPGGA,185620.000,5229.6277,N,01319.4118,E,1,03,6.4,53.0,M,44.8,M,,0000*65
$GPGSA,A,2,14,28,01,,,,,,,,,,6.5,6.4,1.0*3D
$GPRMC,185620.000,A,5229.6277,N,01319.4118,E,2.51,170.59,090912,,,A*67
$GPGGA,185621.000,5229.6269,N,01319.4160,E,1,05,1.3,51.5,M,44.8,M,,0000*65
$GPGSA,A,3,14,28,19,01,32,,,,,,,,2.4,1.3,2.0*33
$GPRMC,185621.000,A,5229.6269,N,01319.4160,E,2.37,171.99,090912,,,A*6B
$GPGGA,185622.000,5229.6264,N,01319.4199,E,1,04,1.8,49.9,M,44.8,M,,0000*62
$GPGSA,A,3,14,19,01,32,,,,,,,,,2.1,1.8,1.0*34
$GPRMC,185622.000,A,5229.6264,N,01319.4199,E,0.95,169.76,090912,,,A*61
$GPGGA,185623.000,5229.6262,N,01319.4237,E,1,05,1.3,49.2,M,44.8,M,,0000*63
$GPGSA,A,3,14,28,19,01,32,,,,,,,,2.4,1.3,2.0*33
$GPRMC,185624.000,A,5229.6263,N,01319.4269,E,1.57,333.90,090912,,,A*66
$GPGGA,185625.000,5229.6265,N,01319.4292,E,1,04,1.8,48.0,M,44.8,M,,0000*64
$GPGSA,A,3,14,19,01,32,,,,,,,,,2.1,1.8,1.0*34
$GPRMC,185625.000,A,5229.6265,N,01319.4292,E,2.45,299.36,090912,,,A*68
$GPGGA,185626.000,5229.6263,N,01319.4306,E,1,04,1.8,47.8,M,44.8,M,,0000*6A
$GPGSA,A,3,14,19,01,32,,,,,,,,,2.1,1.8,1.0*34
$GPRMC,185626.000,A,5229.6263,N,01319.4306,E,3.24,265.79,090912,,,A*6F
$GPGGA,185627.000,5229.6260,N,01319.4317,E,0,00,,47.7,M,44.8,M,,0000*45
$GPGSA,A,1,,,,,,,,,,,,,,,*1E
$GPRMC,185628.000,A,5229.6256,N,01319.4325,E,3.51,254.70,090912,,,A*6F
$GPGGA,185629.000,5229.6249,N,01319.4333,E,1,05,1.3,47.8,M,44.8,M,,0000*61
$GPGSA,A,3,14,28,19,01,32,,,,,,,,2.4,1.3,2.0*33
$GPGSV,3,1,11,11,78,202,,01,70,289,29,32,63,228,18,14,40,063,15*7F
$GPGSV,3,2,11,19,33,174,15,20,32,242,,28,18,289,14,22,18,065,*7E
$GPGSV,3,3,11,17,14,319,26,03,03,169,,09,02,002,*42
$GPRMC,185629.000,A,5229.6249,N,01319.4333,E,3.36,247.16,090912,,,A*64
$GPGGA,185630.000,5229.6242,N,01319.4344,E,1,05,1.3,48.2,M,44.8,M,,0000*67
$GPGSA,A,3,14,28,19,01,32,,,,,,,,2.4,1.3,2.0*33
$GPRMC,185630.000,A,5229.6242,N,01319.4344,E,2.74,237.24,090912,,,A*66
$GPGGA,185631.000,5229.6235,N,01319.4358,E,1,05,1.3,48.4,M,44.8,M,,0000*6D
$GPGSA,A,3,14,28,19,01,32,,,,,,,,2.4,1.3,2.0*33
$GPRMC,185631.000,A,5229.6235,N,01319.4358,E,2.06,228.36,090912,,,A*62
$GPGGA,185632.000,5229.6231,N,01319.4372,E,1,04,1.4,48.4,M,44.8,M,,0000*64
$GPGSA,A,3,14,28,19,01,,,,,,,,,2.8,1.4,2.4*3D
$GPRMC,185632.000,A,5229.6231,N,01319.4372,E,1.35,251.59,090912,,,A*69
$GPGGA,185633.000,5229.6228,N,01319.4387,E,1,04,6.0,48.1,M,44.8,M,,0000*61
$GPGSA,A,3,28,19,01,32,,,,,,,,,6.7,6.0,3.1*35
$GPRMC,185633.000,A,5229.6228,N,01319.4387,E,0.87,276.92,090912,,,A*60
$GPGGA,185634.000,5229.6226,N,01319.4405,E,1,03,4.7,48.1,M,44.8,M,,0000*67
$GPGSA,A,2,28,01,32,,,,,,,,,,4.8,4.7,1.0*37
$GPGSV,3,1,11,11,78,202,,01,70,289,29,32,63,228,18,14,40,063,14*7E
$GPGSV,3,2,11,19,33,174,15,20,32,242,,28,18,289,14,22,18,065,16*79
$GPGSV,3,3,11,17,14,319,26,03,03,169,,09,02,002,*42
$GPRMC,185636.000,A,5229.6226,N,01319.4441,E,1.00,30.15,090912,,,A*57
$GPGGA,185637.000,5229.6227,N,01319.4458,E,1,04,6.0,48.4,M,44.8,M,,0000*6A
$GPGSA,A,3,28,19,01,32,,,,,,,,,6.7,6.0,3.1*35
$GPRMC,185637.000,A,5229.6227,N,01319.4458,E,0.99,34.02,090912,,,A*5C
$GPGGA,185638.000,5229.6230,N,01319.4473,E,1,04,6.0,48.2,M,44.8,M,,0000*6C
$GPGSA,A,3,28,19,01,32,,,,,,,,,6.7,6.0,3.1*35
$GPRMC,185638.000,A,5229.6230,N,01319.4473,E,1.75,20.70,090912,,,A*5F
$GPGGA,185639.000,5229.6232,N,01319.4488,E,1,04,6.0,48.0,M,44.8,M,,0000*69
$GPGSA,A,3,28,19,01,32,,,,,,,,,6.7,6.0,3.1*35
$GPGSV,3,1,11,11,78,202,,01,70,289,29,32,63,228,19,14,40,063,*7A
$GPGSV,3,2,11,19,33,174,16,20,32,242,,28,18,289,14,22,18,065,16*7A
$GPGSV,3,3,11,17,14,319,26,03,03,169,,09,02,002,*42
$GPRMC,185639.000,A,5229.6232,N,01319.4488,E,1.21,43.23,090912,,,A*5A
$GPGGA,185640.000,5229.6231,N,01319.4502,E,1,05,5.3,47.8,M,44.8,M,,0000*61
$GPGSA,A,3,28,19,01,32,11,,,,,,,,6.1,5.3,3.1*33
$GPRMC,185641.000,A,5229.6228,N,01319.4516,E,1.45,151.09,090912,,,A*60
$GPGGA,185642.000,5229.6222,N,01319.4531,E,1,05,5.3,48.2,M,44.8,M,,0000*64
$GPGSA,A,3,28,19,01,32,11,,,,,,,,6.2,5.3,3.1*30
$GPRMC,185642.000,A,5229.6222,N,01319.4531,E,2.49,154.64,090912,,,A*6D
$GPGGA,185643.000,5229.6214,N,01319.4548,E,1,04,4.3,48.9,M,44.8,M,,0000*65
$GPGSA,A,3,28,01,32,11,,,,,,,,,4.4,4.3,1.0*3E
$GPRMC,185643.000,A,5229.6214,N,01319.4548,E,3.32,150.02,090912,,,A*6E
$GPGGA,185644.000,5229.6207,N,01319.4565,E,1,05,5.3,49.8,M,44.8,M,,0000*6F
$GPGSA,A,3,28,19,01,32,11,,,,,,,,6.2,5.3,3.1*30
$GPGSV,3,1,11,11,78,202,16,01,70,289,29,32,63,228,19,14,40,063,*7D
$GPGSV,3,2,11,19,33,174,16,20,32,242,,28,18,289,14,22,18,065,16*7A
$GPGSV,3,3,11,17,14,319,26,03,03,169,,09,02,002,*42
$GPRMC,185644.000,A,5229.6207,N,01319.4565,E,3.03,145.24,090912,,,A*66
$GPGGA,185645.000,5229.6202,N,01319.4581,E,1,05,5.3,51.0,M,44.8,M,,0000*60
$GPGSA,A,3,28,19,01,32,11,,,,,,,,6.2,5.3,3.1*30
$GPRMC,185645.000,A,5229.6202,N,01319.4581,E,2.60,143.68,090912,,,A*62
$GPGGA,185646.000,5229.6198,N,01319.4595,E,1,05,5.3,52.3,M,44.8,M,,0000*66
$GPGSA,A,3,28,19,01,32,11,,,,,,,,6.2,5.3,3.1*30
$GPRMC,185646.000,A,5229.6198,N,01319.4595,E,2.01,143.12,090912,,,A*6E
$GPGGA,185647.000,5229.6196,N,01319.4606,E,1,04,6.1,53.8,M,44.8,M,,0000*6A
$GPGSA,A,3,19,01,32,11,,,,,,,,,9.3,6.1,7.0*30
$GPRMC,185647.000,A,5229.6196,N,01319.4606,E,1.54,151.34,090912,,,A*6C
$GPGGA,185648.000,5229.6194,N,01319.4615,E,1,05,5.3,55.4,M,44.8,M,,0000*6F
$GPGSA,A,3,28,19,01,32,11,,,,,,,,6.2,5.3,3.1*30
$GPRMC,185648.000,A,5229.6194,N,01319.4615,E,1.01,161.77,090912,,,A*67
$GPGGA,185649.000,5229.6194,N,01319.4624,E,1,05,5.3,57.0,M,44.8,M,,0000*6A
$GPGSA,A,3,28,19,01,32,11,,,,,,,,6.2,5.3,3.1*30
$GPGSV,3,1,11,11,78,202,17,01,70,289,28,32,63,228,19,14,40,063,*7D
$GPGSV,3,2,11,19,33,174,17,20,32,242,,28,18,289,13,22,18,065,16*7C
$GPGSV,3,3,11,17,14,319,25,03,03,169,,09,02,002,*41
$GPRMC,185652.000,A,5229.6200,N,01319.4649,E,1.52,34.79,090912,,,A*52
$GPGGA,185653.000,5229.6205,N,01319.4657,E,1,05,5.3,63.1,M,44.8,M,,0000*68
$GPGSA,A,3,28,19,01,32,11,,,,,,,,6.2,5.3,3.1*30
$GPRMC,185653.000,A,5229.6205,N,01319.4657,E,1.50,35.53,090912,,,A*52
$GPGGA,185654.000,5229.6208,N,01319.4662,E,1,05,5.4,64.4,M,44.8,M,,0000*61
$GPGSA,A,3,28,19,01,32,11,,,,,,,,6.2,5.4,3.1*37
$GPGSV,3,1,11,11,78,202,16,01,70,289,28,32,63,228,20,14,40,063,*76
$GPGSV,3,2,11,19,33,174,18,20,32,242,,28,18,289,13,22,18,065,16*73
$GPGSV,3,3,11,17,14,319,25,03,03,169,,09,02,002,*41
$GPRMC,185654.000,A,5229.6208,N,01319.4662,E,0.96,15.77,090912,,,A*51
$GPGGA,185655.000,5229.6211,N,01319.4664,E,1,04,4.3,65.5,M,44.8,M,,0000*69
$GPGSA,A,3,28,01,32,11,,,,,,,,,4.4,4.3,1.0*3E
$GPRMC,185656.000,A,5229.6214,N,01319.4663,E,0.92,311.14,090912,,,A*69
$GPGGA,185657.000,5229.6215,N,01319.4661,E,1,05,5.4,67.2,M,44.8,M,,0000*68
$GPGSA,A,3,28,19,01,32,11,,,,,,,,6.2,5.4,3.1*37
$GPRMC,185657.000,A,5229.6215,N,01319.4661,E,1.02,266.09,090912,,,A*6E
$GPGGA,185658.000,5229.6216,N,01319.4660,E,1,05,5.4,67.7,M,44.8,M,,0000*60
$GPGSA,A,3,28,19,01,32,11,,,,,,,,6.2,5.4,3.1*37
$GPRMC,185701.000,A,5229.6222,N,01319.4661,E,1.08,352.78,090912,,,A*62
$GPGGA,185702.000,5229.6225,N,01319.4661,E,1,04,6.0,68.7,M,44.8,M,,0000*66
$GPGSA,A,3,28,19,01,32,,,,,,,,,6.8,6.0,3.1*3A
$GPRMC,185708.000,A,5229.6241,N,01319.4658,E,1.16,355.21,090912,,,A*60
$GPGGA,185709.000,5229.6244,N,01319.4653,E,1,05,5.4,71.8,M,44.8,M,,0000*6A
$GPGSA,A,3,28,19,01,32,11,,,,,,,,6.2,5.4,3.1*37
$GPGSV,3,1,11,11,78,202,17,01,70,289,27,32,63,228,20,14,40,063,*78
$GPGSV,3,2,11,19,33,174,20,20,32,242,,28,18,289,16,22,18,065,19*72
$GPGSV,3,3,11,17,14,319,25,03,03,169,,09,02,002,*41
$GPRMC,185709.000,A,5229.6244,N,01319.4653,E,1.01,290.50,090912,,,A*67
$GPGGA,185710.000,5229.6247,N,01319.4650,E,1,05,5.4,71.8,M,44.8,M,,0000*62
$GPGSA,A,3,28,19,01,32,11,,,,,,,,6.2,5.4,3.1*37
$GPRMC,185710.000,A,5229.6247,N,01319.4650,E,0.96,309.62,090912,,,A*60
$GPGGA,185711.000,5229.6249,N,01319.4651,E,1,05,5.4,72.0,M,44.8,M,,0000*67
$GPGSA,A,3,28,19,01,32,11,,,,,,,,6.2,5.4,3.1*37
$GPRMC,185715.000,A,5229.6257,N,01319.4650,E,0.83,312.09,090912,,,A*67
$GPGGA,185716.000,5229.6259,N,01319.4651,E,1,06,1.3,72.1,M,44.8,M,,0000*60
$GPGSA,A,3,28,19,22,01,32,11,,,,,,,2.0,1.3,1.6*37
$GPRMC,185718.000,A,5229.6260,N,01319.4656,E,0.93,93.74,090912,,,A*59
$GPGGA,185719.000,5229.6261,N,01319.4657,E,1,06,1.3,73.3,M,44.8,M,,0000*61
$GPGSA,A,3,28,19,22,01,32,11,,,,,,,2.0,1.3,1.6*37
$GPGSV,3,1,11,11,78,202,18,01,70,289,26,32,63,228,21,14,40,063,*77
$GPGSV,3,2,11,19,33,174,20,20,32,242,,28,18,289,16,22,18,065,21*79
$GPGSV,3,3,11,17,14,319,25,03,03,169,,09,02,002,*41
$GPRMC,185727.000,A,5229.6265,N,01319.4655,E,0.84,177.01,090912,,,A*6C
$GPGGA,185728.000,5229.6263,N,01319.4654,E,1,05,5.4,69.7,M,44.8,M,,0000*6D
$GPGSA,A,3,28,19,01,32,11,,,,,,,,6.2,5.4,3.1*37
$GPRMC,185729.000,A,5229.6258,N,01319.4654,E,1.28,170.62,090912,,,A*68
$GPGGA,185730.000,5229.6253,N,01319.4653,E,1,05,5.4,67.7,M,44.8,M,,0000*6E
$GPGSA,A,3,28,19,01,32,11,,,,,,,,6.2,5.4,3.1*37
$GPRMC,185730.000,A,5229.6253,N,01319.4653,E,1.75,182.74,090912,,,A*6E
$GPGGA,185731.000,5229.6246,N,01319.4653,E,1,05,5.4,66.6,M,44.8,M,,0000*6B
$GPGSA,A,3,28,19,01,32,11,,,,,,,,6.2,5.4,3.1*37
$GPRMC,185731.000,A,5229.6246,N,01319.4653,E,2.25,179.80,090912,,,A*62
$GPGGA,185732.000,5229.6242,N,01319.4652,E,1,05,5.4,65.6,M,44.8,M,,0000*6E
$GPGSA,A,3,28,19,01,32,11,,,,,,,,6.2,5.4,3.1*37
$GPRMC,185732.000,A,5229.6242,N,01319.4652,E,1.32,186.77,090912,,,A*69
$GPGGA,185733.000,5229.6239,N,01319.4648,E,1,05,5.4,64.6,M,44.8,M,,0000*69
$GPGSA,A,3,28,19,01,32,11,,,,,,,,6.2,5.4,3.1*37
$GPRMC,185733.000,A,5229.6239,N,01319.4648,E,1.01,239.95,090912,,,A*64
$GPGGA,185734.000,5229.6234,N,01319.4643,E,1,05,5.4,63.7,M,44.8,M,,0000*6E
$GPGSA,A,3,28,19,01,32,11,,,,,,,,6.2,5.4,3.1*37
$GPGSV,3,1,11,11,78,202,19,01,70,289,27,32,63,228,21,14,40,063,*77
$GPGSV,3,2,11,19,33,174,20,20,32,242,,28,18,289,19,22,18,065,20*77
$GPGSV,3,3,11,17,14,319,26,03,03,169,,09,02,002,*42
$GPRMC,185734.000,A,5229.6234,N,01319.4643,E,1.53,224.94,090912,,,A*6F
$GPGGA,185735.000,5229.6230,N,01319.4639,E,1,05,5.4,62.9,M,44.8,M,,0000*69
$GPGSA,A,3,28,19,01,32,11,,,,,,,,6.2,5.4,3.1*37
$GPRMC,185735.000,A,5229.6230,N,01319.4639,E,1.54,232.13,090912,,,A*68
$GPGGA,185736.000,5229.6227,N,01319.4637,E,1,05,5.4,62.1,M,44.8,M,,0000*6A
$GPGSA,A,3,28,19,01,32,11,,,,,,,,6.2,5.4,3.1*37
$GPRMC,185736.000,A,5229.6227,N,01319.4637,E,1.09,217.97,090912,,,A*60
$GPGGA,185737.000,5229.6225,N,01319.4636,E,1,05,5.4,61.7,M,44.8,M,,0000*6D
$GPGSA,A,3,28,19,01,32,11,,,,,,,,6.2,5.4,3.1*37
$GPRMC,185741.000,A,5229.6223,N,01319.4643,E,1.00,47.99,090912,,,A*57
$GPGGA,185742.000,5229.6226,N,01319.4652,E,1,05,5.4,60.0,M,44.8,M,,0000*68
$GPGSA,A,3,28,19,01,32,11,,,,,,,,6.2,5.4,3.1*37
$GPRMC,185742.000,A,5229.6226,N,01319.4652,E,1.91,50.31,090912,,,A*5D
$GPGGA,185743.000,5229.6230,N,01319.4660,E,1,05,5.4,59.9,M,44.8,M,,0000*6C
$GPGSA,A,3,28,19,01,32,11,,,,,,,,6.2,5.4,3.1*37
$GPRMC,185743.000,A,5229.6230,N,01319.4660,E,2.26,46.56,090912,,,A*53
$GPGGA,185744.000,5229.6235,N,01319.4666,E,1,05,5.4,59.9,M,44.8,M,,0000*68
$GPGSA,A,3,28,19,01,32,11,,,,,,,,6.3,5.4,3.1*36
$GPGSV,3,1,11,11,78,202,18,01,70,289,27,32,63,228,21,14,40,063,*76
$GPGSV,3,2,11,19,33,174,19,20,32,242,,28,18,289,20,22,18,065,19*7D
$GPGSV,3,3,11,17,14,319,27,03,03,169,,09,02,002,*43
$GPRMC,185744.000,A,5229.6235,N,01319.4666,E,1.53,36.31,090912,,,A*50
$GPGGA,185745.000,5229.6238,N,01319.4668,E,1,05,5.4,59.9,M,44.8,M,,0000*6A
$GPGSA,A,3,28,19,01,32,11,,,,,,,,6.3,5.4,3.1*36
$GPRMC,185745.000,A,5229.6238,N,01319.4668,E,0.82,14.32,090912,,,A*5C
$GPGGA,185746.000,5229.6239,N,01319.4667,E,1,05,5.4,59.6,M,44.8,M,,0000*68
$GPGSA,A,3,28,19,01,32,11,,,,,,,,6.3,5.4,3.1*36
$GPRMC,185750.000,A,5229.6240,N,01319.4669,E,0.88,186.03,090912,,,A*64
$GPGGA,185751.000,5229.6236,N,01319.4667,E,1,05,5.4,58.1,M,44.8,M,,0000*67
$GPGSA,A,3,28,19,01,32,11,,,,,,,,6.3,5.4,3.1*36
$GPRMC,185751.000,A,5229.6236,N,01319.4667,E,1.48,190.97,090912,,,A*6D
$GPGGA,185752.000,5229.6232,N,01319.4663,E,1,05,5.4,58.1,M,44.8,M,,0000*64
$GPGSA,A,3,28,19,01,32,11,,,,,,,,6.3,5.4,3.1*36
$GPRMC,185752.000,A,5229.6232,N,01319.4663,E,1.57,220.51,090912,,,A*62
$GPGGA,185753.000,5229.6231,N,01319.4657,E,1,05,5.4,58.2,M,44.8,M,,0000*62
$GPGSA,A,3,28,19,01,32,11,,,,,,,,6.3,5.4,3.1*36
$GPRMC,185753.000,A,5229.6231,N,01319.4657,E,1.45,258.84,090912,,,A*63
$GPGGA,185754.000,5229.6229,N,01319.4653,E,1,05,5.4,58.2,M,44.8,M,,0000*68
$GPGSA,A,3,28,19,01,32,11,,,,,,,,6.3,5.4,3.1*36
$GPGSV,3,1,11,11,78,202,16,01,70,289,27,32,63,228,20,14,40,063,*79
$GPGSV,3,2,11,19,33,174,19,20,32,242,,28,18,289,20,22,18,065,17*73
$GPGSV,3,3,11,17,14,319,26,03,03,169,,09,02,002,*42
$GPRMC,185754.000,A,5229.6229,N,01319.4653,E,1.25,251.58,090912,,,A*67
$GPGGA,185755.000,5229.6227,N,01319.4651,E,1,05,5.4,58.2,M,44.8,M,,0000*65
$GPGSA,A,3,28,19,01,32,11,,,,,,,,6.3,5.4,3.1*36
$GPRMC,185755.000,A,5229.6227,N,01319.4651,E,1.07,220.48,090912,,,A*6D
$GPGGA,185756.000,5229.6226,N,01319.4650,E,1,05,5.4,58.1,M,44.8,M,,0000*65
$GPGSA,A,3,28,19,01,32,11,,,,,,,,6.3,5.4,3.1*36
$GPRMC,185757.000,A,5229.6229,N,01319.4648,E,0.85,313.49,090912,,,A*62
$GPGGA,185758.000,5229.6231,N,01319.4646,E,1,05,5.4,58.1,M,44.8,M,,0000*6A
$GPGSA,A,3,28,19,01,32,11,,,,,,,,6.3,5.4,3.1*36
$GPRMC,185758.000,A,5229.6231,N,01319.4646,E,0.83,308.08,090912,,,A*63
$GPGGA,185759.000,5229.6233,N,01319.4645,E,1,05,5.4,58.3,M,44.8,M,,0000*68
$GPGSA,A,3,28,19,01,32,11,,,,,,,,6.3,5.4,3.1*36
$GPGSV,3,1,11,11,78,202,15,01,70,289,27,32,63,228,20,14,40,063,*7A
$GPGSV,3,2,11,19,33,174,20,20,32,242,,28,18,289,20,22,18,065,17*79
$GPGSV,3,3,11,17,14,319,26,03,03,169,,09,02,002,*42
$GPRMC,185801.000,A,5229.6238,N,01319.4639,E,0.98,311.45,090912,,,A*6A
$GPGGA,185802.000,5229.6241,N,01319.4640,E,1,04,6.1,60.4,M,44.8,M,,0000*62
$GPGSA,A,3,28,19,01,32,,,,,,,,,6.9,6.1,3.1*3A
$GPRMC,185803.000,A,5229.6245,N,01319.4642,E,1.19,29.73,090912,,,A*5B
$GPGGA,185804.000,5229.6248,N,01319.4646,E,1,05,5.4,62.5,M,44.8,M,,0000*6F
$GPGSA,A,3,28,19,01,32,11,,,,,,,,6.3,5.4,3.1*36
$GPGSV,3,1,11,11,78,202,14,01,70,289,27,32,63,228,20,14,40,063,*7B
$GPGSV,3,2,11,19,33,174,20,20,32,242,,28,18,289,21,22,18,065,17*78
$GPGSV,3,3,11,17,14,319,25,03,03,169,,09,02,002,*41
$GPRMC,185804.000,A,5229.6248,N,01319.4646,E,1.45,66.01,090912,,,A*52
$GPGGA,185805.000,5229.6251,N,01319.4646,E,1,05,5.4,63.6,M,44.8,M,,0000*64
$GPGSA,A,3,28,19,01,32,11,,,,,,,,6.3,5.4,3.1*36
$GPRMC,185805.000,A,5229.6251,N,01319.4646,E,0.86,26.87,090912,,,A*5F
$GPGGA,185806.000,5229.6256,N,01319.4645,E,1,05,5.5,64.8,M,44.8,M,,0000*6B
$GPGSA,A,3,28,19,01,32,11,,,,,,,,6.3,5.5,3.1*37
$GPRMC,185806.000,A,5229.6256,N,01319.4645,E,1.21,14.48,090912,,,A*56
$GPGGA,185807.000,5229.6256,N,01319.4643,E,1,04,6.1,66.2,M,44.8,M,,0000*62
$GPGSA,A,3,28,19,01,32,,,,,,,,,6.9,6.1,3.2*39
$GPRMC,185808.000,A,5229.6255,N,01319.4643,E,1.07,154.40,090912,,,A*64
$GPGGA,185809.000,5229.6257,N,01319.4643,E,1,04,6.1,69.0,M,44.8,M,,0000*60
$GPGSA,A,3,28,19,01,32,,,,,,,,,6.9,6.1,3.2*39
$GPGSV,3,1,11,11,77,197,13,01,71,289,28,32,64,228,19,14,39,062,*70
$GPGSV,3,2,11,20,33,243,,19,31,174,21,28,18,288,22,22,17,066,17*75
$GPGSV,3,3,11,17,15,319,25,03,02,169,,09,02,001,*42
$GPRMC,185810.000,A,5229.6261,N,01319.4642,E,0.93,27.47,090912,,,A*55
$GPGGA,185811.000,5229.6265,N,01319.4641,E,1,04,6.1,71.7,M,44.8,M,,0000*64
$GPGSA,A,3,28,19,01,32,,,,,,,,,6.9,6.1,3.2*39
$GPRMC,185815.000,A,5229.6270,N,01319.4625,E,0.81,260.32,090912,,,A*61
$GPGGA,185816.000,5229.6269,N,01319.4619,E,1,04,6.1,76.6,M,44.8,M,,0000*64
$GPGSA,A,3,28,19,01,32,,,,,,,,,6.9,6.1,3.2*39
$GPRMC,185816.000,A,5229.6269,N,01319.4619,E,0.85,231.07,090912,,,A*63
$GPGGA,185817.000,5229.6267,N,01319.4613,E,1,04,6.1,77.1,M,44.8,M,,0000*67
$GPGSA,A,3,28,19,01,32,,,,,,,,,6.9,6.1,3.2*39
$GPRMC,185817.000,A,5229.6267,N,01319.4613,E,1.10,220.66,090912,,,A*6C
$GPGGA,185818.000,5229.6267,N,01319.4608,E,1,04,6.1,77.6,M,44.8,M,,0000*65
$GPGSA,A,3,28,19,01,32,,,,,,,,,6.9,6.1,3.2*39
$GPRMC,185820.000,A,5229.6263,N,01319.4595,E,1.40,213.29,090912,,,A*6F
$GPGGA,185821.000,5229.6258,N,01319.4591,E,1,04,6.1,79.0,M,44.8,M,,0000*68
$GPGSA,A,3,28,19,01,32,,,,,,,,,6.9,6.1,3.2*39
$GPRMC,185821.000,A,5229.6258,N,01319.4591,E,1.60,184.52,090912,,,A*61
$GPGGA,185822.000,5229.6255,N,01319.4588,E,1,04,6.1,79.5,M,44.8,M,,0000*6B
$GPGSA,A,3,28,19,01,32,,,,,,,,,6.9,6.1,3.2*39
$GPRMC,185824.000,A,5229.6251,N,01319.4586,E,0.89,91.04,090912,,,A*5B
$GPGGA,185825.000,5229.6249,N,01319.4584,E,1,04,6.1,80.6,M,44.8,M,,0000*68
$GPGSA,A,3,28,19,01,32,,,,,,,,,6.9,6.1,3.2*39
$GPRMC,185830.000,A,5229.6246,N,01319.4563,E,0.99,345.55,090912,,,A*6C
$GPGGA,185831.000,5229.6248,N,01319.4557,E,1,04,6.1,80.9,M,44.8,M,,0000*6D
$GPGSA,A,3,28,19,01,32,,,,,,,,,6.9,6.1,3.2*39
$GPRMC,185831.000,A,5229.6248,N,01319.4557,E,1.11,308.23,090912,,,A*6D
$GPGGA,185832.000,5229.6250,N,01319.4553,E,1,04,6.1,80.7,M,44.8,M,,0000*6D
$GPGSA,A,3,28,19,01,32,,,,,,,,,6.9,6.1,3.2*39
$GPRMC,185834.000,A,5229.6246,N,01319.4547,E,0.81,204.12,090912,,,A*60
$GPGGA,185835.000,5229.6242,N,01319.4544,E,1,04,6.1,79.4,M,44.8,M,,0000*6A
$GPGSA,A,3,28,19,01,32,,,,,,,,,6.9,6.1,3.2*39
$GPRMC,185835.000,A,5229.6242,N,01319.4544,E,1.37,197.70,090912,,,A*67
$GPGGA,185836.000,5229.6239,N,01319.4542,E,1,04,6.1,79.0,M,44.8,M,,0000*67
$GPGSA,A,3,28,19,01,32,,,,,,,,,6.9,6.1,3.2*39
$GPRMC,185837.000,A,5229.6239,N,01319.4545,E,0.92,66.83,090912,,,A*55
$GPGGA,185838.000,5229.6238,N,01319.4547,E,1,04,6.1,78.2,M,44.8,M,,0000*6E
$GPGSA,A,3,28,19,01,32,,,,,,,,,6.9,6.1,3.2*39
$GPRMC,185841.000,A,5229.6236,N,01319.4549,E,1.01,48.15,090912,,,A*5F
$GPGGA,185842.000,5229.6233,N,01319.4551,E,1,04,6.1,76.7,M,44.8,M,,0000*64
$GPGSA,A,3,28,19,01,32,,,,,,,,,6.9,6.1,3.2*39
$GPRMC,185843.000,A,5229.6229,N,01319.4549,E,0.85,183.50,090912,,,A*69
$GPGGA,185844.000,5229.6226,N,01319.4549,E,1,04,6.1,75.7,M,44.8,M,,0000*6C
$GPGSA,A,3,28,19,01,32,,,,,,,,,6.9,6.1,3.2*39
$GPGSV,3,1,11,11,77,197,,01,71,289,28,32,64,228,20,14,39,062,*78
$GPGSV,3,2,11,20,33,243,,19,31,174,19,28,18,288,25,22,17,066,18*76
$GPGSV,3,3,11,17,15,319,24,03,02,169,,09,02,001,*43
$GPRMC,185854.000,A,5229.6207,N,01319.4550,E,1.21,174.72,090912,,,A*6C
$GPGGA,185855.000,5229.6205,N,01319.4552,E,1,04,6.2,69.6,M,44.8,M,,0000*68
$GPGSA,A,3,28,19,01,32,,,,,,,,,6.9,6.2,3.2*3A
$GPRMC,185859.000,A,5229.6203,N,01319.4558,E,0.97,39.29,090912,,,A*57
$GPGGA,185900.000,5229.6203,N,01319.4560,E,1,04,6.2,66.8,M,44.8,M,,0000*6F
$GPGSA,A,3,28,19,01,32,,,,,,,,,7.0,6.2,3.2*32
$GPRMC,185902.000,A,5229.6208,N,01319.4557,E,0.98,324.12,090912,,,A*64
$GPGGA,185903.000,5229.6207,N,01319.4556,E,1,04,6.2,65.8,M,44.8,M,,0000*6E
$GPGSA,A,3,28,19,01,32,,,,,,,,,7.0,6.2,3.2*32
$GPRMC,185904.000,A,5229.6204,N,01319.4553,E,1.25,228.71,090912,,,A*65
$GPGGA,185905.000,5229.6200,N,01319.4547,E,1,04,6.2,65.1,M,44.8,M,,0000*66
$GPGSA,A,3,28,19,01,32,,,,,,,,,7.0,6.2,3.2*32
$GPRMC,185905.000,A,5229.6200,N,01319.4547,E,2.19,223.94,090912,,,A*69
$GPGGA,185906.000,5229.6195,N,01319.4540,E,1,04,6.2,64.9,M,44.8,M,,0000*64
$GPGSA,A,3,28,19,01,32,,,,,,,,,7.0,6.2,3.2*32
$GPRMC,185906.000,A,5229.6195,N,01319.4540,E,2.62,225.79,090912,,,A*6B
$GPGGA,185907.000,5229.6192,N,01319.4537,E,1,04,6.2,64.7,M,44.8,M,,0000*6C
$GPGSA,A,3,28,19,01,32,,,,,,,,,7.0,6.2,3.2*32
$GPRMC,185907.000,A,5229.6192,N,01319.4537,E,1.29,235.65,090912,,,A*6D
$GPGGA,185908.000,5229.6192,N,01319.4537,E,1,04,6.2,64.5,M,44.8,M,,0000*61
$GPGSA,A,3,28,19,01,32,,,,,,,,,7.0,6.2,3.2*32
$GPRMC,185911.000,A,5229.6192,N,01319.4550,E,1.29,68.51,090912,,,A*56
$GPGGA,185912.000,5229.6192,N,01319.4556,E,1,04,6.2,64.2,M,44.8,M,,0000*6A
$GPGSA,A,3,28,19,01,32,,,,,,,,,7.0,6.2,3.2*32
$GPRMC,185912.000,A,5229.6192,N,01319.4556,E,1.05,85.52,090912,,,A*5D
$GPGGA,185913.000,5229.6194,N,01319.4563,E,1,04,6.2,63.9,M,44.8,M,,0000*67
$GPGSA,A,3,28,19,01,32,,,,,,,,,7.0,6.2,3.2*32
$GPRMC,185913.000,A,5229.6194,N,01319.4563,E,1.38,82.63,090912,,,A*57
$GPGGA,185914.000,5229.6198,N,01319.4571,E,1,04,6.2,63.5,M,44.8,M,,0000*63
$GPGSA,A,3,28,19,01,32,,,,,,,,,7.0,6.2,3.2*32
$GPGSV,3,1,12,11,77,195,,01,72,289,29,32,65,228,21,14,39,061,*78
$GPGSV,3,2,12,20,33,243,,19,31,174,18,28,18,287,25,22,17,066,16*75
$GPGSV,3,3,12,17,15,319,24,03,02,169,,09,02,001,,31,00,115,*77
$GPRMC,185914.000,A,5229.6198,N,01319.4571,E,1.81,48.94,090912,,,A*53
$GPGGA,185915.000,5229.6201,N,01319.4575,E,1,04,6.2,63.0,M,44.8,M,,0000*60
$GPGSA,A,3,28,19,01,32,,,,,,,,,7.0,6.2,3.2*32
$GPRMC,185915.000,A,5229.6201,N,01319.4575,E,1.00,33.12,090912,,,A*5E
$GPGGA,185916.000,5229.6203,N,01319.4578,E,1,04,6.2,62.4,M,44.8,M,,0000*69
$GPGSA,A,3,28,19,01,32,,,,,,,,,7.0,6.2,3.2*32
$GPRMC,185919.000,A,5229.6205,N,01319.4575,E,1.02,276.07,090912,,,A*63
$GPGGA,185920.000,5229.6206,N,01319.4569,E,1,04,6.2,60.9,M,44.8,M,,0000*66
$GPGSA,A,3,28,19,01,32,,,,,,,,,7.0,6.2,3.2*32
$GPRMC,185920.000,A,5229.6206,N,01319.4569,E,1.46,269.66,090912,,,A*6E
$GPGGA,185921.000,5229.6207,N,01319.4563,E,1,04,6.2,60.6,M,44.8,M,,0000*63
$GPGSA,A,3,28,19,01,32,,,,,,,,,7.0,6.2,3.2*32
$GPRMC,185921.000,A,5229.6207,N,01319.4563,E,1.54,285.60,090912,,,A*63
$GPGGA,185922.000,5229.6210,N,01319.4565,E,1,04,3.6,60.3,M,44.8,M,,0000*64
$GPGSA,A,3,14,28,01,32,,,,,,,,,4.9,3.6,3.4*32
$GPRMC,185922.000,A,5229.6210,N,01319.4565,E,1.03,3.78,090912,,,A*67
$GPGGA,185923.000,5229.6214,N,01319.4568,E,1,05,1.3,60.2,M,44.8,M,,0000*6B
$GPGSA,A,3,14,28,19,01,32,,,,,,,,2.4,1.3,1.9*39
$GPRMC,185923.000,A,5229.6214,N,01319.4568,E,1.81,21.98,090912,,,A*5B
$GPGGA,185924.000,5229.6217,N,01319.4573,E,1,04,3.6,60.1,M,44.8,M,,0000*60
$GPGSA,A,3,14,28,01,32,,,,,,,,,4.9,3.6,3.4*32
$GPGSV,3,1,12,11,77,195,,01,72,289,29,32,65,228,21,14,39,061,17*7E
$GPGSV,3,2,12,20,33,243,,19,31,174,17,28,18,287,25,22,17,066,*7D
$GPGSV,3,3,12,17,15,319,23,03,02,169,,09,02,001,,31,00,115,*70
$GPRMC,185924.000,A,5229.6217,N,01319.4573,E,1.37,41.23,090912,,,A*5E
$GPGGA,185925.000,5229.6221,N,01319.4581,E,1,05,1.3,60.1,M,44.8,M,,0000*6F
$GPGSA,A,3,14,28,19,01,32,,,,,,,,2.4,1.3,1.9*39
$GPRMC,185925.000,A,5229.6221,N,01319.4581,E,1.91,53.22,090912,,,A*59
$GPGGA,185926.000,5229.6226,N,01319.4593,E,1,05,1.3,60.3,M,44.8,M,,0000*6A
$GPGSA,A,3,14,28,19,01,32,,,,,,,,2.4,1.3,1.9*39
$GPRMC,185926.000,A,5229.6226,N,01319.4593,E,2.65,56.94,090912,,,A*5E
$GPGGA,185927.000,5229.6231,N,01319.4606,E,1,05,1.3,60.3,M,44.8,M,,0000*62
$GPGSA,A,3,14,28,19,01,32,,,,,,,,2.4,1.3,1.9*39
$GPRMC,185927.000,A,5229.6231,N,01319.4606,E,2.97,58.52,090912,,,A*5F
$GPGGA,185928.000,5229.6237,N,01319.4620,E,1,05,1.3,60.3,M,44.8,M,,0000*6F
$GPGSA,A,3,14,28,19,01,32,,,,,,,,2.4,1.3,1.9*39
$GPRMC,185928.000,A,5229.6237,N,01319.4620,E,3.12,57.07,090912,,,A*51
$GPGGA,185929.000,5229.6241,N,01319.4632,E,1,04,3.6,60.1,M,44.8,M,,0000*68
$GPGSA,A,3,14,28,01,32,,,,,,,,,5.0,3.6,3.4*3A
$GPGSV,3,1,12,11,77,195,,01,72,289,29,32,65,228,21,14,39,061,16*7F
$GPGSV,3,2,12,20,33,243,,19,31,174,18,28,18,287,25,22,17,066,*72
$GPGSV,3,3,12,17,15,319,22,03,02,169,,09,02,001,,31,00,115,*71
$GPRMC,185929.000,A,5229.6241,N,01319.4632,E,2.38,60.91,090912,,,A*50
$GPGGA,185930.000,5229.6245,N,01319.4639,E,1,05,1.3,59.9,M,44.8,M,,0000*6B
$GPGSA,A,3,14,28,19,01,32,,,,,,,,2.3,1.3,1.9*3E
$GPRMC,185930.000,A,5229.6245,N,01319.4639,E,1.55,50.87,090912,,,A*5B
$GPGGA,185931.000,5229.6247,N,01319.4640,E,1,05,1.3,59.7,M,44.8,M,,0000*68
$GPGSA,A,3,14,28,19,01,32,,,,,,,,2.3,1.3,1.9*3E
$GPRMC,185933.000,A,5229.6251,N,01319.4635,E,0.97,283.58,090912,,,A*60
$GPGGA,185934.000,5229.6252,N,01319.4629,E,1,05,1.3,59.5,M,44.8,M,,0000*64
$GPGSA,A,3,14,28,19,01,32,,,,,,,,2.3,1.3,1.9*3E
$GPGSV,3,1,12,11,77,195,,01,72,289,29,32,65,228,21,14,39,061,16*7F
$GPGSV,3,2,12,20,33,243,,19,31,174,17,28,18,287,25,22,17,066,*7D
$GPGSV,3,3,12,17,15,319,21,03,02,169,,09,02,001,,31,00,115,*72
$GPRMC,185934.000,A,5229.6252,N,01319.4629,E,1.39,267.96,090912,,,A*64
$GPGGA,185935.000,5229.6252,N,01319.4620,E,1,05,1.3,59.7,M,44.8,M,,0000*6E
$GPGSA,A,3,14,28,19,01,32,,,,,,,,2.3,1.3,1.9*3E
$GPRMC,185935.000,A,5229.6252,N,01319.4620,E,1.78,262.53,090912,,,A*65
$GPGGA,185936.000,5229.6249,N,01319.4614,E,1,05,1.3,60.0,M,44.8,M,,0000*6D
$GPGSA,A,3,14,28,19,01,32,,,,,,,,2.3,1.3,1.9*3E
$GPRMC,185936.000,A,5229.6249,N,01319.4614,E,1.60,234.57,090912,,,A*65
$GPGGA,185937.000,5229.6249,N,01319.4609,E,1,05,1.3,60.5,M,44.8,M,,0000*65
$GPGSA,A,3,14,28,19,01,32,,,,,,,,2.3,1.3,1.9*3E
$GPRMC,185937.000,A,5229.6249,N,01319.4609,E,0.89,250.96,090912,,,A*61
$GPGGA,185938.000,5229.6248,N,01319.4605,E,1,05,1.3,61.1,M,44.8,M,,0000*62
$GPGSA,A,3,14,28,19,01,32,,,,,,,,2.3,1.3,1.9*3E
$GPRMC,185939.000,A,5229.6246,N,01319.4600,E,1.04,215.14,090912,,,A*66
$GPGGA,185940.000,5229.6245,N,01319.4597,E,1,04,3.6,62.3,M,44.8,M,,0000*6F
$GPGSA,A,3,14,28,01,32,,,,,,,,,5.0,3.6,3.4*3A
$GPRMC,185945.000,A,5229.6247,N,01319.4593,E,0.98,46.60,090912,,,A*56
$GPGGA,185946.000,5229.6249,N,01319.4598,E,1,05,1.3,65.1,M,44.8,M,,0000*69
$GPGSA,A,3,14,28,19,01,32,,,,,,,,2.3,1.3,1.9*3E
$GPRMC,185946.000,A,5229.6249,N,01319.4598,E,1.45,63.35,090912,,,A*56
$GPGGA,185947.000,5229.6251,N,01319.4604,E,1,05,1.3,65.5,M,44.8,M,,0000*63
$GPGSA,A,3,14,28,19,01,32,,,,,,,,2.3,1.3,1.9*3E
$GPRMC,185947.000,A,5229.6251,N,01319.4604,E,1.57,79.92,090912,,,A*5D
$GPGGA,185948.000,5229.6254,N,01319.4609,E,1,05,1.3,65.7,M,44.8,M,,0000*66
$GPGSA,A,3,14,28,19,01,32,,,,,,,,2.3,1.3,1.9*3E
$GPRMC,185948.000,A,5229.6254,N,01319.4609,E,1.66,58.38,090912,,,A*5B
$GPGGA,185949.000,5229.6255,N,01319.4613,E,1,05,1.3,65.7,M,44.8,M,,0000*6D
$GPGSA,A,3,14,28,19,01,32,,,,,,,,2.3,1.3,1.9*3E
$GPGSV,3,1,12,11,77,194,,01,72,289,29,32,65,228,21,14,39,061,14*7C
$GPGSV,3,2,12,20,33,243,,19,31,174,19,28,18,287,24,22,17,066,*72
$GPGSV,3,3,12,17,16,319,20,03,02,169,,09,01,001,,31,00,114,*72
$GPRMC,185949.000,A,5229.6255,N,01319.4613,E,1.33,67.01,090912,,,A*56
$GPGGA,185950.000,5229.6257,N,01319.4616,E,1,05,1.3,65.8,M,44.8,M,,0000*6D
$GPGSA,A,3,14,28,19,01,32,,,,,,,,2.3,1.3,1.9*3E
$GPRMC,185950.000,A,5229.6257,N,01319.4616,E,0.97,67.75,090912,,,A*55
$GPGGA,185951.000,5229.6259,N,01319.4617,E,1,05,1.3,65.7,M,44.8,M,,0000*6C
$GPGSA,A,3,14,28,19,01,32,,,,,,,,2.3,1.3,1.9*3E
$GPRMC,185951.000,A,5229.6259,N,01319.4617,E,0.98,37.86,090912,,,A*5D
$GPGGA,185952.000,5229.6260,N,01319.4618,E,1,05,1.3,65.5,M,44.8,M,,0000*68
$GPGSA,A,3,14,28,19,01,32,,,,,,,,2.3,1.3,1.9*3E
$GPRMC,185955.000,A,5229.6264,N,01319.4617,E,0.88,329.99,090912,,,A*64
$GPGGA,185956.000,5229.6266,N,01319.4614,E,1,04,3.6,65.5,M,44.8,M,,0000*60
$GPGSA,A,3,14,28,01,32,,,,,,,,,5.0,3.6,3.4*3A
$GPRMC,185956.000,A,5229.6266,N,01319.4614,E,0.86,322.08,090912,,,A*6B
$GPGGA,185957.000,5229.6264,N,01319.4610,E,1,04,3.6,65.9,M,44.8,M,,0000*6B
$GPGSA,A,3,14,28,01,32,,,,,,,,,5.0,3.6,3.4*3A
$GPRMC,185957.000,A,5229.6264,N,01319.4610,E,0.90,228.10,090912,,,A*69
$GPGGA,185958.000,5229.6258,N,01319.4605,E,1,05,1.3,66.2,M,44.8,M,,0000*61
$GPGSA,A,3,14,28,19,01,32,,,,,,,,2.3,1.3,1.9*3E
$GPRMC,185958.000,A,5229.6258,N,01319.4605,E,1.88,212.53,090912,,,A*6B
$GPGGA,185959.000,5229.6254,N,01319.4600,E,1,05,1.3,66.6,M,44.8,M,,0000*6D
$GPGSA,A,3,14,28,19,01,32,,,,,,,,2.3,1.3,1.9*3E
$GPGSV,3,1,12,11,77,194,,01,72,289,29,32,65,228,21,14,39,061,13*7B
$GPGSV,3,2,12,20,33,243,,19,31,174,18,28,18,287,23,22,17,066,*74
$GPGSV,3,3,12,17,16,319,22,03,02,169,,09,01,001,,31,00,114,*70
$GPRMC,185959.000,A,5229.6254,N,01319.4600,E,1.60,216.59,090912,,,A*6B
$GPGGA,190000.000,5229.6251,N,01319.4593,E,1,05,1.3,66.9,M,44.8,M,,0000*6F
$GPGSA,A,3,14,28,19,01,32,,,,,,,,2.3,1.3,1.9*3E
$GPRMC,190000.000,A,5229.6251,N,01319.4593,E,1.73,230.25,090912,,,A*6B
$GPGGA,190001.000,5229.6246,N,01319.4586,E,1,05,1.3,67.2,M,44.8,M,,0000*66
$GPGSA,A,3,14,28,19,01,32,,,,,,,,2.3,1.3,1.9*3E
$GPRMC,190001.000,A,5229.6246,N,01319.4586,E,2.11,217.55,090912,,,A*6D
$GPGGA,190002.000,5229.6242,N,01319.4578,E,1,05,1.3,67.5,M,44.8,M,,0000*67
$GPGSA,A,3,14,28,19,01,32,,,,,,,,2.3,1.3,1.9*3E
$GPRMC,190002.000,A,5229.6242,N,01319.4578,E,2.11,221.74,090912,,,A*6D
$GPGGA,190003.000,5229.6241,N,01319.4569,E,1,04,6.2,68.0,M,44.8,M,,0000*68
$GPGSA,A,3,28,19,01,32,,,,,,,,,7.1,6.2,3.3*32
$GPRMC,190003.000,A,5229.6241,N,01319.4569,E,1.39,254.88,090912,,,A*67
$GPGGA,190004.000,5229.6242,N,01319.4562,E,1,04,6.3,68.4,M,44.8,M,,0000*62
$GPGSA,A,3,28,19,01,32,,,,,,,,,7.1,6.3,3.3*33
$GPGSV,3,1,12,11,77,194,,01,72,289,29,32,65,228,20,14,39,061,*78
$GPGSV,3,2,12,20,33,243,,19,31,174,18,28,18,287,23,22,17,066,17*72
$GPGSV,3,3,12,17,16,319,22,03,02,169,,09,01,001,,31,00,114,*70
$GPRMC,190004.000,A,5229.6242,N,01319.4562,E,1.00,273.53,090912,,,A*61
$GPGGA,190005.000,5229.6244,N,01319.4558,E,1,04,6.3,68.8,M,44.8,M,,0000*60
