$GPGGA,184754.000,4344.3210,N,01111.8529,E,1,06,5.6,102.9,M,47.6,M,,0000*5C
$GPGSA,A,3,20,32,19,01,11,23,,,,,,,9.6,5.6,7.8*3A
$GPRMC,184754.000,A,4344.3210,N,01111.8529,E,0.83,338.52,190912,,,A*62
$GPGGA,184755.000,4344.3214,N,01111.8530,E,1,05,2.2,101.9,M,47.6,M,,0000*52
$GPGSA,A,3,20,32,19,01,23,,,,,,,,2.4,2.2,1.0*3E
$GPGSV,3,1,12,32,82,307,24,01,79,341,17,11,76,146,17,20,50,261,20*7A
$GPGSV,3,2,12,19,27,170,26,14,23,044,,17,19,317,13,23,18,193,21*79
$GPGSV,3,3,12,28,12,279,,31,10,101,,22,01,066,,03,00,165,*7C
$GPRMC,184756.000,A,4344.3217,N,01111.8534,E,0.88,61.63,190912,,,A*5D
$GPGGA,184757.000,4344.3221,N,01111.8541,E,1,05,2.2,100.2,M,47.6,M,,0000*5A
$GPGSA,A,3,20,32,19,01,23,,,,,,,,2.4,2.2,1.0*3E
$GPRMC,184757.000,A,4344.3221,N,01111.8541,E,1.25,59.05,190912,,,A*56
$GPGGA,184758.000,4344.3223,N,01111.8544,E,1,06,5.6,99.9,M,47.6,M,,0000*68
$GPGSA,A,3,20,32,19,01,11,23,,,,,,,9.6,5.6,7.9*3B
$GPRMC,184800.000,A,4344.3222,N,01111.8545,E,0.84,223.29,190912,,,A*67
$GPGGA,184801.000,4344.3220,N,01111.8544,E,1,05,2.2,99.6,M,47.6,M,,0000*67
$GPGSA,A,3,20,32,19,01,23,,,,,,,,2.4,2.2,1.0*3E
$GPRMC,184804.000,A,4344.3209,N,01111.8539,E,0.81,262.32,190912,,,A*6B
$GPGGA,184805.000,4344.3205,N,01111.8537,E,1,06,5.6,102.9,M,47.6,M,,0000*5C
$GPGSA,A,3,20,32,19,01,11,23,,,,,,,9.7,5.6,7.9*3A
$GPGSV,3,1,12,32,82,307,26,01,79,341,17,11,76,146,16,20,50,261,23*7A
$GPGSV,3,2,12,19,27,170,26,14,23,044,,17,19,317,13,23,18,193,20*78
$GPGSV,3,3,12,28,12,279,,31,10,101,,22,01,066,,03,00,165,*7C
$GPRMC,184809.000,A,4344.3187,N,01111.8534,E,1.03,235.05,190912,,,A*63
$GPGGA,184810.000,4344.3183,N,01111.8528,E,1,06,5.6,109.3,M,47.6,M,,0000*5A
$GPGSA,A,3,20,32,19,01,11,23,,,,,,,9.7,5.6,7.9*3A
$GPGSV,3,1,12,32,82,307,26,01,79,341,17,11,76,146,16,20,50,261,23*7A
$GPGSV,3,2,12,19,27,170,26,14,23,044,,17,19,317,13,23,18,193,21*79
$GPGSV,3,3,12,28,12,279,,31,10,101,,22,01,066,,03,00,165,*7C
$GPRMC,184810.000,A,4344.3183,N,01111.8528,E,1.26,240.01,190912,,,A*63
$GPGGA,184811.000,4344.3180,N,01111.8525,E,1,06,5.6,110.1,M,47.6,M,,0000*5F
$GPGSA,A,3,20,32,19,01,11,23,,,,,,,9.7,5.6,7.9*3A
$GPRMC,184811.000,A,4344.3180,N,01111.8525,E,0.83,229.24,190912,,,A*6A
$GPGGA,184812.000,4344.3177,N,01111.8525,E,1,06,5.6,111.1,M,47.6,M,,0000*55
$GPGSA,A,3,20,32,19,01,11,23,,,,,,,9.7,5.6,7.9*3A
$GPRMC,184815.000,A,4344.3175,N,01111.8526,E,0.84,61.47,190912,,,A*5B
$GPGGA,184816.000,4344.3176,N,01111.8531,E,1,06,5.6,112.7,M,47.6,M,,0000*50
$GPGSA,A,3,20,32,19,01,11,23,,,,,,,9.7,5.6,7.9*3A
$GPRMC,184816.000,A,4344.3176,N,01111.8531,E,1.24,78.85,190912,,,A*50
$GPGGA,184817.000,4344.3178,N,01111.8536,E,1,06,5.6,112.6,M,47.6,M,,0000*59
$GPGSA,A,3,20,32,19,01,11,23,,,,,,,9.7,5.6,7.9*3A
$GPRMC,184817.000,A,4344.3178,N,01111.8536,E,1.35,71.25,190912,,,A*5B
$GPGGA,184818.000,4344.3179,N,01111.8539,E,1,06,5.6,112.6,M,47.6,M,,0000*58
$GPGSA,A,3,20,32,19,01,11,23,,,,,,,9.7,5.6,7.9*3A
$GPRMC,184819.000,A,4344.3179,N,01111.8543,E,1.01,83.60,190912,,,A*5D
$GPGGA,184820.000,4344.3179,N,01111.8545,E,1,05,2.2,113.1,M,47.6,M,,0000*5E
$GPGSA,A,3,20,32,19,01,23,,,,,,,,2.4,2.2,1.0*3E
$GPGSV,3,1,12,32,82,307,28,01,79,341,16,11,76,146,15,20,50,261,24*71
$GPGSV,3,2,12,19,27,170,26,14,23,044,,17,19,317,14,23,18,193,22*7D
$GPGSV,3,3,12,28,12,279,,31,10,101,,22,01,066,,03,00,165,*7C
$GPRMC,184822.000,A,4344.3176,N,01111.8543,E,0.94,219.48,190912,,,A*6C
$GPGGA,184823.000,4344.3175,N,01111.8542,E,1,05,2.2,114.0,M,47.6,M,,0000*50
$GPGSA,A,3,20,32,19,01,23,,,,,,,,2.4,2.2,1.0*3E
$GPRMC,184824.000,A,4344.3177,N,01111.8540,E,0.83,278.67,190912,,,A*64
$GPGGA,184825.000,4344.3178,N,01111.8538,E,1,06,5.6,113.5,M,47.6,M,,0000*54
$GPGSA,A,3,20,32,19,01,11,23,,,,,,,9.7,5.6,7.9*3A
$GPGSV,3,1,12,32,82,307,28,01,79,341,16,11,76,146,16,20,50,261,24*72
$GPGSV,3,2,12,19,27,170,26,14,23,044,,17,19,317,14,23,18,193,22*7D
$GPGSV,3,3,12,28,12,279,,31,10,101,17,22,01,066,,03,00,165,*7A
$GPRMC,184831.000,A,4344.3191,N,01111.8562,E,0.86,74.58,190912,,,A*5F
$GPGGA,184832.000,4344.3195,N,01111.8566,E,1,05,2.1,110.3,M,47.6,M,,0000*5C
$GPGSA,A,3,20,32,19,11,23,,,,,,,,2.4,2.1,1.0*3C
$GPRMC,184832.000,A,4344.3195,N,01111.8566,E,0.93,34.17,190912,,,A*57
$GPGGA,184833.000,4344.3199,N,01111.8569,E,1,06,5.6,109.2,M,47.6,M,,0000*54
$GPGSA,A,3,20,32,19,01,11,23,,,,,,,9.7,5.6,7.9*3A
$GPRMC,184833.000,A,4344.3199,N,01111.8569,E,0.81,30.45,190912,,,A*55
$GPGGA,184834.000,4344.3204,N,01111.8569,E,1,06,5.6,108.2,M,47.6,M,,0000*55
$GPGSA,A,3,20,32,19,01,11,23,,,,,,,9.7,5.6,7.9*3A
$GPRMC,184834.000,A,4344.3204,N,01111.8569,E,1.02,352.31,190912,,,A*6B
$GPGGA,184835.000,4344.3207,N,01111.8569,E,1,06,5.6,107.8,M,47.6,M,,0000*52
$GPGSA,A,3,20,32,19,01,11,23,,,,,,,9.7,5.6,7.9*3A
$GPGSV,3,1,12,32,82,307,28,01,79,341,17,11,76,146,18,20,50,261,25*7C
$GPGSV,3,2,12,19,27,170,22,14,23,044,,17,19,317,15,23,18,193,22*78
$GPGSV,3,3,12,28,12,279,,31,10,101,18,22,01,066,,03,00,165,*75
$GPRMC,184835.000,A,4344.3207,N,01111.8569,E,0.84,8.64,190912,,,A*6A
$GPGGA,184836.000,4344.3208,N,01111.8567,E,1,06,5.6,107.7,M,47.6,M,,0000*5F
$GPGSA,A,3,20,32,19,01,11,23,,,,,,,9.7,5.6,7.9*3A
$GPRMC,184839.000,A,4344.3203,N,01111.8567,E,1.23,90.36,190912,,,A*56
$GPGGA,184840.000,4344.3201,N,01111.8568,E,1,05,2.1,109.2,M,47.6,M,,0000*50
$GPGSA,A,3,20,32,19,11,23,,,,,,,,2.4,2.1,1.0*3C
$GPGSV,3,1,12,32,82,307,28,01,79,341,18,11,76,146,18,20,50,261,25*73
$GPGSV,3,2,12,19,27,170,22,14,23,044,,17,19,317,14,23,18,193,22*79
$GPGSV,3,3,12,28,12,279,18,31,10,101,19,22,01,066,,03,00,165,*7D
$GPRMC,184840.000,A,4344.3201,N,01111.8568,E,0.95,94.17,190912,,,A*5E
$GPGGA,184841.000,4344.3197,N,01111.8564,E,1,06,5.6,109.8,M,47.6,M,,0000*58
$GPGSA,A,3,20,32,19,01,11,23,,,,,,,9.7,5.6,7.9*3A
$GPRMC,184848.000,A,4344.3171,N,01111.8543,E,0.90,256.37,190912,,,A*60
$GPGGA,184849.000,4344.3169,N,01111.8539,E,1,05,2.1,113.8,M,47.6,M,,0000*51
$GPGSA,A,3,20,32,19,11,23,,,,,,,,2.4,2.1,1.0*3C
$GPRMC,184901.000,A,4344.3126,N,01111.8516,E,0.99,106.80,190912,,,A*6D
$GPGGA,184902.000,4344.3122,N,01111.8513,E,1,06,5.6,127.6,M,47.6,M,,0000*52
$GPGSA,A,3,20,32,19,01,11,23,,,,,,,9.8,5.6,8.0*33
$GPRMC,184904.000,A,4344.3109,N,01111.8505,E,1.39,198.22,190912,,,A*63
$GPGGA,184905.000,4344.3102,N,01111.8501,E,1,05,2.2,132.4,M,47.6,M,,0000*52
$GPGSA,A,3,20,32,19,01,23,,,,,,,,2.4,2.2,1.0*3E
$GPGSV,3,1,12,32,82,307,29,01,79,341,17,11,76,146,19,20,50,261,24*7D
$GPGSV,3,2,12,19,27,170,22,14,23,044,,17,19,317,13,23,18,193,21*7D
$GPGSV,3,3,12,28,12,279,20,31,10,101,20,22,01,066,,03,00,165,*7C
$GPRMC,184905.000,A,4344.3102,N,01111.8501,E,1.21,193.87,190912,,,A*60
$GPGGA,184906.000,4344.3095,N,01111.8493,E,1,06,5.6,133.9,M,47.6,M,,0000*58
$GPGSA,A,3,20,32,19,01,11,23,,,,,,,9.8,5.6,8.0*33
$GPRMC,184906.000,A,4344.3095,N,01111.8493,E,1.33,224.17,190912,,,A*63
$GPGGA,184907.000,4344.3090,N,01111.8486,E,1,06,5.6,135.3,M,47.6,M,,0000*54
$GPGSA,A,3,20,32,19,01,11,23,,,,,,,9.8,5.6,8.0*33
$GPRMC,184907.000,A,4344.3090,N,01111.8486,E,1.09,235.70,190912,,,A*6B
$GPGGA,184908.000,4344.3087,N,01111.8483,E,1,06,5.6,136.3,M,47.6,M,,0000*5B
$GPGSA,A,3,20,32,19,01,11,23,,,,,,,9.8,5.6,8.0*33
$GPRMC,184911.000,A,4344.3092,N,01111.8483,E,1.01,18.40,190912,,,A*5D
$GPGGA,184912.000,4344.3096,N,01111.8485,E,1,05,2.1,136.4,M,47.6,M,,0000*52
$GPGSA,A,3,20,32,19,11,23,,,,,,,,2.4,2.1,1.0*3C
$GPRMC,184912.000,A,4344.3096,N,01111.8485,E,1.40,30.95,190912,,,A*5B
$GPGGA,184913.000,4344.3101,N,01111.8490,E,1,06,5.6,136.1,M,47.6,M,,0000*5E
$GPGSA,A,3,20,32,19,01,11,23,,,,,,,9.8,5.6,8.0*33
$GPRMC,184913.000,A,4344.3101,N,01111.8490,E,1.90,41.01,190912,,,A*57
$GPGGA,184914.000,4344.3104,N,01111.8495,E,1,06,5.6,135.8,M,47.6,M,,0000*53
$GPGSA,A,3,20,32,19,01,11,23,,,,,,,9.8,5.6,8.0*33
$GPRMC,184914.000,A,4344.3104,N,01111.8495,E,1.57,60.31,190912,,,A*5B
$GPGGA,184915.000,4344.3104,N,01111.8497,E,1,06,5.6,135.8,M,47.6,M,,0000*50
$GPGSA,A,3,20,32,19,01,11,23,,,,,,,9.8,5.6,8.0*33
$GPGSV,3,1,12,32,82,307,29,01,79,341,16,11,76,146,18,20,50,261,24*7D
$GPGSV,3,2,12,19,27,170,23,14,23,044,,17,19,317,13,23,18,193,21*7C
$GPGSV,3,3,12,28,12,279,21,31,10,101,20,22,01,066,,03,00,165,*7D
$GPRMC,184919.000,A,4344.3102,N,01111.8504,E,1.49,100.13,190912,,,A*61
$GPGGA,184920.000,4344.3103,N,01111.8512,E,1,06,5.6,135.8,M,47.6,M,,0000*5D
$GPGSA,A,3,20,32,19,01,11,23,,,,,,,9.8,5.6,8.0*33
$GPGSV,3,1,12,32,82,307,30,01,79,341,16,11,76,146,18,20,50,261,23*72
$GPGSV,3,2,12,19,27,170,24,14,23,044,,17,19,317,13,23,18,193,20*7A
$GPGSV,3,3,12,28,12,279,20,31,10,101,20,22,01,066,,03,00,165,*7C
$GPRMC,184920.000,A,4344.3103,N,01111.8512,E,2.34,81.45,190912,,,A*5F
$GPGGA,184921.000,4344.3105,N,01111.8519,E,1,05,2.1,135.9,M,47.6,M,,0000*53
$GPGSA,A,3,20,32,19,11,23,,,,,,,,2.4,2.1,1.0*3C
$GPRMC,184921.000,A,4344.3105,N,01111.8519,E,2.05,57.45,190912,,,A*5A
$GPGGA,184922.000,4344.3107,N,01111.8522,E,1,05,2.1,135.8,M,47.6,M,,0000*5B
$GPGSA,A,3,20,32,19,11,23,,,,,,,,2.4,2.1,1.0*3C
$GPRMC,184922.000,A,4344.3107,N,01111.8522,E,1.18,68.09,190912,,,A*58
$GPGGA,184923.000,4344.3108,N,01111.8524,E,1,04,2.5,135.7,M,47.6,M,,0000*59
$GPGSA,A,3,20,32,19,23,,,,,,,,,2.7,2.5,1.0*3B
$GPRMC,184923.000,A,4344.3108,N,01111.8524,E,1.01,64.29,190912,,,A*56
$GPGGA,184924.000,4344.3108,N,01111.8524,E,1,04,2.5,135.7,M,47.6,M,,0000*5E
$GPGSA,A,3,20,32,19,23,,,,,,,,,2.7,2.5,1.0*3B
$GPRMC,184926.000,A,4344.3105,N,01111.8526,E,1.26,95.70,190912,,,A*5B
$GPGGA,184927.000,4344.3106,N,01111.8530,E,1,05,2.2,136.4,M,47.6,M,,0000*50
$GPGSA,A,3,20,32,19,01,23,,,,,,,,2.4,2.2,1.0*3E
$GPRMC,184927.000,A,4344.3106,N,01111.8530,E,1.41,62.89,190912,,,A*51
$GPGGA,184928.000,4344.3107,N,01111.8536,E,1,05,2.2,136.5,M,47.6,M,,0000*59
$GPGSA,A,3,20,32,19,01,23,,,,,,,,2.4,2.2,1.0*3E
$GPRMC,184928.000,A,4344.3107,N,01111.8536,E,1.42,80.57,190912,,,A*55
$GPGGA,184929.000,4344.3106,N,01111.8535,E,1,05,2.2,136.9,M,47.6,M,,0000*56
$GPGSA,A,3,20,32,19,01,23,,,,,,,,2.4,2.2,1.0*3E
$GPRMC,184932.000,A,4344.3100,N,01111.8531,E,0.87,149.96,190912,,,A*6F
$GPGGA,184933.000,4344.3096,N,01111.8531,E,1,04,2.5,139.0,M,47.6,M,,0000*51
$GPGSA,A,3,20,32,19,23,,,,,,,,,2.7,2.5,1.0*3B
$GPRMC,184933.000,A,4344.3096,N,01111.8531,E,1.11,155.84,190912,,,A*60
$GPGGA,184934.000,4344.3093,N,01111.8522,E,1,05,2.1,139.4,M,47.6,M,,0000*50
$GPGSA,A,3,20,32,19,11,23,,,,,,,,2.4,2.1,1.0*3C
$GPRMC,184934.000,A,4344.3093,N,01111.8522,E,1.90,246.03,190912,,,A*67
$GPGGA,184935.000,4344.3092,N,01111.8513,E,1,05,2.1,139.5,M,47.6,M,,0000*53
$GPGSA,A,3,20,32,19,11,23,,,,,,,,2.4,2.1,1.0*3C
$GPGSV,3,1,12,32,82,307,30,01,79,341,17,11,76,146,19,20,50,261,21*70
$GPGSV,3,2,12,19,27,170,24,14,23,044,,17,19,317,,23,18,193,19*72
$GPGSV,3,3,12,28,12,279,20,31,10,101,19,22,01,066,,03,00,165,*76
$GPRMC,184935.000,A,4344.3092,N,01111.8513,E,1.66,260.52,190912,,,A*6C
$GPGGA,184936.000,4344.3092,N,01111.8507,E,1,05,2.1,139.7,M,47.6,M,,0000*57
$GPGSA,A,3,20,32,19,11,23,,,,,,,,2.4,2.1,1.0*3C
$GPRMC,184936.000,A,4344.3092,N,01111.8507,E,0.91,259.33,190912,,,A*6E
$GPGGA,184937.000,4344.3091,N,01111.8505,E,1,04,2.5,139.8,M,47.6,M,,0000*5D
$GPGSA,A,3,20,32,19,23,,,,,,,,,2.7,2.5,1.0*3B
$GPRMC,184938.000,A,4344.3092,N,01111.8499,E,0.92,276.03,190912,,,A*6B
$GPGGA,184939.000,4344.3093,N,01111.8492,E,1,05,2.1,139.6,M,47.6,M,,0000*55
$GPGSA,A,3,20,32,19,11,23,,,,,,,,2.4,2.1,1.0*3C
$GPRMC,184939.000,A,4344.3093,N,01111.8492,E,1.25,287.28,190912,,,A*6A
$GPGGA,184940.000,4344.3095,N,01111.8489,E,1,05,2.2,139.7,M,47.6,M,,0000*55
$GPGSA,A,3,20,32,19,01,23,,,,,,,,2.4,2.2,1.0*3E
$GPGSV,3,1,12,32,82,307,30,01,79,341,17,11,76,146,18,20,50,261,20*70
$GPGSV,3,2,12,19,27,170,24,14,23,044,,17,19,317,,23,18,193,19*72
$GPGSV,3,3,12,28,12,279,20,31,10,101,19,22,01,066,,03,00,165,*76
$GPRMC,184941.000,A,4344.3098,N,01111.8494,E,2.06,62.47,190912,,,A*5A
$GPGGA,184942.000,4344.3100,N,01111.8498,E,1,06,5.7,139.5,M,47.6,M,,0000*59
$GPGSA,A,3,20,32,19,01,11,23,,,,,,,9.8,5.7,8.0*32
$GPRMC,184942.000,A,4344.3100,N,01111.8498,E,1.68,74.70,190912,,,A*5D
$GPGGA,184943.000,4344.3100,N,01111.8501,E,1,06,5.7,139.5,M,47.6,M,,0000*59
$GPGSA,A,3,20,32,19,01,11,23,,,,,,,9.8,5.7,8.0*32
$GPRMC,184943.000,A,4344.3100,N,01111.8501,E,1.17,80.09,190912,,,A*50
$GPGGA,184944.000,4344.3099,N,01111.8502,E,1,06,5.7,139.4,M,47.6,M,,0000*5D
$GPGSA,A,3,20,32,19,01,11,23,,,,,,,9.8,5.7,8.0*32
$GPRMC,184950.000,A,4344.3100,N,01111.8484,E,1.22,307.22,190912,,,A*6D
$GPGGA,184951.000,4344.3102,N,01111.8481,E,1,06,5.7,137.3,M,47.6,M,,0000*59
$GPGSA,A,3,20,32,19,01,11,23,,,,,,,9.8,5.7,8.0*32
$GPRMC,184953.000,A,4344.3104,N,01111.8470,E,0.84,273.58,190912,,,A*63
$GPGGA,184954.000,4344.3104,N,01111.8464,E,1,03,8.2,136.1,M,47.6,M,,0000*5F
$GPGSA,A,2,32,19,11,,,,,,,,,,8.2,8.2,1.0*3B
$GPRMC,184954.000,A,4344.3104,N,01111.8464,E,0.84,266.60,190912,,,A*6E
$GPGGA,184955.000,4344.3104,N,01111.8457,E,1,04,2.5,135.7,M,47.6,M,,0000*51
$GPGSA,A,3,20,32,19,11,,,,,,,,,2.7,2.5,1.0*3A
$GPGSV,3,1,11,32,82,317,31,01,80,346,15,11,75,146,17,20,51,262,14*79
$GPGSV,3,2,11,19,26,171,26,14,22,043,,17,20,316,,23,19,193,18*7E
$GPGSV,3,3,11,28,11,278,20,31,11,100,19,22,00,066,*47
$GPRMC,184955.000,A,4344.3104,N,01111.8457,E,1.39,260.48,190912,,,A*64
$GPGGA,184956.000,4344.3103,N,01111.8442,E,1,04,2.5,135.3,M,47.6,M,,0000*55
$GPGSA,A,3,20,32,19,11,,,,,,,,,2.7,2.5,1.0*3A
$GPRMC,184956.000,A,4344.3103,N,01111.8442,E,3.00,255.53,190912,,,A*60
$GPGGA,184957.000,4344.3099,N,01111.8426,E,1,06,5.7,135.1,M,47.6,M,,0000*51
$GPGSA,A,3,20,32,19,01,11,23,,,,,,,9.8,5.7,8.0*32
$GPRMC,184957.000,A,4344.3099,N,01111.8426,E,3.64,249.63,190912,,,A*6D
$GPGGA,184958.000,4344.3094,N,01111.8407,E,1,06,5.7,135.1,M,47.6,M,,0000*50
$GPGSA,A,3,20,32,19,01,11,23,,,,,,,9.8,5.7,8.0*32
$GPRMC,184958.000,A,4344.3094,N,01111.8407,E,4.49,248.70,190912,,,A*67
$GPGGA,184959.000,4344.3088,N,01111.8383,E,1,05,2.3,135.3,M,47.6,M,,0000*55
$GPGSA,A,3,20,32,19,01,11,,,,,,,,2.5,2.3,1.0*3F
$GPRMC,184959.000,A,4344.3088,N,01111.8383,E,5.59,250.74,190912,,,A*6D
$GPGGA,185000.000,4344.3082,N,01111.8360,E,1,05,2.3,135.4,M,47.6,M,,0000*51
$GPGSA,A,3,20,32,19,01,11,,,,,,,,2.5,2.3,1.0*3F
$GPGSV,3,1,11,32,82,317,31,01,80,346,14,11,75,146,16,20,51,262,13*7E
$GPGSV,3,2,11,19,26,171,26,14,22,043,,17,20,316,,23,19,193,16*70
$GPGSV,3,3,11,28,11,278,20,31,11,100,19,22,00,066,*47
$GPRMC,185000.000,A,4344.3082,N,01111.8360,E,5.46,251.25,190912,,,A*65
$GPGGA,185001.000,4344.3076,N,01111.8337,E,1,05,2.3,135.6,M,47.6,M,,0000*5B
$GPGSA,A,3,20,32,19,01,11,,,,,,,,2.5,2.3,1.0*3F
$GPRMC,185001.000,A,4344.3076,N,01111.8337,E,5.32,249.96,190912,,,A*6F
$GPGGA,185002.000,4344.3071,N,01111.8316,E,1,06,5.7,136.0,M,47.6,M,,0000*59
$GPGSA,A,3,20,32,19,01,11,23,,,,,,,9.8,5.7,8.0*32
$GPRMC,185002.000,A,4344.3071,N,01111.8316,E,4.55,250.98,190912,,,A*6E
$GPGGA,185003.000,4344.3065,N,01111.8298,E,1,06,5.7,136.7,M,47.6,M,,0000*5D
$GPGSA,A,3,20,32,19,01,11,23,,,,,,,9.8,5.7,8.0*32
$GPRMC,185003.000,A,4344.3065,N,01111.8298,E,3.55,245.18,190912,,,A*66
$GPGGA,185004.000,4344.3062,N,01111.8283,E,1,05,2.1,137.5,M,47.6,M,,0000*56
$GPGSA,A,3,20,32,19,11,23,,,,,,,,2.4,2.1,1.0*3C
$GPRMC,185004.000,A,4344.3062,N,01111.8283,E,2.95,255.39,190912,,,A*63
$GPGGA,185005.000,4344.3059,N,01111.8269,E,1,05,2.1,138.3,M,47.6,M,,0000*52
$GPGSA,A,3,20,32,19,11,23,,,,,,,,2.4,2.1,1.0*3C
$GPGSV,3,1,11,32,82,317,31,01,80,346,,11,75,146,16,20,51,262,12*7A
$GPGSV,3,2,11,19,26,171,25,14,22,043,,17,20,316,,23,19,193,15*70
$GPGSV,3,3,11,28,11,278,19,31,11,100,18,22,00,066,*4C
$GPRMC,185005.000,A,4344.3059,N,01111.8269,E,2.59,260.99,190912,,,A*62
$GPGGA,185006.000,4344.3057,N,01111.8259,E,1,05,2.1,138.9,M,47.6,M,,0000*56
$GPGSA,A,3,20,32,19,11,23,,,,,,,,2.4,2.1,1.0*3C
$GPRMC,185006.000,A,4344.3057,N,01111.8259,E,1.98,260.01,190912,,,A*63
$GPGGA,185007.000,4344.3058,N,01111.8252,E,1,04,3.5,139.4,M,47.6,M,,0000*5B
$GPGSA,A,3,32,19,11,23,,,,,,,,,3.7,3.5,1.0*39
$GPRMC,185007.000,A,4344.3058,N,01111.8252,E,1.02,288.49,190912,,,A*6F
$GPGGA,185008.000,4344.3059,N,01111.8252,E,1,04,3.5,139.9,M,47.6,M,,0000*58
$GPGSA,A,3,32,19,11,23,,,,,,,,,3.7,3.5,1.0*39
$GPRMC,185009.000,A,4344.3060,N,01111.8258,E,2.08,68.51,190912,,,A*5C
$GPGGA,185010.000,4344.3063,N,01111.8271,E,1,03,8.2,140.8,M,47.6,M,,0000*5D
$GPGSA,A,2,32,19,11,,,,,,,,,,8.2,8.2,1.0*3B
$GPGSV,3,1,11,32,82,317,31,01,80,346,,11,75,146,16,20,51,262,12*7A
$GPGSV,3,2,11,19,26,171,25,14,22,043,,17,20,316,,23,19,193,14*71
$GPGSV,3,3,11,28,11,278,19,31,11,100,18,22,00,066,*4C
$GPRMC,185010.000,A,4344.3063,N,01111.8271,E,3.80,73.39,190912,,,A*59
$GPGGA,185011.000,4344.3066,N,01111.8291,E,1,03,8.2,141.3,M,47.6,M,,0000*5D
$GPGSA,A,2,32,19,11,,,,,,,,,,8.2,8.2,1.0*3B
$GPRMC,185011.000,A,4344.3066,N,01111.8291,E,5.49,76.78,190912,,,A*50
$GPGGA,185012.000,4344.3069,N,01111.8313,E,1,03,8.2,141.8,M,47.6,M,,0000*51
$GPGSA,A,2,32,19,11,,,,,,,,,,8.2,8.2,1.0*3B
$GPRMC,185012.000,A,4344.3069,N,01111.8313,E,5.87,78.80,190912,,,A*5C
$GPGGA,185013.000,4344.3070,N,01111.8336,E,1,03,8.2,142.4,M,47.6,M,,0000*50
$GPGSA,A,2,32,19,11,,,,,,,,,,8.3,8.2,1.0*3A
$GPRMC,185013.000,A,4344.3070,N,01111.8336,E,5.84,80.50,190912,,,A*5B
$GPGGA,185014.000,4344.3072,N,01111.8355,E,1,04,3.5,142.8,M,47.6,M,,0000*57
$GPGSA,A,3,32,19,11,23,,,,,,,,,3.7,3.5,1.0*39
$GPRMC,185014.000,A,4344.3072,N,01111.8355,E,4.82,82.55,190912,,,A*5B
$GPGGA,185015.000,4344.3072,N,01111.8368,E,1,04,3.5,143.2,M,47.6,M,,0000*53
$GPGSA,A,3,32,19,11,23,,,,,,,,,3.7,3.5,1.0*39
$GPGSV,3,1,11,32,82,317,31,01,80,346,,11,75,146,16,20,51,262,12*7A
$GPGSV,3,2,11,19,26,171,26,14,22,043,,17,20,316,,23,19,193,16*70
$GPGSV,3,3,11,28,11,278,19,31,11,100,18,22,00,066,*4C
$GPRMC,185015.000,A,4344.3072,N,01111.8368,E,3.29,86.10,190912,,,A*57
$GPGGA,185016.000,4344.3072,N,01111.8374,E,1,05,2.1,143.4,M,47.6,M,,0000*5F
$GPGSA,A,3,20,32,19,11,23,,,,,,,,2.4,2.1,1.0*3C
$GPRMC,185016.000,A,4344.3072,N,01111.8374,E,1.76,88.96,190912,,,A*51
$GPGGA,185017.000,4344.3071,N,01111.8378,E,1,04,3.5,143.5,M,47.6,M,,0000*54
$GPGSA,A,3,32,19,11,23,,,,,,,,,3.7,3.5,1.0*39
$GPRMC,185017.000,A,4344.3071,N,01111.8378,E,0.99,92.70,190912,,,A*5C
$GPGGA,185018.000,4344.3071,N,01111.8380,E,1,05,2.1,143.6,M,47.6,M,,0000*5B
$GPGSA,A,3,20,32,19,11,23,,,,,,,,2.4,2.1,1.0*3C
$GPRMC,185018.000,A,4344.3071,N,01111.8380,E,0.97,98.21,190912,,,A*54
$GPGGA,185019.000,4344.3070,N,01111.8382,E,1,05,2.1,143.6,M,47.6,M,,0000*59
$GPGSA,A,3,20,32,19,11,23,,,,,,,,2.4,2.1,1.0*3C
$GPRMC,185019.000,A,4344.3070,N,01111.8382,E,1.05,94.39,190912,,,A*59
$GPGGA,185020.000,4344.3072,N,01111.8386,E,1,03,8.2,143.5,M,47.6,M,,0000*59
$GPGSA,A,2,32,19,11,,,,,,,,,,8.3,8.2,1.0*3A
$GPGSV,3,1,11,32,82,317,31,01,80,346,,11,75,146,16,20,51,262,12*7A
$GPGSV,3,2,11,19,26,171,26,14,22,043,,17,20,316,,23,19,193,17*71
$GPGSV,3,3,11,28,11,278,19,31,11,100,18,22,00,066,*4C
$GPRMC,185020.000,A,4344.3072,N,01111.8386,E,1.62,76.43,190912,,,A*55
$GPGGA,185021.000,4344.3074,N,01111.8394,E,1,05,2.1,143.3,M,47.6,M,,0000*54
$GPGSA,A,3,20,32,19,11,23,,,,,,,,2.4,2.1,1.0*3C
$GPRMC,185021.000,A,4344.3074,N,01111.8394,E,2.49,77.95,190912,,,A*51
$GPGGA,185022.000,4344.3076,N,01111.8406,E,1,04,2.5,143.0,M,47.6,M,,0000*5F
$GPGSA,A,3,20,32,19,11,,,,,,,,,2.7,2.5,1.0*3A
$GPRMC,185022.000,A,4344.3076,N,01111.8406,E,3.61,78.97,190912,,,A*5A
$GPGGA,185023.000,4344.3079,N,01111.8420,E,1,04,2.5,142.6,M,47.6,M,,0000*52
$GPGSA,A,3,20,32,19,11,,,,,,,,,2.7,2.5,1.0*3A
$GPRMC,185023.000,A,4344.3079,N,01111.8420,E,3.86,79.32,190912,,,A*57
$GPGGA,185024.000,4344.3084,N,01111.8436,E,1,05,2.1,142.2,M,47.6,M,,0000*51
$GPGSA,A,3,20,32,19,11,23,,,,,,,,2.4,2.1,1.0*3C
$GPRMC,185024.000,A,4344.3084,N,01111.8436,E,4.10,73.30,190912,,,A*55
$GPGGA,185025.000,4344.3089,N,01111.8454,E,1,05,2.1,141.8,M,47.6,M,,0000*50
$GPGSA,A,3,20,32,19,11,23,,,,,,,,2.4,2.1,1.0*3C
$GPGSV,3,1,11,32,82,317,31,01,80,346,,11,75,146,15,20,51,262,12*79
$GPGSV,3,2,11,19,26,171,26,14,22,043,,17,20,316,,23,19,193,17*71
$GPGSV,3,3,11,28,11,278,20,31,11,100,18,22,00,066,*46
$GPRMC,185025.000,A,4344.3089,N,01111.8454,E,4.28,70.22,190912,,,A*56
$GPGGA,185026.000,4344.3095,N,01111.8468,E,1,05,2.3,141.4,M,47.6,M,,0000*5F
$GPGSA,A,3,20,32,19,01,11,,,,,,,,2.5,2.3,1.0*3F
$GPRMC,185026.000,A,4344.3095,N,01111.8468,E,3.82,63.97,190912,,,A*5C
$GPGGA,185027.000,4344.3100,N,01111.8476,E,1,05,2.3,141.0,M,47.6,M,,0000*58
$GPGSA,A,3,20,32,19,01,11,,,,,,,,2.5,2.3,1.0*3F
$GPRMC,185027.000,A,4344.3100,N,01111.8476,E,3.03,57.90,190912,,,A*56
$GPGGA,185028.000,4344.3107,N,01111.8490,E,1,05,3.4,140.4,M,47.6,M,,0000*5B
$GPGSA,A,3,32,19,01,11,23,,,,,,,,3.6,3.4,1.0*38
$GPRMC,185028.000,A,4344.3107,N,01111.8490,E,4.13,65.12,190912,,,A*5B
$GPGGA,185029.000,4344.3111,N,01111.8502,E,1,06,5.7,140.2,M,47.6,M,,0000*57
$GPGSA,A,3,20,32,19,01,11,23,,,,,,,9.8,5.7,8.1*33
$GPRMC,185029.000,A,4344.3111,N,01111.8502,E,4.05,65.83,190912,,,A*58
$GPGGA,185030.000,4344.3115,N,01111.8513,E,1,05,3.4,140.0,M,47.6,M,,0000*5F
$GPGSA,A,3,32,19,01,11,23,,,,,,,,3.6,3.4,1.0*38
$GPGSV,3,1,11,32,82,317,31,01,80,346,13,11,75,146,15,20,51,262,14*7D
$GPGSV,3,2,11,19,26,171,27,14,22,043,,17,20,316,,23,19,193,17*70
$GPGSV,3,3,11,28,11,278,19,31,11,100,18,22,00,066,*4C
$GPRMC,185030.000,A,4344.3115,N,01111.8513,E,3.69,69.93,190912,,,A*54
$GPGGA,185031.000,4344.3117,N,01111.8518,E,1,06,5.7,139.7,M,47.6,M,,0000*58
$GPGSA,A,3,20,32,19,01,11,23,,,,,,,9.8,5.7,8.1*33
$GPRMC,185031.000,A,4344.3117,N,01111.8518,E,2.23,74.02,190912,,,A*57
$GPGGA,185032.000,4344.3116,N,01111.8514,E,1,06,5.7,139.4,M,47.6,M,,0000*55
$GPGSA,A,3,20,32,19,01,11,23,,,,,,,9.8,5.7,8.1*33
$GPRMC,185033.000,A,4344.3116,N,01111.8507,E,0.85,256.36,190912,,,A*61
$GPGGA,185034.000,4344.3115,N,01111.8500,E,1,06,5.7,138.7,M,47.6,M,,0000*57
$GPGSA,A,3,20,32,19,01,11,23,,,,,,,9.8,5.7,8.1*33
$GPRMC,185036.000,A,4344.3113,N,01111.8489,E,0.88,238.44,190912,,,A*66
$GPGGA,185037.000,4344.3113,N,01111.8485,E,1,06,5.7,137.2,M,47.6,M,,0000*54
$GPGSA,A,3,20,32,19,01,11,23,,,,,,,9.8,5.7,8.1*33
$GPRMC,185038.000,A,4344.3111,N,01111.8477,E,1.32,242.26,190912,,,A*62
$GPGGA,185039.000,4344.3108,N,01111.8469,E,1,04,4.1,136.7,M,47.6,M,,0000*53
$GPGSA,A,3,32,19,01,23,,,,,,,,,4.2,4.1,1.0*39
$GPRMC,185039.000,A,4344.3108,N,01111.8469,E,1.58,234.34,190912,,,A*6A
$GPGGA,185040.000,4344.3104,N,01111.8459,E,1,04,2.5,136.6,M,47.6,M,,0000*51
$GPGSA,A,3,20,32,19,23,,,,,,,,,2.7,2.5,1.0*3B
$GPGSV,3,1,11,32,82,317,31,01,80,346,13,11,75,146,,20,51,262,16*7B
$GPGSV,3,2,11,19,26,171,28,14,22,043,,17,20,316,,23,19,193,17*7F
$GPGSV,3,3,11,28,11,278,19,31,11,100,17,22,00,066,*43
$GPRMC,185040.000,A,4344.3104,N,01111.8459,E,1.89,235.71,190912,,,A*67
$GPGGA,185041.000,4344.3101,N,01111.8451,E,1,05,2.2,136.6,M,47.6,M,,0000*5B
$GPGSA,A,3,20,32,19,01,23,,,,,,,,2.4,2.2,1.0*3E
$GPRMC,185041.000,A,4344.3101,N,01111.8451,E,1.72,232.13,190912,,,A*6C
$GPGGA,185042.000,4344.3099,N,01111.8449,E,1,05,2.2,136.5,M,47.6,M,,0000*52
$GPGSA,A,3,20,32,19,01,23,,,,,,,,2.4,2.2,1.0*3E
$GPRMC,185046.000,A,4344.3090,N,01111.8434,E,1.29,242.14,190912,,,A*6F
$GPGGA,185047.000,4344.3086,N,01111.8431,E,1,05,2.2,137.3,M,47.6,M,,0000*51
$GPGSA,A,3,20,32,19,01,23,,,,,,,,2.4,2.2,1.0*3E
$GPRMC,185048.000,A,4344.3082,N,01111.8427,E,0.83,191.54,190912,,,A*68
$GPGGA,185049.000,4344.3077,N,01111.8420,E,1,05,2.2,138.1,M,47.6,M,,0000*5C
$GPGSA,A,3,20,32,19,01,23,,,,,,,,2.4,2.2,1.0*3E
$GPRMC,185049.000,A,4344.3077,N,01111.8420,E,1.32,223.96,190912,,,A*6B
$GPGGA,185050.000,4344.3073,N,01111.8414,E,1,04,2.5,138.5,M,47.6,M,,0000*55
$GPGSA,A,3,20,32,19,23,,,,,,,,,2.7,2.5,1.0*3B
$GPGSV,3,1,11,32,82,317,31,01,80,346,13,11,75,146,,20,51,262,19*74
$GPGSV,3,2,11,19,26,171,30,14,22,043,,17,20,316,,23,19,193,17*76
$GPGSV,3,3,11,28,11,278,19,31,11,100,16,22,00,066,*42
$GPRMC,185050.000,A,4344.3073,N,01111.8414,E,1.55,228.31,190912,,,A*67
$GPGGA,185051.000,4344.3069,N,01111.8409,E,1,04,2.5,139.0,M,47.6,M,,0000*57
$GPGSA,A,3,20,32,19,23,,,,,,,,,2.7,2.5,1.0*3B
$GPRMC,185051.000,A,4344.3069,N,01111.8409,E,1.26,234.49,190912,,,A*67
$GPGGA,185052.000,4344.3068,N,01111.8409,E,1,03,2.9,139.4,M,47.6,M,,0000*5A
$GPGSA,A,2,20,32,19,,,,,,,,,,3.1,2.9,1.0*30
$GPRMC,185053.000,A,4344.3068,N,01111.8413,E,0.90,70.85,190912,,,A*51
$GPGGA,185054.000,4344.3068,N,01111.8419,E,1,03,2.9,140.3,M,47.6,M,,0000*54
$GPGSA,A,2,20,32,19,,,,,,,,,,3.1,2.9,1.0*30
$GPRMC,185054.000,A,4344.3068,N,01111.8419,E,1.41,76.03,190912,,,A*59
$GPGGA,185055.000,4344.3068,N,01111.8427,E,1,03,2.9,140.6,M,47.6,M,,0000*5D
$GPGSA,A,2,20,32,19,,,,,,,,,,3.1,2.9,1.0*30
$GPGSV,3,1,11,32,82,317,31,01,80,346,13,11,75,146,,20,51,262,20*7E
$GPGSV,3,2,11,19,26,171,30,14,22,043,,17,20,316,,23,19,193,18*79
$GPGSV,3,3,11,28,11,278,19,31,11,100,15,22,00,066,*41
$GPRMC,185055.000,A,4344.3068,N,01111.8427,E,2.10,81.31,190912,,,A*5B
$GPGGA,185056.000,4344.3068,N,01111.8436,E,1,05,2.2,141.1,M,47.6,M,,0000*55
$GPGSA,A,3,20,32,19,01,23,,,,,,,,2.4,2.2,1.0*3E
$GPRMC,185056.000,A,4344.3068,N,01111.8436,E,2.37,76.74,190912,,,A*54
$GPGGA,185057.000,4344.3068,N,01111.8444,E,1,05,2.2,141.8,M,47.6,M,,0000*58
$GPGSA,A,3,20,32,19,01,23,,,,,,,,2.4,2.2,1.0*3E
$GPRMC,185057.000,A,4344.3068,N,01111.8444,E,2.46,79.06,190912,,,A*5C
$GPGGA,185058.000,4344.3067,N,01111.8451,E,1,05,2.2,142.4,M,47.6,M,,0000*53
$GPGSA,A,3,20,32,19,01,23,,,,,,,,2.4,2.2,1.0*3E
$GPRMC,185058.000,A,4344.3067,N,01111.8451,E,2.03,79.09,190912,,,A*56
$GPGGA,185059.000,4344.3065,N,01111.8452,E,1,05,2.2,142.9,M,47.6,M,,0000*5E
$GPGSA,A,3,20,32,19,01,23,,,,,,,,2.4,2.2,1.0*3E
$GPRMC,185101.000,A,4344.3062,N,01111.8442,E,0.95,278.10,190912,,,A*6A
$GPGGA,185102.000,4344.3061,N,01111.8441,E,1,05,2.2,144.8,M,47.6,M,,0000*50
$GPGSA,A,3,20,32,19,01,23,,,,,,,,2.4,2.2,1.0*3E
$GPRMC,185106.000,A,4344.3055,N,01111.8435,E,0.94,245.78,190912,,,A*68
$GPGGA,185107.000,4344.3055,N,01111.8434,E,1,06,5.7,147.3,M,47.6,M,,0000*59
$GPGSA,A,3,20,32,19,01,11,23,,,,,,,9.9,5.7,8.1*32
$GPRMC,185109.000,A,4344.3057,N,01111.8442,E,1.42,72.20,190912,,,A*54
$GPGGA,185110.000,4344.3059,N,01111.8448,E,1,05,2.2,147.7,M,47.6,M,,0000*5D
$GPGSA,A,3,20,32,19,01,23,,,,,,,,2.4,2.2,1.0*3E
$GPGSV,3,1,11,32,82,322,31,01,80,349,17,11,74,146,15,20,52,263,22*76
$GPGSV,3,2,11,19,25,171,32,14,22,043,,17,20,316,,23,19,193,18*78
$GPGSV,3,3,11,31,11,100,14,28,11,277,18,22,00,067,*4F
$GPRMC,185110.000,A,4344.3059,N,01111.8448,E,1.18,66.82,190912,,,A*5A
$GPGGA,185111.000,4344.3062,N,01111.8458,E,1,05,2.2,147.8,M,47.6,M,,0000*5A
$GPGSA,A,3,20,32,19,01,23,,,,,,,,2.4,2.2,1.0*3E
$GPRMC,185111.000,A,4344.3062,N,01111.8458,E,2.22,69.81,190912,,,A*54
$GPGGA,185112.000,4344.3065,N,01111.8466,E,1,05,2.2,147.9,M,47.6,M,,0000*52
$GPGSA,A,3,20,32,19,01,23,,,,,,,,2.4,2.2,1.0*3E
$GPRMC,185112.000,A,4344.3065,N,01111.8466,E,1.87,68.44,190912,,,A*59
$GPGGA,185113.000,4344.3068,N,01111.8470,E,1,05,2.2,147.8,M,47.6,M,,0000*58
$GPGSA,A,3,20,32,19,01,23,,,,,,,,2.4,2.2,1.0*3E
$GPRMC,185113.000,A,4344.3068,N,01111.8470,E,0.82,43.20,190912,,,A*5D
$GPGGA,185114.000,4344.3071,N,01111.8474,E,1,05,2.2,147.7,M,47.6,M,,0000*5C
$GPGSA,A,3,20,32,19,01,23,,,,,,,,2.4,2.2,1.0*3E
$GPRMC,185114.000,A,4344.3071,N,01111.8474,E,1.10,53.84,190912,,,A*53
$GPGGA,185115.000,4344.3073,N,01111.8479,E,1,04,2.4,147.7,M,47.6,M,,0000*55
$GPGSA,A,3,20,32,19,01,,,,,,,,,2.6,2.4,1.0*3B
$GPGSV,3,1,11,32,82,322,31,01,80,349,17,11,74,146,16,20,52,263,23*74
$GPGSV,3,2,11,19,25,171,32,14,22,043,,17,21,316,,23,20,193,18*73
$GPGSV,3,3,11,31,11,100,14,28,11,277,18,22,00,067,*4F
$GPRMC,185115.000,A,4344.3073,N,01111.8479,E,1.22,61.94,190912,,,A*5C
$GPGGA,185116.000,4344.3076,N,01111.8479,E,1,05,5.7,147.4,M,47.6,M,,0000*55
$GPGSA,A,3,20,32,19,01,11,,,,,,,,10.0,5.7,8.2*01
$GPRMC,185116.000,A,4344.3076,N,01111.8479,E,0.27,14.65,190912,,,A*52
$GPGGA,185117.000,4344.3077,N,01111.8477,E,1,05,5.7,147.0,M,47.6,M,,0000*5F
$GPGSA,A,3,20,32,19,01,11,,,,,,,,10.0,5.7,8.2*01
$GPRMC,185117.000,A,4344.3077,N,01111.8477,E,0.42,281.19,190912,,,A*6A
$GPGGA,185118.000,4344.3077,N,01111.8476,E,1,05,2.1,146.9,M,47.6,M,,0000*58
$GPGSA,A,3,20,32,19,11,23,,,,,,,,2.3,2.1,1.0*3B
$GPRMC,185122.000,A,4344.3077,N,01111.8472,E,0.97,232.17,190912,,,A*67
$GPGGA,185123.000,4344.3076,N,01111.8471,E,1,03,2.9,146.2,M,47.6,M,,0000*53
$GPGSA,A,2,20,32,19,,,,,,,,,,3.1,2.9,1.0*30
$GPRMC,185135.000,A,4344.3071,N,01111.8461,E,0.86,209.62,190912,,,A*6F
$GPGGA,185136.000,4344.3069,N,01111.8457,E,1,05,2.1,149.5,M,47.6,M,,0000*5B
$GPGSA,A,3,20,32,19,11,23,,,,,,,,2.3,2.1,1.0*3B
$GPRMC,185136.000,A,4344.3069,N,01111.8457,E,1.05,221.11,190912,,,A*64
$GPGGA,185137.000,4344.3068,N,01111.8455,E,1,04,2.5,149.6,M,47.6,M,,0000*5F
$GPGSA,A,3,20,32,19,23,,,,,,,,,2.7,2.5,1.0*3B
$GPRMC,185150.000,A,4344.3071,N,01111.8450,E,1.05,46.73,190912,,,A*5D
$GPGGA,185151.000,4344.3073,N,01111.8451,E,1,06,5.6,148.2,M,47.6,M,,0000*52
$GPGSA,A,3,20,32,19,01,11,23,,,,,,,9.8,5.6,8.1*32
$GPRMC,185154.000,A,4344.3080,N,01111.8460,E,0.87,42.15,190912,,,A*5B
$GPGGA,185155.000,4344.3086,N,01111.8465,E,1,06,5.6,146.2,M,47.6,M,,0000*55
$GPGSA,A,3,20,32,19,01,11,23,,,,,,,9.8,5.6,8.1*32
$GPGSV,3,1,11,32,82,324,30,01,80,350,20,11,74,146,20,20,52,263,28*71
$GPGSV,3,2,11,19,25,171,33,14,22,043,,17,21,316,20,23,20,193,19*71
$GPGSV,3,3,11,31,11,100,,28,11,277,17,22,00,067,*45
$GPRMC,185155.000,A,4344.3086,N,01111.8465,E,1.52,42.86,190912,,,A*5A
$GPGGA,185156.000,4344.3091,N,01111.8470,E,1,06,5.6,145.1,M,47.6,M,,0000*54
$GPGSA,A,3,20,32,19,01,11,23,,,,,,,9.8,5.6,8.1*32
$GPRMC,185156.000,A,4344.3091,N,01111.8470,E,1.03,44.49,190912,,,A*5A
$GPGGA,185157.000,4344.3097,N,01111.8475,E,1,06,5.6,143.8,M,47.6,M,,0000*59
$GPGSA,A,3,20,32,19,01,11,23,,,,,,,9.8,5.6,8.1*32
$GPRMC,185157.000,A,4344.3097,N,01111.8475,E,1.17,43.84,190912,,,A*5B
$GPGGA,185158.000,4344.3104,N,01111.8479,E,1,06,5.6,141.8,M,47.6,M,,0000*53
$GPGSA,A,3,20,32,19,01,11,23,,,,,,,9.8,5.6,8.1*32
$GPRMC,185158.000,A,4344.3104,N,01111.8479,E,1.10,27.69,190912,,,A*55
$GPGGA,185159.000,4344.3112,N,01111.8483,E,1,06,5.6,139.4,M,47.6,M,,0000*53
$GPGSA,A,3,20,32,19,01,11,23,,,,,,,9.8,5.6,8.1*32
$GPRMC,185159.000,A,4344.3112,N,01111.8483,E,1.03,15.05,190912,,,A*5F
$GPGGA,185200.000,4344.3121,N,01111.8487,E,1,06,5.6,136.9,M,47.6,M,,0000*5A
$GPGSA,A,3,20,32,19,01,11,23,,,,,,,9.8,5.6,8.1*32
$GPGSV,3,1,11,32,82,324,30,01,80,350,20,11,74,146,20,20,52,263,28*71
$GPGSV,3,2,11,19,25,171,33,14,22,043,,17,21,316,20,23,20,193,18*70
$GPGSV,3,3,11,31,11,100,,28,11,277,17,22,00,067,*45
$GPRMC,185200.000,A,4344.3121,N,01111.8487,E,1.26,19.35,190912,,,A*5C
$GPGGA,185201.000,4344.3131,N,01111.8492,E,1,06,5.6,134.0,M,47.6,M,,0000*55
$GPGSA,A,3,20,32,19,01,11,23,,,,,,,9.8,5.6,8.1*32
$GPRMC,185201.000,A,4344.3131,N,01111.8492,E,1.83,24.23,190912,,,A*5E
$GPGGA,185202.000,4344.3144,N,01111.8500,E,1,05,5.6,130.9,M,47.6,M,,0000*50
$GPGSA,A,3,20,32,19,01,11,,,,,,,,9.9,5.6,8.2*31
$GPRMC,185202.000,A,4344.3144,N,01111.8500,E,2.62,30.89,190912,,,A*5C
$GPGGA,185203.000,4344.3154,N,01111.8508,E,1,05,2.1,128.2,M,47.6,M,,0000*5A
$GPGSA,A,3,20,32,19,11,23,,,,,,,,2.3,2.1,1.0*3B
$GPRMC,185203.000,A,4344.3154,N,01111.8508,E,2.61,33.73,190912,,,A*51
$GPGGA,185204.000,4344.3165,N,01111.8515,E,1,06,5.6,125.1,M,47.6,M,,0000*5E
$GPGSA,A,3,20,32,19,01,11,23,,,,,,,9.8,5.6,8.1*32
$GPRMC,185204.000,A,4344.3165,N,01111.8515,E,2.34,30.49,190912,,,A*52
$GPGGA,185205.000,4344.3177,N,01111.8522,E,1,06,5.6,121.7,M,47.6,M,,0000*5A
$GPGSA,A,3,20,32,19,01,11,23,,,,,,,9.8,5.6,8.1*32
$GPGSV,3,1,11,32,82,324,30,01,80,350,16,11,74,146,21,20,52,263,29*74
$GPGSV,3,2,11,19,25,171,33,14,22,043,,17,21,316,20,23,20,193,18*70
$GPGSV,3,3,11,31,11,100,,28,11,277,17,22,00,067,*45
$GPRMC,185205.000,A,4344.3177,N,01111.8522,E,2.42,30.48,190912,,,A*54
$GPGGA,185206.000,4344.3186,N,01111.8526,E,1,05,2.1,118.7,M,47.6,M,,0000*5A
$GPGSA,A,3,20,32,19,11,23,,,,,,,,2.3,2.1,1.0*3B
$GPRMC,185206.000,A,4344.3186,N,01111.8526,E,1.80,21.97,190912,,,A*52
$GPGGA,185207.000,4344.3196,N,01111.8531,E,1,06,5.6,115.8,M,47.6,M,,0000*5D
$GPGSA,A,3,20,32,19,01,11,23,,,,,,,9.8,5.6,8.1*32
$GPRMC,185207.000,A,4344.3196,N,01111.8531,E,2.13,22.85,190912,,,A*5D
$GPGGA,185208.000,4344.3206,N,01111.8535,E,1,06,5.6,112.9,M,47.6,M,,0000*5A
$GPGSA,A,3,20,32,19,01,11,23,,,,,,,9.8,5.6,8.1*32
$GPRMC,185208.000,A,4344.3206,N,01111.8535,E,2.38,24.12,190912,,,A*5D
$GPGGA,185209.000,4344.3217,N,01111.8541,E,1,06,5.6,109.9,M,47.6,M,,0000*52
$GPGSA,A,3,20,32,19,01,11,23,,,,,,,9.8,5.6,8.1*32
$GPRMC,185209.000,A,4344.3217,N,01111.8541,E,2.72,25.00,190912,,,A*53
$GPGGA,185210.000,4344.3230,N,01111.8549,E,1,06,5.6,106.4,M,47.6,M,,0000*55
$GPGSA,A,3,20,32,19,01,11,23,,,,,,,9.8,5.6,8.1*32
$GPGSV,3,1,11,32,82,324,30,01,80,350,17,11,74,146,21,20,52,263,29*75
$GPGSV,3,2,11,19,25,171,33,14,22,043,,17,21,316,20,23,20,193,18*70
$GPGSV,3,3,11,31,11,100,,28,11,277,17,22,00,067,*45
$GPRMC,185210.000,A,4344.3230,N,01111.8549,E,3.14,31.62,190912,,,A*56
$GPGGA,185211.000,4344.3243,N,01111.8555,E,1,05,2.1,102.9,M,47.6,M,,0000*57
$GPGSA,A,3,20,32,19,11,23,,,,,,,,2.3,2.1,1.0*3B
$GPRMC,185211.000,A,4344.3243,N,01111.8555,E,2.79,26.15,190912,,,A*52
$GPGGA,185212.000,4344.3255,N,01111.8559,E,1,05,5.6,99.2,M,47.6,M,,0000*67
$GPGSA,A,3,20,32,19,01,11,,,,,,,,9.9,5.6,8.2*31
$GPRMC,185212.000,A,4344.3255,N,01111.8559,E,2.27,16.15,190912,,,A*52
$GPGGA,185213.000,4344.3266,N,01111.8564,E,1,04,2.5,95.8,M,47.6,M,,0000*6B
$GPGSA,A,3,20,32,19,11,,,,,,,,,2.7,2.5,1.0*3A
$GPRMC,185213.000,A,4344.3266,N,01111.8564,E,2.24,22.09,190912,,,A*54
$GPGGA,185214.000,4344.3275,N,01111.8569,E,1,05,5.6,92.8,M,47.6,M,,0000*61
$GPGSA,A,3,20,32,19,01,11,,,,,,,,9.9,5.6,8.2*31
$GPRMC,185214.000,A,4344.3275,N,01111.8569,E,2.41,27.41,190912,,,A*56
$GPGGA,185215.000,4344.3285,N,01111.8573,E,1,06,5.6,90.0,M,47.6,M,,0000*6D
$GPGSA,A,3,20,32,19,01,11,23,,,,,,,9.8,5.6,8.1*32
$GPGSV,3,1,11,32,82,324,30,01,80,350,16,11,74,146,21,20,52,263,29*74
$GPGSV,3,2,11,19,25,171,32,14,22,043,,17,21,316,20,23,20,193,12*7B
$GPGSV,3,3,11,31,11,100,,28,11,277,17,22,00,067,*45
$GPRMC,185215.000,A,4344.3285,N,01111.8573,E,2.50,22.90,190912,,,A*5A
$GPGGA,185216.000,4344.3294,N,01111.8578,E,1,06,5.6,87.7,M,47.6,M,,0000*64
$GPGSA,A,3,20,32,19,01,11,23,,,,,,,9.8,5.6,8.1*32
$GPRMC,185216.000,A,4344.3294,N,01111.8578,E,2.57,26.23,190912,,,A*59
$GPGGA,185217.000,4344.3302,N,01111.8582,E,1,06,5.6,85.3,M,47.6,M,,0000*68
$GPGSA,A,3,20,32,19,01,11,23,,,,,,,9.8,5.6,8.1*32
$GPRMC,185217.000,A,4344.3302,N,01111.8582,E,2.07,21.24,190912,,,A*56
$GPGGA,185218.000,4344.3309,N,01111.8585,E,1,06,5.6,83.1,M,47.6,M,,0000*6F
$GPGSA,A,3,20,32,19,01,11,23,,,,,,,9.8,5.6,8.1*32
$GPRMC,185218.000,A,4344.3309,N,01111.8585,E,1.97,23.49,190912,,,A*56
$GPGGA,185219.000,4344.3315,N,01111.8588,E,1,06,5.6,80.9,M,47.6,M,,0000*65
$GPGSA,A,3,20,32,19,01,11,23,,,,,,,9.8,5.6,8.1*32
$GPRMC,185219.000,A,4344.3315,N,01111.8588,E,1.91,20.00,190912,,,A*5F
$GPGGA,185220.000,4344.3322,N,01111.8592,E,1,06,5.6,79.1,M,47.6,M,,0000*6E
$GPGSA,A,3,20,32,19,01,11,23,,,,,,,9.8,5.6,8.1*32
$GPGSV,3,1,11,32,82,324,29,01,80,350,18,11,74,146,21,20,52,263,29*72
$GPGSV,3,2,11,19,25,171,32,14,22,043,,17,21,316,20,23,20,193,16*7F
$GPGSV,3,3,11,31,11,100,,28,11,277,17,22,00,067,*45
$GPRMC,185220.000,A,4344.3322,N,01111.8592,E,2.26,25.05,190912,,,A*55
$GPGGA,185221.000,4344.3329,N,01111.8596,E,1,06,5.6,77.0,M,47.6,M,,0000*6F
$GPGSA,A,3,20,32,19,01,11,23,,,,,,,9.8,5.6,8.1*32
$GPRMC,185221.000,A,4344.3329,N,01111.8596,E,2.56,24.00,190912,,,A*58
$GPGGA,185222.000,4344.3336,N,01111.8601,E,1,06,5.6,75.1,M,47.6,M,,0000*6C
$GPGSA,A,3,20,32,19,01,11,23,,,,,,,9.8,5.6,8.1*32
$GPRMC,185222.000,A,4344.3336,N,01111.8601,E,2.53,28.38,190912,,,A*5A
$GPGGA,185223.000,4344.3343,N,01111.8605,E,1,05,2.1,73.4,M,47.6,M,,0000*6B
$GPGSA,A,3,20,32,19,11,23,,,,,,,,2.3,2.1,1.0*3B
$GPRMC,185223.000,A,4344.3343,N,01111.8605,E,2.45,29.04,190912,,,A*54
$GPGGA,185224.000,4344.3349,N,01111.8609,E,1,06,5.6,71.8,M,47.6,M,,0000*67
$GPGSA,A,3,20,32,19,01,11,23,,,,,,,9.8,5.6,8.1*32
$GPRMC,185224.000,A,4344.3349,N,01111.8609,E,2.19,27.06,190912,,,A*50
$GPGGA,185225.000,4344.3354,N,01111.8613,E,1,06,5.6,70.5,M,47.6,M,,0000*6D
$GPGSA,A,3,20,32,19,01,11,23,,,,,,,9.8,5.6,8.0*33
$GPGSV,3,1,11,32,82,326,29,01,81,351,19,11,73,146,22,20,52,263,29*75
$GPGSV,3,2,11,19,25,171,32,14,21,042,,17,21,316,20,23,20,193,15*7E
$GPGSV,3,3,11,31,12,099,,28,10,277,16,22,00,067,*47
$GPRMC,185225.000,A,4344.3354,N,01111.8613,E,2.17,28.20,190912,,,A*53
$GPGGA,185226.000,4344.3357,N,01111.8615,E,1,06,5.6,69.4,M,47.6,M,,0000*62
$GPGSA,A,3,20,32,19,01,11,23,,,,,,,9.8,5.6,8.0*33
$GPRMC,185226.000,A,4344.3357,N,01111.8615,E,1.90,26.45,190912,,,A*54
$GPGGA,185227.000,4344.3360,N,01111.8617,E,1,06,5.6,68.6,M,47.6,M,,0000*66
$GPGSA,A,3,20,32,19,01,11,23,,,,,,,9.8,5.6,8.0*33
$GPRMC,185227.000,A,4344.3360,N,01111.8617,E,1.59,27.67,190912,,,A*57
$GPGGA,185228.000,4344.3361,N,01111.8618,E,1,06,5.6,67.9,M,47.6,M,,0000*67
$GPGSA,A,3,20,32,19,01,11,23,,,,,,,9.8,5.6,8.0*33
$GPRMC,185228.000,A,4344.3361,N,01111.8618,E,1.32,23.13,190912,,,A*5C
$GPGGA,185229.000,4344.3363,N,01111.8619,E,1,05,5.6,67.2,M,47.6,M,,0000*6D
$GPGSA,A,3,20,32,19,01,11,,,,,,,,9.9,5.6,8.1*32
$GPRMC,185229.000,A,4344.3363,N,01111.8619,E,1.46,27.39,190912,,,A*51
$GPGGA,185230.000,4344.3364,N,01111.8620,E,1,06,5.6,66.8,M,47.6,M,,0000*60
$GPGSA,A,3,20,32,19,01,11,23,,,,,,,9.8,5.6,8.0*33
$GPGSV,3,1,11,32,82,326,29,01,81,351,18,11,73,146,22,20,52,263,29*74
$GPGSV,3,2,11,19,25,171,32,14,21,042,,17,21,316,20,23,20,193,15*7E
$GPGSV,3,3,11,31,12,099,12,28,10,277,16,22,00,067,*44
$GPRMC,185230.000,A,4344.3364,N,01111.8620,E,1.11,27.05,190912,,,A*59
$GPGGA,185231.000,4344.3363,N,01111.8620,E,1,05,2.1,66.8,M,47.6,M,,0000*65
$GPGSA,A,3,20,32,19,11,23,,,,,,,,2.3,2.1,1.0*3B
$GPRMC,185234.000,A,4344.3360,N,01111.8617,E,0.97,33.06,190912,,,A*54
$GPGGA,185235.000,4344.3361,N,01111.8617,E,1,06,5.6,66.8,M,47.6,M,,0000*64
$GPGSA,A,3,20,32,19,01,11,23,,,,,,,9.8,5.6,8.0*33
$GPGSV,3,1,11,32,82,326,29,01,81,351,19,11,73,146,22,20,52,263,28*74
$GPGSV,3,2,11,19,25,171,32,14,21,042,,17,21,316,20,23,20,193,16*7D
$GPGSV,3,3,11,31,12,099,12,28,10,277,17,22,00,067,*45
$GPRMC,185235.000,A,4344.3361,N,01111.8617,E,0.90,20.52,190912,,,A*50
$GPGGA,185236.000,4344.3361,N,01111.8615,E,1,06,5.6,66.2,M,47.6,M,,0000*6F
$GPGSA,A,3,20,32,19,01,11,23,,,,,,,9.8,5.6,8.0*33
$GPRMC,185305.000,A,4344.3251,N,01111.8535,E,1.15,217.10,190912,,,A*6F
$GPGGA,185306.000,4344.3245,N,01111.8528,E,1,06,5.6,95.1,M,47.6,M,,0000*68
$GPGSA,A,3,20,32,19,01,11,23,,,,,,,9.8,5.6,8.0*33
$GPRMC,185306.000,A,4344.3245,N,01111.8528,E,1.43,217.73,190912,,,A*63
$GPGGA,185307.000,4344.3240,N,01111.8522,E,1,06,5.6,95.8,M,47.6,M,,0000*6F
$GPGSA,A,3,20,32,19,01,11,23,,,,,,,9.8,5.6,8.0*33
$GPRMC,185307.000,A,4344.3240,N,01111.8522,E,1.37,222.64,190912,,,A*6E
$GPGGA,185308.000,4344.3237,N,01111.8519,E,1,06,5.6,96.2,M,47.6,M,,0000*61
$GPGSA,A,3,20,32,19,01,11,23,,,,,,,9.8,5.6,8.0*33
$GPRMC,185313.000,A,4344.3243,N,01111.8520,E,0.90,42.42,190912,,,A*56
$GPGGA,185314.000,4344.3248,N,01111.8522,E,1,05,5.6,93.3,M,47.6,M,,0000*6B
$GPGSA,A,3,20,32,19,01,11,,,,,,,,9.8,5.6,8.0*32
$GPRMC,185314.000,A,4344.3248,N,01111.8522,E,0.89,23.09,190912,,,A*58
$GPGGA,185315.000,4344.3255,N,01111.8524,E,1,05,5.6,91.5,M,47.6,M,,0000*64
$GPGSA,A,3,20,32,19,01,11,,,,,,,,9.8,5.6,8.0*32
$GPGSV,3,1,10,32,82,329,28,01,81,353,21,11,73,146,23,20,52,264,27*7B
$GPGSV,3,2,10,19,24,171,31,14,21,042,,17,21,316,20,23,20,193,19*71
$GPGSV,3,3,10,31,12,099,,28,10,277,18*79
$GPRMC,185315.000,A,4344.3255,N,01111.8524,E,1.02,28.84,190912,,,A*5F
$GPGGA,185316.000,4344.3259,N,01111.8525,E,1,05,5.6,89.8,M,47.6,M,,0000*6E
$GPGSA,A,3,20,32,19,01,11,,,,,,,,9.8,5.6,8.0*32
$GPRMC,185318.000,A,4344.3271,N,01111.8530,E,1.18,24.78,190912,,,A*55
$GPGGA,185319.000,4344.3279,N,01111.8534,E,1,05,5.6,84.0,M,47.6,M,,0000*66
$GPGSA,A,3,20,32,19,01,11,,,,,,,,9.8,5.6,8.0*32
$GPRMC,185319.000,A,4344.3279,N,01111.8534,E,1.52,26.48,190912,,,A*57
$GPGGA,185320.000,4344.3287,N,01111.8538,E,1,05,5.6,81.9,M,47.6,M,,0000*6D
$GPGSA,A,3,20,32,19,01,11,,,,,,,,9.8,5.6,8.0*32
$GPGSV,3,1,10,32,82,329,28,01,81,353,21,11,73,146,23,20,52,264,27*7B
$GPGSV,3,2,10,19,24,171,31,14,21,042,,17,21,316,20,23,20,193,10*78
$GPGSV,3,3,10,31,12,099,,28,10,277,19*78
$GPRMC,185320.000,A,4344.3287,N,01111.8538,E,1.48,32.64,190912,,,A*50
$GPGGA,185321.000,4344.3296,N,01111.8543,E,1,05,5.6,79.5,M,47.6,M,,0000*6B
$GPGSA,A,3,20,32,19,01,11,,,,,,,,9.8,5.6,8.0*32
$GPRMC,185321.000,A,4344.3296,N,01111.8543,E,1.73,27.27,190912,,,A*56
$GPGGA,185322.000,4344.3304,N,01111.8547,E,1,05,5.6,77.3,M,47.6,M,,0000*6E
$GPGSA,A,3,20,32,19,01,11,,,,,,,,9.8,5.6,8.0*32
$GPRMC,185322.000,A,4344.3304,N,01111.8547,E,1.66,23.53,190912,,,A*58
$GPGGA,185323.000,4344.3311,N,01111.8551,E,1,05,5.6,75.2,M,47.6,M,,0000*6F
$GPGSA,A,3,20,32,19,01,11,,,,,,,,9.8,5.6,8.0*32
$GPRMC,185323.000,A,4344.3311,N,01111.8551,E,1.52,31.35,190912,,,A*5E
$GPGGA,185324.000,4344.3318,N,01111.8554,E,1,06,5.6,73.2,M,47.6,M,,0000*61
$GPGSA,A,3,20,32,19,01,11,23,,,,,,,9.7,5.6,8.0*3C
$GPRMC,185324.000,A,4344.3318,N,01111.8554,E,1.31,27.33,190912,,,A*51
$GPGGA,185325.000,4344.3324,N,01111.8556,E,1,05,5.6,70.9,M,47.6,M,,0000*66
$GPGSA,A,3,20,32,19,01,11,,,,,,,,9.8,5.6,8.0*32
$GPGSV,3,1,10,32,82,329,28,01,81,353,20,11,73,146,23,20,52,264,27*7A
$GPGSV,3,2,10,19,24,171,31,14,21,042,,17,21,316,21,23,20,193,12*7B
$GPGSV,3,3,10,31,12,099,,28,10,277,19*78
$GPRMC,185325.000,A,4344.3324,N,01111.8556,E,1.22,18.71,190912,,,A*55
$GPGGA,185326.000,4344.3333,N,01111.8560,E,1,05,5.6,68.5,M,47.6,M,,0000*63
$GPGSA,A,3,20,32,19,01,11,,,,,,,,9.8,5.6,8.0*32
$GPRMC,185326.000,A,4344.3333,N,01111.8560,E,1.76,23.95,190912,,,A*56
$GPGGA,185327.000,4344.3339,N,01111.8563,E,1,05,5.6,66.4,M,47.6,M,,0000*64
$GPGSA,A,3,20,32,19,01,11,,,,,,,,9.8,5.6,8.0*32
$GPRMC,185327.000,A,4344.3339,N,01111.8563,E,1.54,26.72,190912,,,A*52
$GPGGA,185328.000,4344.3345,N,01111.8566,E,1,04,2.5,64.6,M,47.6,M,,0000*60
$GPGSA,A,3,20,32,19,11,,,,,,,,,2.7,2.5,1.0*3A
$GPRMC,185328.000,A,4344.3345,N,01111.8566,E,1.58,31.66,190912,,,A*5C
$GPGGA,185329.000,4344.3350,N,01111.8569,E,1,04,2.5,63.4,M,47.6,M,,0000*6F
$GPGSA,A,3,20,32,19,11,,,,,,,,,2.7,2.5,1.0*3A
$GPRMC,185329.000,A,4344.3350,N,01111.8569,E,1.48,31.88,190912,,,A*57
$GPGGA,185330.000,4344.3355,N,01111.8572,E,1,05,2.1,62.4,M,47.6,M,,0000*6C
$GPGSA,A,3,20,32,19,11,23,,,,,,,,2.3,2.1,1.0*3B
$GPGSV,3,1,10,32,82,329,27,01,81,353,19,11,73,146,22,20,52,264,27*7E
$GPGSV,3,2,10,19,24,171,31,14,21,042,,17,21,316,20,23,20,193,12*7A
$GPGSV,3,3,10,31,12,099,,28,10,277,19*78
$GPRMC,185330.000,A,4344.3355,N,01111.8572,E,1.56,31.75,190912,,,A*5D
$GPGGA,185331.000,4344.3357,N,01111.8576,E,1,05,2.1,62.0,M,47.6,M,,0000*6F
$GPGSA,A,3,20,32,19,11,23,,,,,,,,2.3,2.1,1.0*3B
$GPRMC,185331.000,A,4344.3357,N,01111.8576,E,1.55,48.28,190912,,,A*5F
$GPGGA,185332.000,4344.3359,N,01111.8580,E,1,06,5.5,62.0,M,47.6,M,,0000*6B
$GPGSA,A,3,20,32,19,01,11,23,,,,,,,9.7,5.5,8.0*3F
$GPRMC,185332.000,A,4344.3359,N,01111.8580,E,1.70,50.56,190912,,,A*5C
$GPGGA,185333.000,4344.3359,N,01111.8583,E,1,06,5.5,62.0,M,47.6,M,,0000*69
$GPGSA,A,3,20,32,19,01,11,23,,,,,,,9.7,5.5,8.0*3F
$GPRMC,185333.000,A,4344.3359,N,01111.8583,E,1.19,52.21,190912,,,A*53
$GPGGA,185334.000,4344.3359,N,01111.8584,E,1,06,5.5,62.0,M,47.6,M,,0000*69
$GPGSA,A,3,20,32,19,01,11,23,,,,,,,9.7,5.5,8.0*3F
$GPRMC,185334.000,A,4344.3359,N,01111.8584,E,1.02,40.37,190912,,,A*5D
$GPGGA,185335.000,4344.3358,N,01111.8585,E,1,06,5.5,62.5,M,47.6,M,,0000*6D
$GPGSA,A,3,20,32,19,01,11,23,,,,,,,9.7,5.5,8.0*3F
$GPGSV,3,1,10,32,82,329,27,01,81,353,19,11,73,146,22,20,52,264,27*7E
$GPGSV,3,2,10,19,24,171,31,14,21,042,,17,21,316,20,23,20,193,15*7D
$GPGSV,3,3,10,31,12,099,,28,10,277,19*78
$GPRMC,185335.000,A,4344.3358,N,01111.8585,E,0.93,48.44,190912,,,A*59
$GPGGA,185336.000,4344.3356,N,01111.8586,E,1,06,5.5,63.3,M,47.6,M,,0000*64
$GPGSA,A,3,20,32,19,01,11,23,,,,,,,9.7,5.5,8.0*3F
$GPRMC,185336.000,A,4344.3356,N,01111.8586,E,1.14,59.61,190912,,,A*5E
$GPGGA,185337.000,4344.3352,N,01111.8583,E,1,06,5.5,64.2,M,47.6,M,,0000*62
$GPGSA,A,3,20,32,19,01,11,23,,,,,,,9.7,5.5,8.0*3F
$GPRMC,185345.000,A,4344.3323,N,01111.8571,E,0.93,222.40,190912,,,A*63
$GPGGA,185346.000,4344.3319,N,01111.8569,E,1,06,5.5,73.5,M,47.6,M,,0000*6E
$GPGSA,A,3,20,32,19,01,11,23,,,,,,,9.7,5.5,8.0*3F
$GPRMC,185401.000,A,4344.3302,N,01111.8554,E,0.98,44.74,190912,,,A*5E
$GPGGA,185402.000,4344.3306,N,01111.8559,E,1,06,5.5,74.7,M,47.6,M,,0000*61
$GPGSA,A,3,20,32,19,01,11,23,,,,,,,9.7,5.5,7.9*39
$GPRMC,185402.000,A,4344.3306,N,01111.8559,E,1.09,49.50,190912,,,A*56
$GPGGA,185403.000,4344.3311,N,01111.8564,E,1,06,5.5,73.4,M,47.6,M,,0000*6C
$GPGSA,A,3,20,32,19,01,11,23,,,,,,,9.7,5.5,7.9*39
$GPRMC,185403.000,A,4344.3311,N,01111.8564,E,1.57,42.49,190912,,,A*57
$GPGGA,185404.000,4344.3317,N,01111.8571,E,1,06,5.5,72.1,M,47.6,M,,0000*6D
$GPGSA,A,3,20,32,19,01,11,23,,,,,,,9.7,5.5,7.9*39
$GPRMC,185404.000,A,4344.3317,N,01111.8571,E,1.75,44.63,190912,,,A*5C
$GPGGA,185405.000,4344.3325,N,01111.8578,E,1,06,5.5,70.2,M,47.6,M,,0000*65
$GPGSA,A,3,20,32,19,01,11,23,,,,,,,9.6,5.5,7.9*38
$GPGSV,3,1,10,32,82,331,24,01,81,355,24,11,73,146,20,20,53,264,25*7D
$GPGSV,3,2,10,19,24,171,29,17,21,316,20,14,21,042,,23,21,193,15*75
$GPGSV,3,3,10,31,12,099,16,28,10,276,18*7F
$GPRMC,185405.000,A,4344.3325,N,01111.8578,E,2.01,39.78,190912,,,A*55
$GPGGA,185406.000,4344.3332,N,01111.8584,E,1,06,5.5,68.4,M,47.6,M,,0000*6C
$GPGSA,A,3,20,32,19,01,11,23,,,,,,,9.6,5.5,7.9*38
$GPRMC,185406.000,A,4344.3332,N,01111.8584,E,1.94,41.92,190912,,,A*57
$GPGGA,185407.000,4344.3337,N,01111.8590,E,1,06,5.5,67.1,M,47.6,M,,0000*67
$GPGSA,A,3,20,32,19,01,11,23,,,,,,,9.6,5.5,7.9*38
$GPRMC,185407.000,A,4344.3337,N,01111.8590,E,1.65,46.80,190912,,,A*5C
$GPGGA,185408.000,4344.3342,N,01111.8595,E,1,06,5.5,66.0,M,47.6,M,,0000*6F
$GPGSA,A,3,20,32,19,01,11,23,,,,,,,9.6,5.5,7.9*38
$GPRMC,185408.000,A,4344.3342,N,01111.8595,E,1.66,46.59,190912,,,A*53
$GPGGA,185409.000,4344.3345,N,01111.8601,E,1,06,5.5,65.2,M,47.6,M,,0000*66
$GPGSA,A,3,20,32,19,01,11,23,,,,,,,9.6,5.5,7.9*38
$GPRMC,185409.000,A,4344.3345,N,01111.8601,E,1.57,51.49,190912,,,A*5E
$GPGGA,185410.000,4344.3348,N,01111.8603,E,1,06,5.5,64.4,M,47.6,M,,0000*66
$GPGSA,A,3,20,32,19,01,11,23,,,,,,,9.6,5.5,7.9*38
$GPGSV,3,1,10,32,82,333,24,01,81,356,25,11,73,146,18,20,53,264,25*76
$GPGSV,3,2,10,19,24,171,30,17,21,315,20,14,21,042,,23,21,193,15*7E
$GPGSV,3,3,10,31,12,099,17,28,10,276,18*7E
$GPRMC,185411.000,A,4344.3350,N,01111.8608,E,1.15,65.56,190912,,,A*55
$GPGGA,185412.000,4344.3352,N,01111.8612,E,1,05,2.2,63.2,M,47.6,M,,0000*6D
$GPGSA,A,3,20,32,19,01,23,,,,,,,,2.4,2.2,1.0*3E
$GPRMC,185412.000,A,4344.3352,N,01111.8612,E,0.86,53.92,190912,,,A*59
$GPGGA,185413.000,4344.3353,N,01111.8614,E,1,06,5.5,62.6,M,47.6,M,,0000*6D
$GPGSA,A,3,20,32,19,01,11,23,,,,,,,9.6,5.5,7.9*38
$GPRMC,185419.000,A,4344.3354,N,01111.8617,E,0.91,69.62,190912,,,A*51
$GPGGA,185420.000,4344.3355,N,01111.8618,E,1,05,5.6,61.0,M,47.6,M,,0000*62
$GPGSA,A,3,20,32,19,01,11,,,,,,,,9.7,5.6,7.9*3B
$GPGSV,3,1,10,32,82,333,25,01,81,356,25,11,73,146,15,20,53,264,24*7B
$GPGSV,3,2,10,19,24,171,30,17,22,315,21,23,21,193,,14,21,042,*78
$GPGSV,3,3,10,31,12,099,17,28,10,276,19*7F
$GPRMC,185420.000,A,4344.3355,N,01111.8618,E,0.87,52.97,190912,,,A*50
$GPGGA,185421.000,4344.3356,N,01111.8616,E,1,05,5.6,60.9,M,47.6,M,,0000*66
$GPGSA,A,3,20,32,19,01,11,,,,,,,,9.7,5.6,7.9*3B
$GPRMC,185422.000,A,4344.3356,N,01111.8610,E,1.01,278.28,190912,,,A*68
$GPGGA,185423.000,4344.3356,N,01111.8606,E,1,05,5.6,60.7,M,47.6,M,,0000*6B
$GPGSA,A,3,20,32,19,01,11,,,,,,,,9.7,5.6,7.9*3B
$GPRMC,185428.000,A,4344.3352,N,01111.8606,E,0.97,77.11,190912,,,A*58
$GPGGA,185429.000,4344.3352,N,01111.8609,E,0,03,,62.3,M,47.6,M,,0000*46
$GPGSA,A,1,32,19,01,,,,,,,,,,,,*16
$GPRMC,185431.000,A,4344.3351,N,01111.8621,E,1.75,82.54,190912,,,A*50
$GPGGA,185432.000,4344.3350,N,01111.8628,E,0,03,,63.2,M,47.6,M,,0000*4D
$GPGSA,A,1,32,19,01,,,,,,,,,,,,*16
$GPRMC,185434.000,A,4344.3349,N,01111.8639,E,1.63,74.95,190912,,,A*56
$GPGGA,185435.000,4344.3349,N,01111.8644,E,1,04,2.4,64.2,M,47.6,M,,0000*61
$GPGSA,A,3,20,32,19,01,,,,,,,,,2.6,2.4,1.0*3B
$GPGSV,3,1,10,32,82,333,26,01,81,356,25,11,73,146,,20,53,264,17*7C
$GPGSV,3,2,10,19,24,171,29,17,22,315,21,23,21,193,,14,21,042,*70
$GPGSV,3,3,10,31,12,099,15,28,10,276,19*7D
$GPRMC,185435.000,A,4344.3349,N,01111.8644,E,1.64,82.67,190912,,,A*5E
$GPGGA,185436.000,4344.3347,N,01111.8646,E,1,04,2.4,64.5,M,47.6,M,,0000*69
$GPGSA,A,3,20,32,19,01,,,,,,,,,2.6,2.4,1.0*3B
$GPRMC,185436.000,A,4344.3347,N,01111.8646,E,1.18,89.92,190912,,,A*5B
$GPGGA,185437.000,4344.3346,N,01111.8650,E,1,04,2.4,64.9,M,47.6,M,,0000*62
$GPGSA,A,3,20,32,19,01,,,,,,,,,2.6,2.4,1.0*3B
$GPRMC,185437.000,A,4344.3346,N,01111.8650,E,1.44,90.25,190912,,,A*51
$GPGGA,185438.000,4344.3344,N,01111.8655,E,1,04,2.4,65.3,M,47.6,M,,0000*61
$GPGSA,A,3,20,32,19,01,,,,,,,,,2.6,2.4,1.0*3B
$GPRMC,185438.000,A,4344.3344,N,01111.8655,E,1.54,89.13,190912,,,A*55
$GPGGA,185439.000,4344.3342,N,01111.8662,E,1,04,2.4,65.6,M,47.6,M,,0000*67
$GPGSA,A,3,20,32,19,01,,,,,,,,,2.6,2.4,1.0*3B
$GPRMC,185439.000,A,4344.3342,N,01111.8662,E,1.67,100.47,190912,,,A*67
$GPGGA,185440.000,4344.3343,N,01111.8669,E,1,04,2.4,65.9,M,47.6,M,,0000*6C
$GPGSA,A,3,20,32,19,01,,,,,,,,,2.6,2.4,1.0*3B
$GPGSV,3,1,10,32,82,333,26,01,81,356,25,11,73,146,,20,53,264,17*7C
$GPGSV,3,2,10,19,24,171,24,17,22,315,21,23,21,193,,14,21,042,*7D
$GPGSV,3,3,10,31,12,099,14,28,10,276,19*7C
$GPRMC,185440.000,A,4344.3343,N,01111.8669,E,1.58,72.49,190912,,,A*55
$GPGGA,185441.000,4344.3342,N,01111.8675,E,1,04,2.4,66.2,M,47.6,M,,0000*69
$GPGSA,A,3,20,32,19,01,,,,,,,,,2.6,2.4,1.0*3B
$GPRMC,185441.000,A,4344.3342,N,01111.8675,E,1.57,87.36,190912,,,A*55
$GPGGA,185442.000,4344.3342,N,01111.8679,E,1,04,2.4,66.5,M,47.6,M,,0000*61
$GPGSA,A,3,20,32,19,01,,,,,,,,,2.6,2.4,1.0*3B
$GPRMC,185442.000,A,4344.3342,N,01111.8679,E,1.09,77.58,190912,,,A*56
$GPGGA,185443.000,4344.3340,N,01111.8679,E,1,05,2.2,66.8,M,47.6,M,,0000*68
$GPGSA,A,3,20,32,19,01,23,,,,,,,,2.4,2.2,1.0*3E
$GPRMC,185444.000,A,4344.3337,N,01111.8680,E,0.91,158.61,190912,,,A*62
$GPGGA,185445.000,4344.3333,N,01111.8681,E,1,05,2.2,67.4,M,47.6,M,,0000*60
$GPGSA,A,3,20,32,19,01,23,,,,,,,,2.4,2.2,1.0*3E
$GPGSV,3,1,10,32,82,333,24,01,81,356,25,11,73,146,,20,53,264,14*7D
$GPGSV,3,2,10,19,24,171,23,17,22,315,21,23,21,193,16,14,21,042,*7D
$GPGSV,3,3,10,31,12,099,13,28,10,276,19*7B
$GPRMC,185445.000,A,4344.3333,N,01111.8681,E,1.08,149.95,190912,,,A*6C
$GPGGA,185446.000,4344.3330,N,01111.8681,E,1,04,4.0,67.7,M,47.6,M,,0000*66
$GPGSA,A,3,32,19,01,23,,,,,,,,,4.2,4.0,1.0*38
$GPRMC,185446.000,A,4344.3330,N,01111.8681,E,0.99,178.43,190912,,,A*6C
$GPGGA,185447.000,4344.3326,N,01111.8683,E,1,04,2.3,68.0,M,47.6,M,,0000*6F
$GPGSA,A,3,20,19,01,23,,,,,,,,,2.5,2.3,1.0*3F
$GPRMC,185447.000,A,4344.3326,N,01111.8683,E,1.31,175.57,190912,,,A*63
$GPGGA,185448.000,4344.3322,N,01111.8682,E,1,03,4.1,68.2,M,47.6,M,,0000*64
$GPGSA,A,2,19,01,23,,,,,,,,,,4.3,4.1,1.0*38
$GPRMC,185448.000,A,4344.3322,N,01111.8682,E,1.08,211.21,190912,,,A*63
$GPGGA,185449.000,4344.3318,N,01111.8678,E,1,04,2.3,68.4,M,47.6,M,,0000*6C
$GPGSA,A,3,20,19,01,23,,,,,,,,,2.5,2.3,1.0*3F
$GPRMC,185449.000,A,4344.3318,N,01111.8678,E,1.93,220.60,190912,,,A*6B
$GPGGA,185450.000,4344.3314,N,01111.8671,E,1,04,2.3,68.6,M,47.6,M,,0000*63
$GPGSA,A,3,20,19,01,23,,,,,,,,,2.5,2.3,1.0*3F
$GPGSV,3,1,10,32,82,333,18,01,81,356,24,11,73,146,,20,53,264,14*73
$GPGSV,3,2,10,19,24,171,28,17,22,315,21,23,21,193,15,14,21,042,*75
$GPGSV,3,3,10,31,12,099,,28,10,276,19*79
$GPRMC,185450.000,A,4344.3314,N,01111.8671,E,2.08,244.91,190912,,,A*6B
$GPGGA,185451.000,4344.3313,N,01111.8665,E,1,04,2.3,68.8,M,47.6,M,,0000*6E
$GPGSA,A,3,20,19,01,23,,,,,,,,,2.5,2.3,1.0*3F
$GPRMC,185451.000,A,4344.3313,N,01111.8665,E,1.85,253.98,190912,,,A*61
$GPGGA,185452.000,4344.3311,N,01111.8660,E,1,04,2.3,69.0,M,47.6,M,,0000*63
$GPGSA,A,3,20,19,01,23,,,,,,,,,2.5,2.3,1.0*3F
$GPRMC,185452.000,A,4344.3311,N,01111.8660,E,1.77,255.14,190912,,,A*6A
$GPGGA,185453.000,4344.3309,N,01111.8654,E,1,04,2.3,69.1,M,47.6,M,,0000*6D
$GPGSA,A,3,20,19,01,23,,,,,,,,,2.5,2.3,1.0*3F
$GPRMC,185453.000,A,4344.3309,N,01111.8654,E,2.10,245.11,190912,,,A*63
$GPGGA,185454.000,4344.3307,N,01111.8649,E,1,05,2.2,69.2,M,47.6,M,,0000*6B
$GPGSA,A,3,20,32,19,01,23,,,,,,,,2.4,2.2,1.0*3E
$GPRMC,185454.000,A,4344.3307,N,01111.8649,E,2.14,245.08,190912,,,A*6A
$GPGGA,185455.000,4344.3305,N,01111.8644,E,1,06,5.4,69.4,M,47.6,M,,0000*61
$GPGSA,A,3,20,32,19,01,23,11,,,,,,,9.5,5.4,7.8*3B
$GPGSV,3,1,10,32,82,333,25,01,81,356,18,11,73,146,18,20,53,264,14*7B
$GPGSV,3,2,10,19,24,171,31,17,22,315,21,23,21,193,14,14,21,042,*7C
$GPGSV,3,3,10,31,12,099,,28,10,276,18*78
$GPRMC,185455.000,A,4344.3305,N,01111.8644,E,1.96,248.63,190912,,,A*6D
$GPGGA,185456.000,4344.3306,N,01111.8642,E,1,05,2.2,69.6,M,47.6,M,,0000*67
$GPGSA,A,3,20,32,19,01,23,,,,,,,,2.4,2.2,1.0*3E
$GPRMC,185456.000,A,4344.3306,N,01111.8642,E,1.03,280.61,190912,,,A*61
$GPGGA,185457.000,4344.3309,N,01111.8643,E,1,04,2.4,69.8,M,47.6,M,,0000*61
$GPGSA,A,3,20,32,19,01,,,,,,,,,2.6,2.4,1.0*3B
$GPRMC,185511.000,A,4344.3348,N,01111.8706,E,8.26,76.33,190912,,,A*5A
$GPGGA,185512.000,4344.3355,N,01111.8754,E,1,04,4.0,71.8,M,47.6,M,,0000*64
$GPGSA,A,3,32,19,01,23,,,,,,,,,4.2,4.0,1.0*38
$GPRMC,185512.000,A,4344.3355,N,01111.8754,E,9.16,82.29,190912,,,A*50
$GPGGA,185513.000,4344.3360,N,01111.8804,E,1,04,4.0,71.8,M,47.6,M,,0000*69
$GPGSA,A,3,32,19,01,23,,,,,,,,,4.2,4.0,1.0*38
$GPRMC,185513.000,A,4344.3360,N,01111.8804,E,9.44,83.31,190912,,,A*52
$GPGGA,185514.000,4344.3366,N,01111.8858,E,1,04,4.0,71.8,M,47.6,M,,0000*61
$GPGSA,A,3,32,19,01,23,,,,,,,,,4.2,4.0,1.0*38
$GPRMC,185514.000,A,4344.3366,N,01111.8858,E,10.45,82.92,190912,,,A*6B
$GPGGA,185515.000,4344.3372,N,01111.8914,E,1,04,4.0,71.7,M,47.6,M,,0000*63
$GPGSA,A,3,32,19,01,23,,,,,,,,,4.2,4.0,1.0*38
$GPGSV,3,1,10,01,82,358,17,32,82,336,24,11,72,146,,20,53,265,*71
$GPGSV,3,2,10,19,23,171,31,17,22,315,19,23,21,193,13,14,20,042,*76
$GPGSV,3,3,10,31,12,098,,28,10,276,14*75
$GPRMC,185515.000,A,4344.3372,N,01111.8914,E,11.22,81.85,190912,,,A*63
$GPGGA,185516.000,4344.3379,N,01111.8970,E,1,04,4.0,71.7,M,47.6,M,,0000*69
$GPGSA,A,3,32,19,01,23,,,,,,,,,4.2,4.0,1.0*38
$GPRMC,185516.000,A,4344.3379,N,01111.8970,E,11.95,79.61,190912,,,A*68
$GPGGA,185517.000,4344.3386,N,01111.9028,E,0,03,,71.6,M,47.6,M,,0000*40
$GPGSA,A,1,32,19,01,,,,,,,,,,,,*16
$GPRMC,185520.000,A,4344.3407,N,01111.9194,E,11.02,80.23,190912,,,A*6E
$GPGGA,185521.000,4344.3412,N,01111.9243,E,1,04,8.6,71.8,M,47.6,M,,0000*68
$GPGSA,A,3,11,32,19,01,,,,,,,,,8.7,8.6,1.0*3A
$GPRMC,185521.000,A,4344.3412,N,01111.9243,E,10.05,81.20,190912,,,A*66
$GPGGA,185522.000,4344.3416,N,01111.9287,E,1,04,8.6,72.1,M,47.6,M,,0000*6D
$GPGSA,A,3,11,32,19,01,,,,,,,,,8.7,8.6,1.0*3A
$GPRMC,185522.000,A,4344.3416,N,01111.9287,E,8.65,80.56,190912,,,A*56
$GPGGA,185523.000,4344.3419,N,01111.9326,E,1,04,8.6,72.7,M,47.6,M,,0000*6F
$GPGSA,A,3,11,32,19,01,,,,,,,,,8.7,8.6,1.0*3A
$GPRMC,185523.000,A,4344.3419,N,01111.9326,E,7.75,79.79,190912,,,A*57
$GPGGA,185524.000,4344.3422,N,01111.9362,E,1,04,8.6,73.1,M,47.6,M,,0000*67
$GPGSA,A,3,11,32,19,01,,,,,,,,,8.7,8.6,1.0*3A
$GPRMC,185524.000,A,4344.3422,N,01111.9362,E,7.13,80.27,190912,,,A*55
$GPGGA,185525.000,4344.3427,N,01111.9397,E,1,04,8.6,73.5,M,47.6,M,,0000*6D
$GPGSA,A,3,11,32,19,01,,,,,,,,,8.7,8.6,1.0*3A
$GPGSV,3,1,10,01,82,358,17,32,82,336,26,11,72,146,15,20,53,265,*77
$GPGSV,3,2,10,19,23,171,32,17,22,315,18,23,21,193,13,14,20,042,*74
$GPGSV,3,3,10,31,12,098,,28,10,276,*70
$GPRMC,185525.000,A,4344.3427,N,01111.9397,E,6.87,77.48,190912,,,A*56
$GPGGA,185526.000,4344.3431,N,01111.9428,E,1,04,8.6,73.9,M,47.6,M,,0000*66
$GPGSA,A,3,11,32,19,01,,,,,,,,,8.7,8.6,1.0*3A
$GPRMC,185526.000,A,4344.3431,N,01111.9428,E,5.96,76.17,190912,,,A*59
$GPGGA,185527.000,4344.3435,N,01111.9462,E,1,04,8.6,74.5,M,47.6,M,,0000*66
$GPGSA,A,3,11,32,19,01,,,,,,,,,8.7,8.6,1.0*3A
$GPRMC,185527.000,A,4344.3435,N,01111.9462,E,5.84,77.84,190912,,,A*5A
$GPGGA,185528.000,4344.3438,N,01111.9490,E,1,04,8.6,74.9,M,47.6,M,,0000*65
$GPGSA,A,3,11,32,19,01,,,,,,,,,8.7,8.6,1.0*3A
$GPRMC,185528.000,A,4344.3438,N,01111.9490,E,4.57,76.67,190912,,,A*56
$GPGGA,185529.000,4344.3442,N,01111.9512,E,1,04,8.6,75.1,M,47.6,M,,0000*6B
$GPGSA,A,3,11,32,19,01,,,,,,,,,8.7,8.6,1.0*3A
$GPRMC,185529.000,A,4344.3442,N,01111.9512,E,3.49,72.99,190912,,,A*5C
$GPGGA,185530.000,4344.3444,N,01111.9528,E,1,04,8.6,75.3,M,47.6,M,,0000*6E
$GPGSA,A,3,11,32,19,01,,,,,,,,,8.7,8.6,1.0*3A
$GPGSV,3,1,10,01,82,358,16,32,82,336,26,11,72,146,14,20,53,265,*77
$GPGSV,3,2,10,19,23,171,32,17,22,315,18,23,21,193,13,14,20,042,*74
$GPGSV,3,3,10,31,12,098,,28,10,276,*70
$GPRMC,185530.000,A,4344.3444,N,01111.9528,E,1.83,77.69,190912,,,A*55
$GPGGA,185531.000,4344.3444,N,01111.9537,E,1,04,8.6,75.3,M,47.6,M,,0000*61
$GPGSA,A,3,11,32,19,01,,,,,,,,,8.7,8.6,1.0*3A
$GPRMC,185533.000,A,4344.3442,N,01111.9542,E,1.91,246.01,190912,,,A*61
$GPGGA,185534.000,4344.3443,N,01111.9550,E,1,04,8.6,75.6,M,47.6,M,,0000*67
$GPGSA,A,3,11,32,19,01,,,,,,,,,8.7,8.6,1.0*3A
$GPRMC,185534.000,A,4344.3443,N,01111.9550,E,0.97,263.97,190912,,,A*6B
$GPGGA,185535.000,4344.3445,N,01111.9559,E,1,04,8.6,75.8,M,47.6,M,,0000*67
$GPGSA,A,3,11,32,19,01,,,,,,,,,8.7,8.6,1.0*3A
$GPGSV,3,1,10,01,82,358,16,32,82,336,26,11,72,146,13,20,53,265,*70
$GPGSV,3,2,10,19,23,171,32,17,22,315,18,23,21,193,14,14,20,042,*73
$GPGSV,3,3,10,31,12,098,,28,10,276,*70
$GPRMC,185554.000,A,4344.3470,N,01111.9659,E,0.95,62.91,190912,,,A*50
$GPGGA,185555.000,4344.3472,N,01111.9658,E,1,03,8.7,70.5,M,47.6,M,,0000*69
$GPGSA,A,2,11,32,19,,,,,,,,,,8.8,8.7,1.0*34
$GPGSV,3,1,10,01,82,000,,32,81,338,27,11,72,146,19,20,53,265,*7F
$GPGSV,3,2,10,19,23,171,32,17,22,315,18,23,22,193,13,14,20,042,*77
$GPGSV,3,3,10,31,12,098,,28,10,276,*70
$GPRMC,185555.000,A,4344.3472,N,01111.9658,E,1.06,68.56,190912,,,A*58
$GPGGA,185556.000,4344.3475,N,01111.9657,E,0,00,,69.7,M,47.6,M,,0000*4B
$GPGSA,A,1,,,,,,,,,,,,,,,*1E
$GPRMC,185603.000,A,4344.3487,N,01111.9584,E,0.99,296.28,190912,,,A*6D
$GPGGA,185604.000,4344.3488,N,01111.9570,E,1,03,8.7,61.7,M,47.6,M,,0000*60
$GPGSA,A,2,11,32,19,,,,,,,,,,8.8,8.7,1.0*34
$GPRMC,185604.000,A,4344.3488,N,01111.9570,E,1.29,291.58,190912,,,A*64
$GPGGA,185605.000,4344.3490,N,01111.9557,E,1,03,8.7,61.0,M,47.6,M,,0000*6A
$GPGSA,A,2,11,32,19,,,,,,,,,,8.8,8.7,1.0*34
$GPGSV,3,1,10,01,82,000,,32,81,338,28,11,72,146,20,20,53,265,18*73
$GPGSV,3,2,10,19,23,171,31,17,22,315,18,23,22,193,14,14,20,042,*73
$GPGSV,3,3,10,31,12,098,,28,10,276,*70
$GPRMC,185605.000,A,4344.3490,N,01111.9557,E,1.24,291.05,190912,,,A*6C
$GPGGA,185606.000,4344.3491,N,01111.9545,E,1,03,8.7,60.1,M,47.6,M,,0000*6B
$GPGSA,A,2,11,32,19,,,,,,,,,,8.8,8.7,1.0*34
$GPRMC,185609.000,A,4344.3491,N,01111.9506,E,1.06,261.23,190912,,,A*6E
$GPGGA,185610.000,4344.3491,N,01111.9492,E,1,03,8.7,56.7,M,47.6,M,,0000*64
$GPGSA,A,2,11,32,19,,,,,,,,,,8.8,8.7,1.0*34
$GPGSV,3,1,10,01,82,000,,32,81,338,28,11,72,146,21,20,53,265,18*72
$GPGSV,3,2,10,19,23,171,31,17,22,315,18,23,22,193,13,14,20,042,*74
$GPGSV,3,3,10,31,12,098,,28,10,276,*70
$GPRMC,185613.000,A,4344.3493,N,01111.9466,E,0.96,45.51,190912,,,A*59
$GPGGA,185614.000,4344.3495,N,01111.9460,E,1,03,8.7,54.0,M,47.6,M,,0000*6C
$GPGSA,A,2,11,32,19,,,,,,,,,,8.8,8.7,1.0*34
$GPRMC,185614.000,A,4344.3495,N,01111.9460,E,1.07,28.33,190912,,,A*58
$GPGGA,185615.000,4344.3496,N,01111.9455,E,1,03,8.7,53.5,M,47.6,M,,0000*6A
$GPGSA,A,2,11,32,19,,,,,,,,,,8.8,8.7,1.0*34
$GPGSV,3,1,10,01,82,000,,32,81,338,28,11,72,146,21,20,53,265,19*73
$GPGSV,3,2,10,19,23,171,31,17,22,315,18,23,22,193,12,14,20,042,*75
$GPGSV,3,3,10,31,12,098,,28,10,276,*70
$GPRMC,185615.000,A,4344.3496,N,01111.9455,E,1.07,56.97,190912,,,A*5B
$GPGGA,185616.000,4344.3497,N,01111.9451,E,1,03,8.7,53.2,M,47.6,M,,0000*6B
$GPGSA,A,2,11,32,19,,,,,,,,,,8.8,8.7,1.0*34
$GPRMC,185621.000,A,4344.3487,N,01111.9401,E,1.49,252.02,190912,,,A*6D
$GPGGA,185622.000,4344.3482,N,01111.9383,E,1,04,2.5,53.6,M,47.6,M,,0000*6B
