$GPRMC,063934.383,A,5333.1883,N,01000.6926,E,0.87,142.94,170912,,,A*6A
$GPGGA,063935.383,5333.1736,N,01000.6913,E,1,03,2.6,19.2,M,46.0,M,,0000*68
$GPGSA,A,2,12,27,15,,,,,,,,,,2.8,2.6,1.0*3E
$GPRMC,064000.383,A,5333.1792,N,01000.6734,E,1.69,114.41,170912,,,A*6B
$GPGGA,064001.383,5333.1795,N,01000.6728,E,1,03,2.6,19.2,M,46.0,M,,0000*6E
$GPGSA,A,2,12,27,15,,,,,,,,,,2.8,2.6,1.0*3E
$GPRMC,064002.383,A,5333.1771,N,01000.6829,E,1.13,117.44,170912,,,A*6C
$GPGGA,064003.383,5333.1783,N,01000.6791,E,1,03,2.6,19.2,M,46.0,M,,0000*69
$GPGSA,A,2,12,27,15,,,,,,,,,,2.8,2.6,1.0*3E
$GPRMC,064008.383,A,5333.1805,N,01000.6731,E,1.32,115.45,170912,,,A*6C
$GPGGA,064009.383,5333.1831,N,01000.6629,E,1,03,2.6,19.2,M,46.0,M,,0000*67
$GPGSA,A,2,12,27,15,,,,,,,,,,2.8,2.6,1.0*3E
$GPGSV,3,1,12,27,71,116,29,12,50,237,21,15,28,182,30,09,83,115,25*73
$GPGSV,3,2,12,17,35,057,23,14,22,315,21,22,15,289,17,25,12,242,*78
$GPGSV,3,3,12,18,08,251,,01,04,007,,04,04,104,,28,03,061,*74
$GPRMC,064009.383,A,5333.1831,N,01000.6629,E,2.08,292.16,170912,,,A*62
$GPGGA,064010.383,5333.1821,N,01000.6674,E,1,03,2.6,19.2,M,46.0,M,,0000*66
$GPGSA,A,2,12,27,15,,,,,,,,,,2.8,2.6,1.0*3E
$GPRMC,064010.383,A,5333.1821,N,01000.6674,E,2.38,292.67,170912,,,A*66
$GPGGA,064011.383,5333.1825,N,01000.6664,E,1,03,2.6,19.2,M,46.0,M,,0000*62
$GPGSA,A,2,12,27,15,,,,,,,,,,2.8,2.6,1.0*3E
$GPRMC,064011.383,A,5333.1825,N,01000.6664,E,3.66,292.77,170912,,,A*69
$GPGGA,064012.383,5333.1836,N,01000.6628,E,1,03,2.6,19.2,M,46.0,M,,0000*6B
$GPGSA,A,2,12,27,15,,,,,,,,,,2.8,2.6,1.0*3E
$GPRMC,064012.383,A,5333.1836,N,01000.6628,E,1.63,292.44,170912,,,A*67
$GPGGA,064013.383,5333.1848,N,01000.6591,E,1,03,2.6,19.2,M,46.0,M,,0000*62
$GPGSA,A,2,12,27,15,,,,,,,,,,2.8,2.6,1.0*3E
$GPRMC,064014.383,A,5333.1866,N,01000.6532,E,1.29,292.07,170912,,,A*65
$GPGGA,064015.383,5333.1875,N,01000.6502,E,1,03,2.6,19.2,M,46.0,M,,0000*60
$GPGSA,A,2,12,27,15,,,,,,,,,,2.8,2.6,1.0*3E
$GPRMC,064015.383,A,5333.1875,N,01000.6502,E,0.81,113.75,170912,,,A*69
$GPGGA,064016.383,5333.1877,N,01000.6496,E,1,03,2.6,19.2,M,46.0,M,,0000*6D
$GPGSA,A,2,12,27,15,,,,,,,,,,2.8,2.6,1.0*3E
$GPRMC,064016.383,A,5333.1877,N,01000.6496,E,3.81,113.51,170912,,,A*61
$GPGGA,064017.383,5333.1822,N,01000.6623,E,1,03,2.6,19.2,M,46.0,M,,0000*60
$GPGSA,A,2,12,27,15,,,,,,,,,,2.8,2.6,1.0*3E
$GPRMC,064017.383,A,5333.1822,N,01000.6623,E,2.24,95.45,170912,,,A*58
$GPGGA,064018.383,5333.1887,N,01000.6494,E,1,03,2.6,19.2,M,46.0,M,,0000*6E
$GPGSA,A,2,12,27,15,,,,,,,,,,2.8,2.6,1.0*3E
$GPRMC,064019.383,A,5333.1881,N,01000.6538,E,2.36,294.22,170912,,,A*67
$GPGGA,064020.383,5333.1898,N,01000.6465,E,0,03,,19.2,M,46.0,M,,0000*4E
$GPGSA,A,1,12,27,15,,,,,,,,,,,,*1C
$GPRMC,064022.383,A,5333.1946,N,01000.6605,E,2.96,145.09,170912,,,A*64
$GPGGA,064023.383,5333.1875,N,01000.6602,E,1,03,2.6,19.2,M,46.0,M,,0000*66
$GPGSA,A,2,12,27,15,,,,,,,,,,2.8,2.6,1.0*3E
$GPRMC,064023.383,A,5333.1875,N,01000.6602,E,1.44,125.67,170912,,,A*61
$GPGGA,064024.383,5333.1860,N,01000.6531,E,1,03,2.6,19.2,M,46.0,M,,0000*66
$GPGSA,A,2,12,27,15,,,,,,,,,,2.8,2.6,1.0*3E
$GPGSV,3,1,12,27,71,116,29,12,50,238,21,15,28,181,19,09,83,115,25*74
$GPGSV,3,2,12,17,35,056,23,14,22,315,21,22,15,289,16,25,12,242,*78
$GPGSV,3,3,12,18,08,251,,04,04,104,,01,04,007,,28,03,061,*74
$GPRMC,064024.383,A,5333.1860,N,01000.6531,E,1.72,14.55,170912,,,A*56
$GPGGA,064025.383,5333.1917,N,01000.6558,E,1,03,2.6,19.2,M,46.0,M,,0000*69
$GPGSA,A,2,12,27,15,,,,,,,,,,2.8,2.6,1.0*3E
$GPRMC,064025.383,A,5333.1917,N,01000.6558,E,1.19,23.03,170912,,,A*53
$GPGGA,064026.383,5333.1722,N,01000.6696,E,1,03,2.6,19.2,M,46.0,M,,0000*63
$GPGSA,A,2,12,27,15,,,,,,,,,,2.8,2.6,1.0*3E
$GPRMC,064026.383,A,5333.1722,N,01000.6696,E,1.63,131.26,170912,,,A*61
$GPGGA,064027.383,5333.1742,N,01000.6765,E,1,03,2.6,19.2,M,46.0,M,,0000*69
$GPGSA,A,2,12,27,15,,,,,,,,,,2.8,2.6,1.0*3E
$GPRMC,064027.383,A,5333.1742,N,01000.6765,E,2.06,145.88,170912,,,A*6C
$GPGGA,064028.383,5333.1801,N,01000.6740,E,1,03,2.6,19.2,M,46.0,M,,0000*69
$GPGSA,A,2,12,27,15,,,,,,,,,,2.8,2.6,1.0*3E
$GPRMC,064030.383,A,5333.1806,N,01000.6751,E,3.08,140.19,170912,,,A*60
$GPGGA,064031.383,5333.1810,N,01000.6738,E,1,03,2.6,19.2,M,46.0,M,,0000*6E
$GPGSA,A,2,12,27,15,,,,,,,,,,2.8,2.6,1.0*3E
$GPRMC,064031.383,A,5333.1810,N,01000.6738,E,0.90,234.01,170912,,,A*62
$GPGGA,064032.383,5333.1824,N,01000.6814,E,1,03,2.6,19.2,M,46.0,M,,0000*6B
$GPGSA,A,2,12,27,15,,,,,,,,,,2.8,2.6,1.0*3E
$GPRMC,064034.383,A,5333.1734,N,01000.6887,E,0.99,99.96,170912,,,A*57
$GPGGA,064035.383,5333.1749,N,01000.6884,E,1,03,2.6,19.2,M,46.0,M,,0000*61
$GPGSA,A,2,12,27,15,,,,,,,,,,2.8,2.6,1.0*3E
$GPRMC,064038.383,A,5333.1804,N,01000.6957,E,1.24,189.04,170912,,,A*67
$GPGGA,064039.383,5333.1667,N,01000.6993,E,1,03,2.6,19.2,M,46.0,M,,0000*67
$GPGSA,A,2,12,27,15,,,,,,,,,,2.8,2.6,1.0*3E
$GPGSV,3,1,12,27,70,116,30,12,50,238,24,15,28,181,19,09,82,115,20*7C
$GPGSV,3,2,12,17,35,056,22,14,23,315,17,22,15,289,,25,13,242,*7B
$GPGSV,3,3,12,18,08,251,,04,04,104,,01,04,007,,28,03,061,*74
$GPRMC,064039.383,A,5333.1667,N,01000.6993,E,2.48,170.19,170912,,,A*66
$GPGGA,064040.383,5333.1727,N,01000.6977,E,1,03,2.6,19.2,M,46.0,M,,0000*66
$GPGSA,A,2,12,27,15,,,,,,,,,,2.8,2.6,1.0*3E
$GPRMC,064040.383,A,5333.1727,N,01000.6977,E,1.63,133.55,170912,,,A*62
$GPGGA,064041.383,5333.1740,N,01000.6954,E,1,03,2.6,19.2,M,46.0,M,,0000*67
$GPGSA,A,2,12,27,15,,,,,,,,,,2.8,2.6,1.0*3E
$GPRMC,064044.383,A,5333.1845,N,01000.6873,E,2.01,162.11,170912,,,A*6B
$GPGGA,064045.383,5333.1870,N,01000.6866,E,1,03,2.6,19.2,M,46.0,M,,0000*6F
$GPGSA,A,2,12,27,15,,,,,,,,,,2.8,2.6,1.0*3E
$GPRMC,064045.383,A,5333.1870,N,01000.6866,E,2.00,165.18,170912,,,A*67
$GPGGA,064046.383,5333.1786,N,01000.6900,E,1,03,2.6,19.2,M,46.0,M,,0000*6B
$GPGSA,A,2,12,27,15,,,,,,,,,,2.8,2.6,1.0*3E
$GPRMC,064046.383,A,5333.1786,N,01000.6900,E,1.96,349.56,170912,,,A*69
$GPGGA,064047.383,5333.1783,N,01000.6903,E,1,03,2.6,19.2,M,46.0,M,,0000*6C
$GPGSA,A,2,12,27,15,,,,,,,,,,2.8,2.6,1.0*3E
$GPRMC,064047.383,A,5333.1783,N,01000.6903,E,2.69,348.94,170912,,,A*62
$GPGGA,064048.383,5333.1747,N,01000.6918,E,1,03,2.6,19.2,M,46.0,M,,0000*61
$GPGSA,A,2,12,27,15,,,,,,,,,,2.8,2.6,1.0*3E
$GPRMC,064049.383,A,5333.1773,N,01000.6905,E,2.14,349.39,170912,,,A*69
$GPGGA,064050.383,5333.1825,N,01000.6879,E,1,03,2.6,19.2,M,46.0,M,,0000*65
$GPGSA,A,2,12,27,15,,,,,,,,,,2.8,2.6,1.0*3E
$GPRMC,064050.383,A,5333.1825,N,01000.6879,E,1.24,351.55,170912,,,A*64
$GPGGA,064051.383,5333.1799,N,01000.6884,E,1,03,2.6,19.2,M,46.0,M,,0000*6E
$GPGSA,A,2,12,27,15,,,,,,,,,,2.8,2.6,1.0*3E
$GPRMC,064053.383,A,5333.1881,N,01000.6852,E,1.08,352.95,170912,,,A*61
$GPGGA,064054.383,5333.1929,N,01000.6832,E,1,03,2.6,19.2,M,46.0,M,,0000*63
$GPGSA,A,2,12,27,15,,,,,,,,,,2.8,2.6,1.0*3E
$GPGSV,3,1,12,27,70,116,30,12,50,238,26,15,28,181,19,09,82,115,21*7F
$GPGSV,3,2,12,17,35,056,,14,23,315,,22,15,289,,25,13,242,*7D
$GPGSV,3,3,12,18,08,251,,04,04,104,,01,04,007,,28,03,061,*74
$GPRMC,064054.383,A,5333.1929,N,01000.6832,E,1.70,349.25,170912,,,A*6D
$GPGGA,064055.383,5333.1883,N,01000.6849,E,1,03,2.6,19.2,M,46.0,M,,0000*6F
$GPGSA,A,2,12,27,15,,,,,,,,,,2.8,2.6,1.0*3E
$GPRMC,064056.383,A,5333.1802,N,01000.6882,E,2.10,162.41,170912,,,A*60
$GPGGA,064057.383,5333.1806,N,01000.6880,E,1,03,2.6,19.2,M,46.0,M,,0000*65
$GPGSA,A,2,12,27,15,,,,,,,,,,2.8,2.6,1.0*3E
$GPRMC,064057.383,A,5333.1806,N,01000.6880,E,1.82,165.17,170912,,,A*6B
$GPGGA,064058.383,5333.1942,N,01000.6824,E,1,03,2.6,19.2,M,46.0,M,,0000*65
$GPGSA,A,2,12,27,15,,,,,,,,,,2.8,2.6,1.0*3E
$GPRMC,064100.383,A,5333.1898,N,01000.6837,E,2.41,164.25,170912,,,A*6F
$GPGGA,064101.383,5333.1924,N,01000.6823,E,1,03,2.6,19.2,M,46.0,M,,0000*6F
$GPGSA,A,2,12,27,15,,,,,,,,,,2.8,2.6,1.0*3E
$GPRMC,064101.383,A,5333.1924,N,01000.6823,E,4.14,165.76,170912,,,A*6C
$GPGGA,064102.383,5333.1847,N,01000.6847,E,1,03,2.6,19.2,M,46.0,M,,0000*6A
$GPGSA,A,2,12,27,15,,,,,,,,,,2.8,2.6,1.0*3E
$GPRMC,064102.383,A,5333.1847,N,01000.6847,E,5.45,166.06,170912,,,A*68
$GPGGA,064103.383,5333.1878,N,01000.6832,E,1,03,2.6,19.2,M,46.0,M,,0000*65
$GPGSA,A,2,12,27,15,,,,,,,,,,2.8,2.6,1.0*3E
$GPRMC,064103.383,A,5333.1878,N,01000.6832,E,6.00,165.79,170912,,,A*6E
$GPGGA,064104.383,5333.1890,N,01000.6825,E,1,03,2.6,19.2,M,46.0,M,,0000*62
$GPGSA,A,2,12,27,15,,,,,,,,,,2.8,2.6,1.0*3E
$GPGSV,3,1,12,27,70,116,30,12,50,238,26,15,28,181,18,09,82,115,22*7D
$GPGSV,3,2,12,17,35,056,,14,23,315,,22,15,289,,25,13,242,*7D
$GPGSV,3,3,12,18,08,251,,04,04,104,,01,04,007,,28,03,061,*74
$GPRMC,064104.383,A,5333.1890,N,01000.6825,E,4.81,166.22,170912,,,A*6F
$GPGGA,064105.383,5333.1779,N,01000.6865,E,1,03,2.6,19.2,M,46.0,M,,0000*6F
$GPGSA,A,2,12,27,15,,,,,,,,,,2.8,2.6,1.0*3E
$GPRMC,064105.383,A,5333.1779,N,01000.6865,E,3.54,164.27,170912,,,A*6A
$GPGGA,064106.383,5333.1715,N,01000.6886,E,1,03,2.6,19.2,M,46.0,M,,0000*6B
$GPGSA,A,2,12,27,15,,,,,,,,,,2.8,2.6,1.0*3E
$GPRMC,064106.383,A,5333.1715,N,01000.6886,E,1.65,166.70,170912,,,A*6E
$GPGGA,064107.383,5333.1682,N,01000.6896,E,1,03,2.6,19.2,M,46.0,M,,0000*64
$GPGSA,A,2,12,27,15,,,,,,,,,,2.8,2.6,1.0*3E
$GPRMC,064107.383,A,5333.1682,N,01000.6896,E,1.58,163.44,170912,,,A*6D
$GPGGA,064108.383,5333.1762,N,01000.6862,E,1,03,2.6,19.2,M,46.0,M,,0000*6F
$GPGSA,A,2,12,27,15,,,,,,,,,,2.8,2.6,1.0*3E
$GPRMC,064108.383,A,5333.1762,N,01000.6862,E,2.06,167.12,170912,,,A*69
$GPGGA,064109.383,5333.1794,N,01000.6707,E,1,03,2.6,19.2,M,46.0,M,,0000*6B
$GPGSA,A,2,12,27,15,,,,,,,,,,2.8,2.6,1.0*3E
$GPGSV,3,1,12,27,70,117,29,12,51,238,25,15,28,181,17,09,82,116,22*7A
$GPGSV,3,2,12,17,35,056,,14,23,315,,22,14,289,,25,13,242,*7C
$GPGSV,3,3,12,18,08,251,,04,04,104,,01,04,007,,28,03,061,*74
$GPRMC,064109.383,A,5333.1794,N,01000.6707,E,1.19,159.92,170912,,,A*65
$GPGGA,064110.383,5333.1782,N,01000.6705,E,1,03,2.6,19.2,M,46.0,M,,0000*66
$GPGSA,A,2,12,27,15,,,,,,,,,,2.8,2.6,1.0*3E
$GPRMC,064112.383,A,5333.1744,N,01000.6688,E,1.44,133.57,170912,,,A*69
$GPGGA,064113.383,5333.1742,N,01000.6739,E,0,03,,19.2,M,46.0,M,,0000*4D
$GPGSA,A,1,12,27,15,,,,,,,,,,,,*1C
$GPRMC,064225.382,A,5333.1973,N,01000.6805,E,1.53,10.18,170912,,,A*53
$GPGGA,064226.383,5333.1968,N,01000.6759,E,1,03,2.6,19.2,M,46.0,M,,0000*63
$GPGSA,A,2,27,12,15,,,,,,,,,,2.8,2.6,1.0*3E
$GPRMC,064227.383,A,5333.1970,N,01000.6780,E,1.59,154.92,170912,,,A*68
$GPGGA,064228.382,5333.1909,N,01000.6794,E,1,03,2.6,19.2,M,46.0,M,,0000*6A
$GPGSA,A,2,27,12,15,,,,,,,,,,2.8,2.6,1.0*3E
$GPRMC,064228.382,A,5333.1909,N,01000.6794,E,2.51,166.56,170912,,,A*6F
$GPGGA,064229.382,5333.1940,N,01000.6805,E,1,03,2.6,19.2,M,46.0,M,,0000*61
$GPGSA,A,2,27,12,15,,,,,,,,,,2.8,2.6,1.0*3E
$GPGSV,3,1,12,27,70,117,28,12,51,238,25,15,28,181,17,09,82,116,15*7F
$GPGSV,3,2,12,17,35,056,18,14,23,315,,22,14,289,,25,13,242,21*76
$GPGSV,3,3,12,18,08,251,,04,04,104,,01,04,007,,28,03,061,*74
$GPRMC,064229.382,A,5333.1940,N,01000.6805,E,2.12,166.30,170912,,,A*63
$GPGGA,064230.382,5333.1879,N,01000.6887,E,1,03,2.6,19.2,M,46.0,M,,0000*68
$GPGSA,A,2,27,12,15,,,,,,,,,,2.8,2.6,1.0*3E
$GPRMC,064230.382,A,5333.1879,N,01000.6887,E,2.98,158.24,170912,,,A*60
$GPGGA,064231.382,5333.1861,N,01000.6882,E,1,03,2.6,19.2,M,46.0,M,,0000*65
$GPGSA,A,2,27,12,15,,,,,,,,,,2.8,2.6,1.0*3E
$GPRMC,064231.382,A,5333.1861,N,01000.6882,E,1.14,168.78,170912,,,A*60
$GPGGA,064232.382,5333.1904,N,01000.6768,E,1,03,2.6,19.2,M,46.0,M,,0000*6F
$GPGSA,A,2,27,12,15,,,,,,,,,,2.8,2.6,1.0*3E
$GPRMC,064232.382,A,5333.1904,N,01000.6768,E,1.20,147.87,170912,,,A*60
$GPGGA,064233.382,5333.1953,N,01000.6764,E,1,03,2.6,19.2,M,46.0,M,,0000*60
$GPGSA,A,2,27,12,15,,,,,,,,,,2.8,2.6,1.0*3E
$GPRMC,064234.382,A,5333.1923,N,01000.6852,E,1.33,351.60,170912,,,A*6B
$GPGGA,064235.382,5333.1975,N,01000.6856,E,1,03,2.6,19.2,M,46.0,M,,0000*6C
$GPGSA,A,2,27,12,15,,,,,,,,,,2.8,2.6,1.0*3E
$GPRMC,064235.382,A,5333.1975,N,01000.6856,E,1.40,352.86,170912,,,A*62
$GPGGA,064236.382,5333.1899,N,01000.6858,E,1,03,2.6,19.2,M,46.0,M,,0000*62
$GPGSA,A,2,27,12,15,,,,,,,,,,2.8,2.6,1.0*3E
$GPRMC,064236.382,A,5333.1899,N,01000.6858,E,2.78,349.29,170912,,,A*6B
$GPGGA,064237.382,5333.1861,N,01000.6906,E,1,03,2.6,19.2,M,46.0,M,,0000*6E
$GPGSA,A,2,27,12,15,,,,,,,,,,2.8,2.6,1.0*3E
$GPRMC,064237.382,A,5333.1861,N,01000.6906,E,4.54,349.99,170912,,,A*64
$GPGGA,064238.382,5333.1811,N,01000.6896,E,1,03,2.6,19.2,M,46.0,M,,0000*6E
$GPGSA,A,2,27,12,15,,,,,,,,,,2.8,2.6,1.0*3E
$GPRMC,064238.382,A,5333.1811,N,01000.6896,E,1.87,350.40,170912,,,A*63
$GPGGA,064239.382,5333.1782,N,01000.6889,E,1,03,2.6,19.2,M,46.0,M,,0000*64
$GPGSA,A,2,27,12,15,,,,,,,,,,2.8,2.6,1.0*3E
$GPGSV,3,1,12,27,70,117,30,12,51,238,26,15,28,181,17,09,82,116,*71
$GPGSV,3,2,12,17,35,056,19,14,23,315,,22,14,289,,25,13,242,20*76
$GPGSV,3,3,12,18,08,251,,04,04,104,,01,04,007,,28,03,061,*74
$GPRMC,064240.382,A,5333.1783,N,01000.6976,E,0.97,188.50,170912,,,A*61
$GPGGA,064241.382,5333.1911,N,01000.6858,E,1,03,2.6,19.2,M,46.0,M,,0000*63
$GPGSA,A,2,27,12,15,,,,,,,,,,2.8,2.6,1.0*3E
$GPRMC,064241.382,A,5333.1911,N,01000.6858,E,1.37,147.51,170912,,,A*61
$GPGGA,064242.382,5333.1814,N,01000.6926,E,1,03,2.6,19.2,M,46.0,M,,0000*6C
$GPGSA,A,2,27,12,15,,,,,,,,,,2.8,2.6,1.0*3E
$GPRMC,064242.382,A,5333.1814,N,01000.6926,E,0.94,161.82,170912,,,A*6C
$GPGGA,064243.382,5333.1766,N,01000.6957,E,1,03,2.6,19.2,M,46.0,M,,0000*61
$GPGSA,A,2,27,12,15,,,,,,,,,,2.8,2.6,1.0*3E
$GPRMC,064245.382,A,5333.1736,N,01000.6860,E,1.14,348.93,170912,,,A*67
$GPGGA,064246.386,5333.1687,N,01000.6937,E,1,03,2.6,19.2,M,46.0,M,,0000*68
$GPGSA,A,2,27,12,15,,,,,,,,,,2.8,2.6,1.0*3E
$GPRMC,064250.382,A,5333.1827,N,01000.6883,E,0.91,167.45,170912,,,A*69
$GPGGA,064251.382,5333.1828,N,01000.6840,E,1,03,2.6,19.2,M,46.0,M,,0000*60
$GPGSA,A,2,27,12,15,,,,,,,,,,2.8,2.6,1.0*3E
$GPRMC,064251.382,A,5333.1828,N,01000.6840,E,1.55,163.72,170912,,,A*61
$GPGGA,064252.382,5333.1818,N,01000.6861,E,1,03,2.6,19.2,M,46.0,M,,0000*63
$GPGSA,A,2,27,12,15,,,,,,,,,,2.8,2.6,1.0*3E
$GPRMC,064252.382,A,5333.1818,N,01000.6861,E,0.99,164.90,170912,,,A*68
$GPGGA,064253.382,5333.1809,N,01000.6870,E,1,03,2.6,19.2,M,46.0,M,,0000*62
$GPGSA,A,2,27,12,15,,,,,,,,,,2.8,2.6,1.0*3E
$GPRMC,064254.382,A,5333.1820,N,01000.6841,E,1.28,129.65,170912,,,A*6F
$GPGGA,064255.382,5333.1772,N,01000.6920,E,1,03,2.6,19.2,M,46.0,M,,0000*63
$GPGSA,A,2,27,12,15,,,,,,,,,,2.8,2.6,1.0*3E
$GPRMC,064255.382,A,5333.1772,N,01000.6920,E,3.71,354.02,170912,,,A*67
$GPGGA,064256.382,5333.1844,N,01000.6864,E,1,03,2.6,19.2,M,46.0,M,,0000*6B
$GPGSA,A,2,27,12,15,,,,,,,,,,2.8,2.6,1.0*3E
$GPRMC,064256.382,A,5333.1844,N,01000.6864,E,1.40,164.94,170912,,,A*61
$GPGGA,064257.382,5333.1810,N,01000.6868,E,1,03,2.6,19.2,M,46.0,M,,0000*67
$GPGSA,A,2,27,12,15,,,,,,,,,,2.8,2.6,1.0*3E
$GPRMC,064257.382,A,5333.1810,N,01000.6868,E,1.32,164.67,170912,,,A*64
$GPGGA,064258.382,5333.1802,N,01000.6874,E,1,03,2.6,19.2,M,46.0,M,,0000*66
$GPGSA,A,2,27,12,15,,,,,,,,,,2.8,2.6,1.0*3E
$GPRMC,064258.382,A,5333.1802,N,01000.6874,E,1.85,166.36,170912,,,A*6F
$GPGGA,064259.386,5333.1789,N,01000.6866,E,1,03,2.6,19.2,M,46.0,M,,0000*6C
$GPGSA,A,2,27,12,15,,,,,,,,,,2.8,2.6,1.0*3E
$GPGSV,3,1,12,27,69,117,31,12,51,238,28,15,27,181,19,09,81,116,*74
$GPGSV,3,2,12,17,34,055,22,14,23,315,,22,14,288,,25,13,243,21*7D
$GPGSV,3,3,12,18,07,250,,04,05,103,,01,03,006,,28,02,061,*7B
$GPRMC,064300.382,A,5333.1737,N,01000.6872,E,1.20,352.43,170912,,,A*64
$GPGGA,064301.382,5333.1827,N,01000.6838,E,1,03,2.6,19.2,M,46.0,M,,0000*64
$GPGSA,A,2,27,12,15,,,,,,,,,,2.8,2.6,1.0*3E
$GPRMC,064301.382,A,5333.1827,N,01000.6838,E,1.18,351.94,170912,,,A*67
$GPGGA,064302.382,5333.1814,N,01000.6843,E,1,03,2.6,19.2,M,46.0,M,,0000*6B
$GPGSA,A,2,27,12,15,,,,,,,,,,2.8,2.6,1.0*3E
$GPRMC,064303.386,A,5333.1788,N,01000.6854,E,1.09,163.85,170912,,,A*62
$GPGGA,064304.382,5333.1723,N,01000.6880,E,1,03,2.6,19.2,M,46.0,M,,0000*69
$GPGSA,A,2,27,12,15,,,,,,,,,,2.8,2.6,1.0*3E
$GPGSV,3,1,12,27,69,117,31,12,51,238,28,15,27,181,20,09,81,116,*7E
$GPGSV,3,2,12,17,34,055,23,14,23,315,,22,14,288,,25,13,243,21*7C
$GPGSV,3,3,12,18,07,250,,04,05,103,,01,03,006,,28,02,061,*7B
$GPRMC,064304.382,A,5333.1723,N,01000.6880,E,1.82,166.21,170912,,,A*61
$GPGGA,064305.382,5333.1727,N,01000.6885,E,1,03,2.6,19.2,M,46.0,M,,0000*69
$GPGSA,A,2,27,12,15,,,,,,,,,,2.8,2.6,1.0*3E
$GPRMC,064305.382,A,5333.1727,N,01000.6885,E,2.01,167.40,170912,,,A*6F
$GPGGA,064306.382,5333.1830,N,01000.6851,E,1,03,2.6,19.2,M,46.0,M,,0000*6A
$GPGSA,A,2,27,12,15,,,,,,,,,,2.8,2.6,1.0*3E
$GPRMC,064308.382,A,5333.1733,N,01000.6888,E,2.20,350.89,170912,,,A*6A
$GPGGA,064309.382,5333.1775,N,01000.6874,E,1,03,2.6,19.2,M,46.0,M,,0000*6C
$GPGSA,A,2,27,12,15,,,,,,,,,,2.8,2.6,1.0*3E
$GPGSV,3,1,12,27,69,117,31,12,51,238,28,15,27,181,21,09,81,116,21*7C
$GPGSV,3,2,12,17,34,055,23,14,23,315,,22,14,288,,25,13,243,21*7C
$GPGSV,3,3,12,18,07,250,,04,05,103,,01,03,006,,28,02,061,*7B
$GPRMC,064311.382,A,5333.1705,N,01000.6904,E,1.52,164.46,170912,,,A*62
$GPGGA,064312.382,5333.1704,N,01000.6907,E,1,03,2.6,19.2,M,46.0,M,,0000*65
$GPGSA,A,2,27,12,15,,,,,,,,,,2.8,2.6,1.0*3E
$GPRMC,064314.382,A,5333.1792,N,01000.6884,E,1.34,352.30,170912,,,A*66
$GPGGA,064315.386,5333.1797,N,01000.6885,E,1,03,2.6,19.2,M,46.0,M,,0000*67
$GPGSA,A,2,27,12,15,,,,,,,,,,2.8,2.6,1.0*3E
$GPRMC,064315.386,A,5333.1797,N,01000.6885,E,1.29,165.36,170912,,,A*6B
$GPGGA,064316.382,5333.1751,N,01000.6903,E,1,03,2.6,19.2,M,46.0,M,,0000*65
$GPGSA,A,2,27,12,15,,,,,,,,,,2.8,2.6,1.0*3E
$GPRMC,064316.382,A,5333.1751,N,01000.6903,E,1.29,165.42,170912,,,A*6A
$GPGGA,064317.382,5333.1721,N,01000.6914,E,1,03,2.6,19.2,M,46.0,M,,0000*65
$GPGSA,A,2,27,12,15,,,,,,,,,,2.8,2.6,1.0*3E
$GPRMC,064318.386,A,5333.1713,N,01000.6918,E,1.73,165.24,170912,,,A*63
$GPGGA,064319.382,5333.1791,N,01000.6894,E,1,03,2.6,19.2,M,46.0,M,,0000*69
$GPGSA,A,2,27,12,15,,,,,,,,,,2.8,2.6,1.0*3E
$GPGSV,3,1,12,27,69,117,32,12,52,238,29,15,27,181,21,09,81,117,24*79
$GPGSV,3,2,12,17,34,055,23,14,23,315,,22,14,288,,25,14,243,20*7A
$GPGSV,3,3,12,18,07,250,,04,05,103,,01,03,006,,28,02,062,*78
$GPRMC,064356.382,A,5333.1838,N,01000.6744,E,1.64,107.95,170912,,,A*64
$GPGGA,064357.382,5333.1845,N,01000.6715,E,1,04,2.4,-0.4,M,46.0,M,,0000*75
$GPGSA,A,3,27,12,15,09,,,,,,,,,2.6,2.4,1.0*3A
$GPRMC,064426.000,A,5333.1804,N,01000.6872,E,1.01,162.05,170912,,,A*61
$GPGGA,064427.000,5333.1804,N,01000.6876,E,1,04,2.4,7.0,M,46.0,M,,0000*5D
$GPGSA,A,3,27,12,15,09,,,,,,,,,2.6,2.4,1.0*3A
$GPRMC,064447.000,A,5333.1790,N,01000.6884,E,1.01,280.72,170912,,,A*62
$GPGGA,064448.000,5333.1790,N,01000.6879,E,1,04,2.4,16.1,M,46.0,M,,0000*68
$GPGSA,A,3,27,12,15,09,,,,,,,,,2.6,2.4,1.0*3A
$GPRMC,064458.000,A,5333.1796,N,01000.6822,E,1.06,282.74,170912,,,A*65
$GPGGA,064459.000,5333.1797,N,01000.6811,E,1,04,2.4,18.6,M,46.0,M,,0000*68
$GPGSA,A,3,27,12,15,09,,,,,,,,,2.6,2.4,1.0*3A
$GPGSV,3,1,12,09,80,117,29,27,69,118,34,12,52,239,21,17,34,055,21*7D
$GPGSV,3,2,12,15,26,181,32,14,24,314,24,25,14,243,25,22,14,287,14*7C
$GPGSV,3,3,12,18,07,250,,04,05,103,21,01,03,005,,28,01,062,*7B
$GPRMC,064459.000,A,5333.1797,N,01000.6811,E,0.91,284.11,170912,,,A*6F
$GPGGA,064500.000,5333.1798,N,01000.6802,E,1,04,2.4,18.8,M,46.0,M,,0000*66
$GPGSA,A,3,27,12,15,09,,,,,,,,,2.6,2.4,1.0*3A
$GPRMC,064501.000,A,5333.1799,N,01000.6790,E,1.24,286.42,170912,,,A*60
$GPGGA,064502.000,5333.1801,N,01000.6775,E,1,04,2.4,19.1,M,46.0,M,,0000*6C
$GPGSA,A,3,27,12,15,09,,,,,,,,,2.6,2.4,1.0*3A
$GPRMC,064502.000,A,5333.1801,N,01000.6775,E,1.75,285.39,170912,,,A*6D
$GPGGA,064503.000,5333.1803,N,01000.6762,E,1,04,2.4,19.2,M,46.0,M,,0000*6A
$GPGSA,A,3,27,12,15,09,,,,,,,,,2.6,2.4,1.0*3A
$GPRMC,064503.000,A,5333.1803,N,01000.6762,E,1.19,288.91,170912,,,A*6D
$GPGGA,064504.000,5333.1804,N,01000.6754,E,1,04,2.4,19.3,M,46.0,M,,0000*6E
$GPGSA,A,3,27,12,15,09,,,,,,,,,2.6,2.4,1.0*3A
$GPGSV,3,1,12,09,80,117,29,27,69,118,34,12,52,239,20,17,34,055,23*7E
$GPGSV,3,2,12,15,26,181,32,14,24,314,24,25,14,243,25,22,14,287,13*7B
$GPGSV,3,3,12,18,07,250,,04,05,103,22,01,03,005,,28,01,062,*78
$GPRMC,064506.000,A,5333.1804,N,01000.6753,E,1.69,102.09,170912,,,A*6A
$GPGGA,064507.000,5333.1801,N,01000.6765,E,1,04,2.4,19.4,M,46.0,M,,0000*6D
$GPGSA,A,3,27,12,15,09,,,,,,,,,2.6,2.4,1.0*3A
$GPRMC,064507.000,A,5333.1801,N,01000.6765,E,3.32,103.53,170912,,,A*69
$GPGGA,064508.000,5333.1800,N,01000.6767,E,1,04,2.4,19.4,M,46.0,M,,0000*61
$GPGSA,A,3,27,12,15,09,,,,,,,,,2.6,2.4,1.0*3A
$GPRMC,064508.000,A,5333.1800,N,01000.6767,E,1.56,107.31,170912,,,A*65
$GPGGA,064509.000,5333.1800,N,01000.6760,E,1,04,2.4,19.5,M,46.0,M,,0000*66
$GPGSA,A,3,27,12,15,09,,,,,,,,,2.6,2.4,1.0*3A
$GPGSV,3,1,12,09,80,117,30,27,69,118,34,12,52,239,19,17,34,055,24*7B
$GPGSV,3,2,12,15,26,181,32,14,24,314,23,25,14,243,25,22,14,287,*7E
$GPGSV,3,3,12,18,07,250,,04,05,103,22,01,03,005,,28,01,062,*78
$GPRMC,064510.000,A,5333.1802,N,01000.6744,E,2.21,285.59,170912,,,A*6B
$GPGGA,064511.000,5333.1804,N,01000.6726,E,1,03,7.4,19.6,M,46.0,M,,0000*68
$GPGSA,A,2,27,15,09,,,,,,,,,,7.5,7.4,1.0*3B
$GPRMC,064511.000,A,5333.1804,N,01000.6726,E,2.90,285.77,170912,,,A*6E
$GPGGA,064512.000,5333.1806,N,01000.6705,E,1,03,7.4,19.7,M,46.0,M,,0000*69
$GPGSA,A,2,27,15,09,,,,,,,,,,7.5,7.4,1.0*3B
$GPRMC,064512.000,A,5333.1806,N,01000.6705,E,3.31,285.73,170912,,,A*60
$GPGGA,064513.000,5333.1808,N,01000.6686,E,1,03,7.4,19.8,M,46.0,M,,0000*63
$GPGSA,A,2,27,15,09,,,,,,,,,,7.5,7.4,1.0*3B
$GPRMC,064513.000,A,5333.1808,N,01000.6686,E,3.05,287.32,170912,,,A*65
$GPGGA,064514.000,5333.1810,N,01000.6671,E,1,04,2.4,19.8,M,46.0,M,,0000*67
$GPGSA,A,3,27,12,15,09,,,,,,,,,2.6,2.4,1.0*3A
$GPGSV,3,1,12,09,80,117,30,27,69,118,34,12,52,239,18,17,34,055,25*7B
$GPGSV,3,2,12,15,26,181,32,14,24,314,23,25,14,243,26,22,14,287,*7D
$GPGSV,3,3,12,18,07,250,,04,05,103,23,01,03,005,,28,01,062,*79
$GPRMC,064514.000,A,5333.1810,N,01000.6671,E,2.28,288.45,170912,,,A*62
$GPGGA,064515.000,5333.1811,N,01000.6659,E,1,04,2.4,19.9,M,46.0,M,,0000*6C
$GPGSA,A,3,27,12,15,09,,,,,,,,,2.6,2.4,1.0*3A
$GPRMC,064515.000,A,5333.1811,N,01000.6659,E,1.38,290.62,170912,,,A*66
$GPGGA,064516.000,5333.1812,N,01000.6651,E,1,04,2.4,19.9,M,46.0,M,,0000*64
$GPGSA,A,3,27,12,15,09,,,,,,,,,2.6,2.4,1.0*3A
$GPRMC,064518.000,A,5333.1811,N,01000.6649,E,1.63,103.29,170912,,,A*62
$GPGGA,064519.000,5333.1809,N,01000.6654,E,1,04,2.4,20.0,M,46.0,M,,0000*67
$GPGSA,A,3,27,12,15,09,,,,,,,,,2.6,2.4,1.0*3A
$GPGSV,3,1,12,09,80,118,31,27,68,118,33,12,52,239,18,17,34,054,26*71
$GPGSV,3,2,12,15,26,181,32,14,24,314,22,25,14,243,26,22,14,287,*7C
$GPGSV,3,3,12,18,06,249,,04,05,103,23,01,03,005,,28,01,062,16*77
$GPRMC,064519.000,A,5333.1809,N,01000.6654,E,2.04,105.23,170912,,,A*68
$GPGGA,064520.000,5333.1807,N,01000.6654,E,1,04,2.4,20.0,M,46.0,M,,0000*63
$GPGSA,A,3,27,12,15,09,,,,,,,,,2.6,2.4,1.0*3A
$GPRMC,064520.000,A,5333.1807,N,01000.6654,E,0.94,111.56,170912,,,A*60
$GPGGA,064521.000,5333.1806,N,01000.6650,E,1,03,7.4,20.1,M,46.0,M,,0000*64
$GPGSA,A,2,27,15,09,,,,,,,,,,7.5,7.4,1.0*3B
$GPRMC,064525.000,A,5333.1805,N,01000.6639,E,0.91,103.03,170912,,,A*6A
$GPGGA,064526.000,5333.1803,N,01000.6643,E,1,03,7.4,20.1,M,46.0,M,,0000*64
$GPGSA,A,2,27,15,09,,,,,,,,,,7.5,7.4,1.0*3B
$GPRMC,064526.000,A,5333.1803,N,01000.6643,E,1.60,105.02,170912,,,A*6A
$GPGGA,064527.000,5333.1801,N,01000.6649,E,1,03,7.4,20.1,M,46.0,M,,0000*6D
$GPGSA,A,2,27,15,09,,,,,,,,,,7.5,7.4,1.0*3B
$GPRMC,064527.000,A,5333.1801,N,01000.6649,E,1.87,105.30,170912,,,A*6B
$GPGGA,064528.000,5333.1799,N,01000.6658,E,1,04,2.4,20.1,M,46.0,M,,0000*6E
$GPGSA,A,3,27,12,15,09,,,,,,,,,2.6,2.4,1.0*3A
$GPRMC,064528.000,A,5333.1799,N,01000.6658,E,2.13,106.69,170912,,,A*6B
$GPGGA,064529.000,5333.1797,N,01000.6664,E,1,04,2.4,20.1,M,46.0,M,,0000*6E
$GPGSA,A,3,27,12,15,09,,,,,,,,,2.6,2.4,1.0*3A
$GPGSV,3,1,12,09,80,118,32,27,68,118,33,12,52,239,16,17,34,054,27*7D
$GPGSV,3,2,12,15,26,181,32,14,24,314,16,25,14,243,26,22,14,287,*7B
$GPGSV,3,3,12,18,06,249,,04,05,103,23,01,03,005,,28,01,062,15*74
$GPRMC,064529.000,A,5333.1797,N,01000.6664,E,1.55,108.58,170912,,,A*66
$GPGGA,064530.000,5333.1795,N,01000.6671,E,1,04,2.4,20.1,M,46.0,M,,0000*60
$GPGSA,A,3,27,12,15,09,,,,,,,,,2.6,2.4,1.0*3A
$GPRMC,064530.000,A,5333.1795,N,01000.6671,E,1.29,107.70,170912,,,A*66
$GPGGA,064531.000,5333.1793,N,01000.6681,E,1,04,2.4,20.0,M,46.0,M,,0000*69
$GPGSA,A,3,27,12,15,09,,,,,,,,,2.6,2.4,1.0*3A
$GPRMC,064531.000,A,5333.1793,N,01000.6681,E,1.70,104.32,170912,,,A*67
$GPGGA,064532.000,5333.1790,N,01000.6690,E,1,04,2.4,19.9,M,46.0,M,,0000*6A
$GPGSA,A,3,27,12,15,09,,,,,,,,,2.6,2.4,1.0*3A
$GPRMC,064532.000,A,5333.1790,N,01000.6690,E,1.53,104.95,170912,,,A*6B
$GPGGA,064533.000,5333.1789,N,01000.6697,E,1,03,7.4,19.9,M,46.0,M,,0000*66
$GPGSA,A,2,27,15,09,,,,,,,,,,7.5,7.4,1.0*3B
$GPRMC,064533.000,A,5333.1789,N,01000.6697,E,0.84,106.91,170912,,,A*68
$GPGGA,064534.000,5333.1787,N,01000.6700,E,1,04,2.4,19.8,M,46.0,M,,0000*63
$GPGSA,A,3,27,12,15,09,,,,,,,,,2.6,2.4,1.0*3A
$GPGSV,3,1,12,09,80,118,32,27,68,118,33,12,52,239,14,17,34,054,27*7F
$GPGSV,3,2,12,15,26,181,33,14,24,314,14,25,14,243,26,22,14,287,*78
$GPGSV,3,3,12,18,06,249,,04,05,103,22,01,03,005,,28,01,062,16*76
$GPRMC,064536.000,A,5333.1787,N,01000.6700,E,1.17,286.37,170912,,,A*60
$GPGGA,064537.000,5333.1787,N,01000.6698,E,1,03,7.4,19.7,M,46.0,M,,0000*6D
$GPGSA,A,2,27,15,09,,,,,,,,,,7.5,7.4,1.0*3B
$GPRMC,064537.000,A,5333.1787,N,01000.6698,E,1.13,289.13,170912,,,A*6C
$GPGGA,064538.000,5333.1787,N,01000.6696,E,1,03,7.4,19.6,M,46.0,M,,0000*6D
$GPGSA,A,2,27,15,09,,,,,,,,,,7.5,7.4,1.0*3B
$GPRMC,064538.000,A,5333.1787,N,01000.6696,E,1.07,291.01,170912,,,A*62
$GPGGA,064539.000,5333.1787,N,01000.6694,E,1,03,7.4,19.6,M,46.0,M,,0000*6E
$GPGSA,A,2,27,15,09,,,,,,,,,,7.5,7.4,1.0*3B
$GPGSV,3,1,12,09,80,118,32,27,68,118,33,12,52,239,,17,34,054,27*7A
$GPGSV,3,2,12,15,26,181,33,14,24,314,,25,14,243,26,22,14,287,*7D
$GPGSV,3,3,12,18,06,249,,04,05,103,22,01,03,005,,28,01,062,16*76
$GPRMC,064539.000,A,5333.1787,N,01000.6694,E,0.97,291.59,170912,,,A*64
$GPGGA,064540.000,5333.1787,N,01000.6692,E,1,03,7.4,19.5,M,46.0,M,,0000*65
$GPGSA,A,2,27,15,09,,,,,,,,,,7.5,7.4,1.0*3B
$GPRMC,064540.000,A,5333.1787,N,01000.6692,E,0.93,292.36,170912,,,A*62
$GPGGA,064541.000,5333.1787,N,01000.6690,E,1,03,7.4,19.4,M,46.0,M,,0000*67
$GPGSA,A,2,27,15,09,,,,,,,,,,7.5,7.4,1.0*3B
$GPRMC,064541.000,A,5333.1787,N,01000.6690,E,0.83,290.36,170912,,,A*62
$GPGGA,064542.000,5333.1787,N,01000.6689,E,1,03,7.4,19.4,M,46.0,M,,0000*6C
$GPGSA,A,2,27,15,09,,,,,,,,,,7.5,7.4,1.0*3B
$GPRMC,064548.000,A,5333.1787,N,01000.6679,E,1.03,288.04,170912,,,A*6D
$GPGGA,064549.000,5333.1787,N,01000.6677,E,1,03,7.4,19.1,M,46.0,M,,0000*63
$GPGSA,A,2,27,15,09,,,,,,,,,,7.5,7.4,1.0*3B
$GPGSV,3,1,12,09,80,118,33,27,68,118,32,12,53,239,19,17,34,054,28*7C
$GPGSV,3,2,12,15,26,181,33,14,24,314,,25,15,243,26,22,14,287,*7C
$GPGSV,3,3,12,18,06,249,,04,06,102,20,01,03,005,,28,01,062,*71
$GPRMC,064556.000,A,5333.1779,N,01000.6709,E,0.95,102.31,170912,,,A*6C
$GPGGA,064557.000,5333.1778,N,01000.6716,E,1,04,2.4,18.9,M,46.0,M,,0000*61
$GPGSA,A,3,27,12,15,09,,,,,,,,,2.6,2.4,1.0*3A
$GPRMC,064558.000,A,5333.1775,N,01000.6727,E,1.06,102.62,170912,,,A*6F
$GPGGA,064559.000,5333.1773,N,01000.6735,E,1,04,2.4,18.8,M,46.0,M,,0000*64
$GPGSA,A,3,27,12,15,09,,,,,,,,,2.6,2.4,1.0*3A
$GPGSV,3,1,12,09,80,118,33,27,68,118,32,12,53,239,21,17,34,054,29*76
$GPGSV,3,2,12,15,26,181,34,14,24,314,,25,15,243,26,22,14,287,*7B
$GPGSV,3,3,12,18,06,249,,04,06,102,21,01,03,005,,28,01,062,*70
$GPRMC,064608.000,A,5333.1758,N,01000.6811,E,1.07,101.66,170912,,,A*6A
$GPGGA,064609.000,5333.1755,N,01000.6822,E,1,04,2.4,18.6,M,46.0,M,,0000*61
$GPGSA,A,3,27,12,15,09,,,,,,,,,2.6,2.4,1.0*3A
$GPGSV,3,1,12,09,80,118,32,27,68,118,31,12,53,239,21,17,34,054,29*74
$GPGSV,3,2,12,15,26,181,34,14,24,314,21,25,15,243,25,22,14,287,20*79
$GPGSV,3,3,12,18,06,249,,04,06,102,22,01,03,005,,28,01,062,*73
$GPRMC,064611.000,A,5333.1750,N,01000.6849,E,1.01,99.79,170912,,,A*5F
$GPGGA,064612.000,5333.1747,N,01000.6865,E,1,04,2.4,18.5,M,46.0,M,,0000*68
$GPGSA,A,3,27,12,15,09,,,,,,,,,2.6,2.4,1.0*3A
$GPRMC,064612.000,A,5333.1747,N,01000.6865,E,1.05,102.12,170912,,,A*6E
$GPGGA,064613.000,5333.1745,N,01000.6879,E,1,04,2.4,18.4,M,46.0,M,,0000*67
$GPGSA,A,3,27,12,15,09,,,,,,,,,2.6,2.4,1.0*3A
$GPRMC,064622.000,A,5333.1694,N,01000.6991,E,0.96,117.54,170912,,,A*65
$GPGGA,064623.000,5333.1683,N,01000.7000,E,1,05,2.2,29.0,M,46.0,M,,0000*69
$GPGSA,A,3,27,12,15,09,17,,,,,,,,3.2,2.2,2.4*38
$GPRMC,064637.000,A,5333.1601,N,01000.7008,E,0.87,140.45,170912,,,A*67
$GPGGA,064638.000,5333.1594,N,01000.7010,E,1,05,2.2,56.1,M,46.0,M,,0000*6E
$GPGSA,A,3,27,12,15,09,17,,,,,,,,3.2,2.2,2.4*38
$GPRMC,064638.000,A,5333.1594,N,01000.7010,E,1.26,130.46,170912,,,A*60
$GPGGA,064639.000,5333.1588,N,01000.7008,E,1,05,2.2,57.7,M,46.0,M,,0000*6C
$GPGSA,A,3,27,12,15,09,17,,,,,,,,3.2,2.2,2.4*38
$GPGSV,3,1,12,09,80,118,23,27,68,118,32,12,53,239,25,17,33,054,26*7B
$GPGSV,3,2,12,15,25,181,35,14,25,314,24,25,15,243,24,22,14,287,17*7A
$GPGSV,3,3,12,18,06,249,,04,06,102,21,01,03,005,,28,01,062,*70
$GPRMC,064641.000,A,5333.1578,N,01000.6999,E,0.88,233.27,170912,,,A*67
$GPGGA,064642.000,5333.1572,N,01000.6996,E,1,05,2.1,62.4,M,46.0,M,,0000*6C
$GPGSA,A,3,27,12,15,09,17,,,,,,,,3.2,2.1,2.4*3B
$GPRMC,064642.000,A,5333.1572,N,01000.6996,E,0.91,196.74,170912,,,A*63
$GPGGA,064643.000,5333.1566,N,01000.6997,E,1,05,2.1,63.9,M,46.0,M,,0000*65
$GPGSA,A,3,27,12,15,09,17,,,,,,,,3.2,2.1,2.4*3B
$GPRMC,064643.000,A,5333.1566,N,01000.6997,E,0.93,162.61,170912,,,A*6B
$GPGGA,064644.000,5333.1560,N,01000.6999,E,1,05,2.1,65.4,M,46.0,M,,0000*61
$GPGSA,A,3,27,12,15,09,17,,,,,,,,3.2,2.1,2.4*3B
$GPGSV,3,1,12,09,80,118,23,27,68,118,31,12,53,239,25,17,33,054,21*7F
$GPGSV,3,2,12,15,25,181,36,14,25,314,23,25,15,243,23,22,14,287,17*79
$GPGSV,3,3,12,18,06,249,,04,06,102,21,01,03,005,,28,01,062,*70
$GPRMC,064644.000,A,5333.1560,N,01000.6999,E,0.83,131.63,170912,,,A*61
$GPGGA,064645.000,5333.1555,N,01000.7004,E,1,05,2.1,66.7,M,46.0,M,,0000*6A
$GPGSA,A,3,27,12,15,09,17,,,,,,,,3.2,2.1,2.4*3B
$GPRMC,064645.000,A,5333.1555,N,01000.7004,E,1.01,132.63,170912,,,A*62
$GPGGA,064646.000,5333.1550,N,01000.7005,E,1,05,2.1,68.3,M,46.0,M,,0000*67
$GPGSA,A,3,27,12,15,09,17,,,,,,,,3.2,2.1,2.4*3B
$GPRMC,064652.000,A,5333.1524,N,01000.7009,E,0.85,176.51,170912,,,A*63
$GPGGA,064653.000,5333.1519,N,01000.7011,E,1,03,2.6,77.3,M,46.0,M,,0000*64
$GPGSA,A,2,27,12,15,,,,,,,,,,2.8,2.6,1.0*3E
$GPRMC,064653.000,A,5333.1519,N,01000.7011,E,0.87,155.68,170912,,,A*6C
$GPGGA,064654.000,5333.1518,N,01000.7006,E,1,04,2.4,78.0,M,46.0,M,,0000*6D
$GPGSA,A,3,27,12,15,09,,,,,,,,,2.6,2.4,1.0*3A
$GPGSV,3,1,12,09,79,118,16,27,68,118,31,12,53,239,24,17,33,054,*7D
$GPGSV,3,2,12,15,25,181,36,14,25,314,22,25,15,243,23,22,13,286,17*7E
$GPGSV,3,3,12,18,06,249,,04,06,102,21,01,03,005,,28,01,062,*70
$GPRMC,064701.000,A,5333.1516,N,01000.6971,E,1.11,294.17,170912,,,A*63
$GPGGA,064702.000,5333.1518,N,01000.6960,E,1,03,2.6,80.9,M,46.0,M,,0000*6C
$GPGSA,A,2,27,12,15,,,,,,,,,,2.8,2.6,1.0*3E
$GPRMC,064702.000,A,5333.1518,N,01000.6960,E,1.54,302.73,170912,,,A*63
$GPGGA,064703.000,5333.1519,N,01000.6952,E,1,03,2.6,80.9,M,46.0,M,,0000*6D
$GPGSA,A,2,27,12,15,,,,,,,,,,2.8,2.6,1.0*3E
$GPRMC,064706.000,A,5333.1520,N,01000.6937,E,0.84,295.86,170912,,,A*67
$GPGGA,064707.000,5333.1521,N,01000.6930,E,1,04,2.2,80.5,M,46.0,M,,0000*69
$GPGSA,A,3,27,12,15,17,,,,,,,,,3.6,2.2,2.9*38
$GPRMC,064709.000,A,5333.1527,N,01000.6914,E,1.11,302.37,170912,,,A*66
$GPGGA,064710.000,5333.1530,N,01000.6902,E,1,05,2.1,79.1,M,46.0,M,,0000*6E
$GPGSA,A,3,27,12,15,09,17,,,,,,,,3.2,2.1,2.3*3C
$GPRMC,064710.000,A,5333.1530,N,01000.6902,E,1.68,291.69,170912,,,A*61
$GPGGA,064711.000,5333.1534,N,01000.6890,E,1,05,2.1,78.4,M,46.0,M,,0000*65
$GPGSA,A,3,27,12,15,09,17,,,,,,,,3.2,2.1,2.3*3C
$GPRMC,064711.000,A,5333.1534,N,01000.6890,E,1.57,301.86,170912,,,A*6B
$GPGGA,064712.000,5333.1540,N,01000.6878,E,1,05,2.1,77.6,M,46.0,M,,0000*6E
$GPGSA,A,3,27,12,15,09,17,,,,,,,,3.2,2.1,2.3*3C
$GPRMC,064712.000,A,5333.1540,N,01000.6878,E,2.01,309.47,170912,,,A*68
$GPGGA,064713.000,5333.1544,N,01000.6872,E,1,05,2.1,76.7,M,46.0,M,,0000*61
$GPGSA,A,3,27,12,15,09,17,,,,,,,,3.2,2.1,2.3*3C
$GPRMC,064713.000,A,5333.1544,N,01000.6872,E,0.93,333.55,170912,,,A*64
$GPGGA,064714.000,5333.1547,N,01000.6868,E,1,05,2.1,75.8,M,46.0,M,,0000*62
$GPGSA,A,3,27,12,15,09,17,,,,,,,,3.2,2.1,2.3*3C
$GPGSV,3,1,12,09,79,118,20,27,68,118,29,12,53,239,19,17,33,054,21*7C
$GPGSV,3,2,12,15,25,181,36,14,25,314,19,25,15,243,21,22,13,286,*72
$GPGSV,3,3,12,18,06,249,,04,06,102,25,01,03,005,,28,01,062,*74
$GPRMC,064715.000,A,5333.1553,N,01000.6859,E,1.45,323.64,170912,,,A*64
$GPGGA,064716.000,5333.1559,N,01000.6849,E,1,05,2.1,73.6,M,46.0,M,,0000*64
$GPGSA,A,3,27,12,15,09,17,,,,,,,,3.2,2.1,2.3*3C
$GPRMC,064716.000,A,5333.1559,N,01000.6849,E,1.31,317.07,170912,,,A*6D
$GPGGA,064717.000,5333.1565,N,01000.6835,E,1,05,2.1,72.3,M,46.0,M,,0000*65
$GPGSA,A,3,27,12,15,09,17,,,,,,,,3.2,2.1,2.3*3C
$GPRMC,064717.000,A,5333.1565,N,01000.6835,E,2.04,299.91,170912,,,A*65
$GPGGA,064718.000,5333.1572,N,01000.6817,E,1,05,2.1,70.8,M,46.0,M,,0000*65
$GPGSA,A,3,27,12,15,09,17,,,,,,,,3.2,2.1,2.3*3C
$GPRMC,064718.000,A,5333.1572,N,01000.6817,E,2.91,296.84,170912,,,A*6B
$GPGGA,064719.000,5333.1581,N,01000.6798,E,1,05,2.1,69.3,M,46.0,M,,0000*63
$GPGSA,A,3,27,12,15,09,17,,,,,,,,3.2,2.1,2.3*3C
$GPGSV,3,1,12,09,79,118,21,27,67,119,25,12,53,239,19,17,33,054,22*7C
$GPGSV,3,2,12,15,25,181,36,14,25,314,18,25,15,244,21,22,13,286,*74
$GPGSV,3,3,12,04,06,102,25,18,06,249,,01,03,005,,28,00,062,*75
$GPRMC,064719.000,A,5333.1581,N,01000.6798,E,2.99,298.39,170912,,,A*6E
$GPGGA,064720.000,5333.1590,N,01000.6780,E,1,05,2.1,67.6,M,46.0,M,,0000*6B
$GPGSA,A,3,27,12,15,09,17,,,,,,,,3.2,2.1,2.3*3C
$GPRMC,064720.000,A,5333.1590,N,01000.6780,E,2.90,307.77,170912,,,A*69
$GPGGA,064721.000,5333.1599,N,01000.6766,E,1,05,2.1,65.8,M,46.0,M,,0000*67
$GPGSA,A,3,27,12,15,09,17,,,,,,,,3.2,2.1,2.3*3C
$GPRMC,064721.000,A,5333.1599,N,01000.6766,E,2.07,312.89,170912,,,A*62
$GPGGA,064722.000,5333.1606,N,01000.6761,E,1,05,2.1,64.1,M,46.0,M,,0000*6E
$GPGSA,A,3,27,12,15,09,17,,,,,,,,3.2,2.1,2.3*3C
$GPRMC,064725.000,A,5333.1625,N,01000.6763,E,1.14,72.48,170912,,,A*5E
$GPGGA,064726.000,5333.1632,N,01000.6769,E,1,05,2.1,56.8,M,46.0,M,,0000*6D
$GPGSA,A,3,27,12,15,09,17,,,,,,,,3.2,2.1,2.3*3C
$GPRMC,064726.000,A,5333.1632,N,01000.6769,E,0.95,67.72,170912,,,A*54
$GPGGA,064727.000,5333.1638,N,01000.6774,E,1,05,2.1,55.2,M,46.0,M,,0000*63
$GPGSA,A,3,27,12,15,09,17,,,,,,,,3.2,2.1,2.3*3C
$GPRMC,064731.000,A,5333.1658,N,01000.6804,E,1.08,65.21,170912,,,A*5B
$GPGGA,064732.000,5333.1662,N,01000.6815,E,1,05,2.1,49.0,M,46.0,M,,0000*6F
$GPGSA,A,3,27,12,15,09,17,,,,,,,,3.2,2.1,2.3*3C
$GPRMC,064732.000,A,5333.1662,N,01000.6815,E,0.94,80.82,170912,,,A*57
$GPGGA,064733.000,5333.1665,N,01000.6821,E,1,05,2.1,47.9,M,46.0,M,,0000*69
$GPGSA,A,3,27,12,15,09,17,,,,,,,,3.2,2.1,2.3*3C
$GPRMC,064736.000,A,5333.1677,N,01000.6839,E,0.89,25.47,170912,,,A*53
$GPGGA,064737.000,5333.1680,N,01000.6843,E,1,04,2.2,42.6,M,46.0,M,,0000*6A
$GPGSA,A,3,27,12,15,17,,,,,,,,,3.6,2.2,2.9*38
$GPRMC,064746.000,A,5333.1702,N,01000.6853,E,0.86,354.86,170912,,,A*6C
$GPGGA,064747.000,5333.1705,N,01000.6852,E,1,05,2.1,29.7,M,46.0,M,,0000*6F
$GPGSA,A,3,27,12,15,09,17,,,,,,,,3.2,2.1,2.3*3C
$GPRMC,064749.000,A,5333.1711,N,01000.6850,E,0.88,345.96,170912,,,A*6D
$GPGGA,064750.000,5333.1714,N,01000.6848,E,1,05,2.1,25.2,M,46.0,M,,0000*6B
$GPGSA,A,3,27,12,15,09,17,,,,,,,,3.2,2.1,2.3*3C
$GPRMC,064808.000,A,5333.1697,N,01000.6848,E,0.87,146.87,170912,,,A*6F
$GPGGA,064809.000,5333.1691,N,01000.6851,E,1,05,2.1,24.1,M,46.0,M,,0000*6E
$GPGSA,A,3,27,12,15,09,17,,,,,,,,3.1,2.1,2.3*3F
$GPGSV,3,1,12,09,79,119,24,27,67,119,25,12,54,240,33,17,33,053,25*79
$GPGSV,3,2,12,14,25,314,21,15,25,181,37,25,15,244,23,22,13,286,*7D
$GPGSV,3,3,12,04,06,102,24,18,06,249,,01,03,004,,28,00,062,*75
$GPRMC,064809.000,A,5333.1691,N,01000.6851,E,0.91,145.49,170912,,,A*66
$GPGGA,064810.000,5333.1686,N,01000.6854,E,1,05,2.1,25.8,M,46.0,M,,0000*6D
$GPGSA,A,3,27,12,15,09,17,,,,,,,,3.1,2.1,2.3*3F
$GPRMC,064810.000,A,5333.1686,N,01000.6854,E,0.85,147.46,170912,,,A*65
$GPGGA,064811.000,5333.1681,N,01000.6856,E,1,05,2.1,27.3,M,46.0,M,,0000*60
$GPGSA,A,3,27,12,15,09,17,,,,,,,,3.1,2.1,2.3*3F
$GPRMC,064943.000,A,5333.1695,N,01000.6804,E,1.46,100.35,170912,,,A*6C
$GPGGA,064944.000,5333.1695,N,01000.6813,E,1,05,2.1,17.4,M,46.0,M,,0000*61
$GPGSA,A,3,27,12,15,09,17,,,,,,,,3.1,2.1,2.3*3F
$GPGSV,3,1,12,09,78,119,29,27,67,119,24,12,54,240,23,17,33,053,25*75
$GPGSV,3,2,12,14,25,314,,15,24,181,38,25,16,244,22,22,13,286,*72
$GPGSV,3,3,12,04,06,102,24,18,05,248,18,01,02,004,,28,00,062,*7F
$GPRMC,064944.000,A,5333.1695,N,01000.6813,E,1.10,98.48,170912,,,A*54
$GPGGA,064945.000,5333.1695,N,01000.6821,E,1,05,2.1,16.9,M,46.0,M,,0000*6D
$GPGSA,A,3,27,12,15,09,17,,,,,,,,3.1,2.1,2.3*3F
$GPRMC,064945.000,A,5333.1695,N,01000.6821,E,0.87,97.97,170912,,,A*56
$GPGGA,064946.000,5333.1697,N,01000.6825,E,1,05,2.1,16.3,M,46.0,M,,0000*62
$GPGSA,A,3,27,12,15,09,17,,,,,,,,3.1,2.1,2.3*3F
$GPRMC,064949.000,A,5333.1699,N,01000.6846,E,1.19,101.04,170912,,,A*65
$GPGGA,064950.000,5333.1698,N,01000.6861,E,1,05,2.1,14.6,M,46.0,M,,0000*6D
$GPGSA,A,3,27,12,15,09,17,,,,,,,,3.1,2.1,2.3*3F
$GPRMC,064950.000,A,5333.1698,N,01000.6861,E,2.17,108.73,170912,,,A*6D
$GPGGA,064951.000,5333.1696,N,01000.6874,E,1,05,2.1,14.2,M,46.0,M,,0000*62
$GPGSA,A,3,27,12,15,09,17,,,,,,,,3.1,2.1,2.3*3F
$GPRMC,064951.000,A,5333.1696,N,01000.6874,E,1.79,108.95,170912,,,A*65
$GPGGA,064952.000,5333.1695,N,01000.6887,E,1,05,2.1,13.9,M,46.0,M,,0000*62
$GPGSA,A,3,27,12,15,09,17,,,,,,,,3.1,2.1,2.3*3F
$GPRMC,064952.000,A,5333.1695,N,01000.6887,E,1.88,109.57,170912,,,A*68
$GPGGA,064953.000,5333.1694,N,01000.6896,E,1,05,2.1,13.6,M,46.0,M,,0000*6D
$GPGSA,A,3,27,12,15,09,17,,,,,,,,3.1,2.1,2.3*3F
$GPRMC,064953.000,A,5333.1694,N,01000.6896,E,1.23,109.11,170912,,,A*6B
$GPGGA,064954.000,5333.1694,N,01000.6903,E,1,05,2.1,13.3,M,46.0,M,,0000*62
$GPGSA,A,3,27,12,15,09,17,,,,,,,,3.1,2.1,2.3*3F
$GPGSV,3,1,12,09,78,119,30,27,67,119,25,12,54,240,14,17,33,053,25*78
$GPGSV,3,2,12,14,25,314,,15,24,181,38,25,16,244,24,22,13,286,*74
$GPGSV,3,3,12,04,06,102,24,18,05,248,18,01,02,004,,28,00,062,*7F
$GPRMC,064954.000,A,5333.1694,N,01000.6903,E,1.00,112.27,170912,,,A*6F
$GPGGA,064955.000,5333.1695,N,01000.6908,E,1,05,2.1,13.1,M,46.0,M,,0000*6B
$GPGSA,A,3,27,12,15,09,17,,,,,,,,3.1,2.1,2.3*3F
$GPRMC,064959.000,A,5333.1704,N,01000.6895,E,0.96,301.71,170912,,,A*69
$GPGGA,065000.000,5333.1709,N,01000.6882,E,1,05,2.1,10.3,M,46.0,M,,0000*65
$GPGSA,A,3,27,12,15,09,17,,,,,,,,3.1,2.1,2.3*3F
$GPRMC,065000.000,A,5333.1709,N,01000.6882,E,1.70,300.41,170912,,,A*6D
$GPGGA,065001.000,5333.1714,N,01000.6869,E,1,04,7.9,9.4,M,46.0,M,,0000*5E
$GPGSA,A,3,27,15,09,17,,,,,,,,,8.4,7.9,2.7*3B
$GPRMC,065001.000,A,5333.1714,N,01000.6869,E,1.56,302.24,170912,,,A*60
$GPGGA,065002.000,5333.1718,N,01000.6858,E,1,05,2.1,8.6,M,46.0,M,,0000*5C
$GPGSA,A,3,27,12,15,09,17,,,,,,,,3.1,2.1,2.3*3F
$GPRMC,065002.000,A,5333.1718,N,01000.6858,E,1.29,303.80,170912,,,A*6A
$GPGGA,065003.000,5333.1721,N,01000.6851,E,1,05,2.1,8.0,M,46.0,M,,0000*58
$GPGSA,A,3,27,12,15,09,17,,,,,,,,3.1,2.1,2.3*3F
$GPRMC,065006.000,A,5333.1721,N,01000.6847,E,1.76,115.88,170912,,,A*6D
$GPGGA,065007.000,5333.1719,N,01000.6851,E,1,05,2.1,8.3,M,46.0,M,,0000*54
$GPGSA,A,3,27,12,15,09,17,,,,,,,,3.1,2.1,2.3*3F
$GPRMC,065007.000,A,5333.1719,N,01000.6851,E,1.47,119.68,170912,,,A*60
$GPGGA,065008.000,5333.1718,N,01000.6851,E,1,05,2.1,8.8,M,46.0,M,,0000*51
$GPGSA,A,3,27,12,15,09,17,,,,,,,,3.1,2.1,2.3*3F
$GPRMC,065010.000,A,5333.1718,N,01000.6842,E,1.38,287.86,170912,,,A*69
$GPGGA,065011.000,5333.1719,N,01000.6833,E,1,04,7.9,10.2,M,46.0,M,,0000*63
$GPGSA,A,3,27,15,09,17,,,,,,,,,8.4,7.9,2.7*3B
$GPRMC,065011.000,A,5333.1719,N,01000.6833,E,1.45,289.06,170912,,,A*63
$GPGGA,065012.000,5333.1721,N,01000.6826,E,1,04,7.9,10.6,M,46.0,M,,0000*6B
$GPGSA,A,3,27,15,09,17,,,,,,,,,8.4,7.9,2.7*3B
$GPRMC,065012.000,A,5333.1721,N,01000.6826,E,1.13,289.51,170912,,,A*6E
$GPGGA,065013.000,5333.1721,N,01000.6822,E,1,04,7.9,11.0,M,46.0,M,,0000*69
$GPGSA,A,3,27,15,09,17,,,,,,,,,8.4,7.9,2.7*3B
$GPRMC,065021.000,A,5333.1719,N,01000.6803,E,1.02,119.99,170912,,,A*6C
$GPGGA,065022.000,5333.1717,N,01000.6805,E,1,05,2.1,14.4,M,46.0,M,,0000*66
$GPGSA,A,3,27,12,15,09,17,,,,,,,,3.1,2.1,2.3*3F
$GPRMC,065025.000,A,5333.1713,N,01000.6812,E,0.88,114.66,170912,,,A*6C
$GPGGA,065026.000,5333.1712,N,01000.6815,E,1,05,2.1,16.2,M,46.0,M,,0000*62
$GPGSA,A,3,27,12,15,09,17,,,,,,,,3.1,2.1,2.3*3F
$GPRMC,065027.000,A,5333.1711,N,01000.6820,E,0.95,113.12,170912,,,A*65
$GPGGA,065028.000,5333.1709,N,01000.6825,E,1,05,2.1,16.8,M,46.0,M,,0000*6F
$GPGSA,A,3,27,12,15,09,17,,,,,,,,3.1,2.1,2.3*3F
$GPRMC,065028.000,A,5333.1709,N,01000.6825,E,0.88,113.67,170912,,,A*68
$GPGGA,065029.000,5333.1708,N,01000.6828,E,1,05,2.1,17.1,M,46.0,M,,0000*6A
$GPGSA,A,3,27,12,15,09,17,,,,,,,,3.1,2.1,2.3*3F
$GPGSV,3,1,11,09,78,120,31,27,66,120,26,12,55,240,21,17,32,053,25*7E
$GPGSV,3,2,11,14,26,313,,15,24,181,38,25,16,244,26,22,13,285,*72
$GPGSV,3,3,11,04,07,101,26,18,05,248,,01,02,004,*4B
$GPRMC,065033.000,A,5333.1700,N,01000.6843,E,1.03,134.62,170912,,,A*69
$GPGGA,065034.000,5333.1698,N,01000.6849,E,1,05,2.1,19.7,M,46.0,M,,0000*61
$GPGSA,A,3,27,12,15,09,17,,,,,,,,3.1,2.1,2.2*3E
$GPGSV,3,1,11,09,78,120,30,27,66,120,27,12,55,240,21,17,32,053,25*7E
$GPGSV,3,2,11,14,26,313,,15,24,181,38,25,16,244,26,22,13,285,*72
$GPGSV,3,3,11,04,07,101,26,18,05,248,,01,02,004,*4B
$GPRMC,065040.000,A,5333.1681,N,01000.6881,E,1.14,129.74,170912,,,A*66
$GPGGA,065041.000,5333.1676,N,01000.6897,E,1,05,2.1,24.1,M,46.0,M,,0000*68
$GPGSA,A,3,27,12,15,09,17,,,,,,,,3.1,2.1,2.2*3E
$GPRMC,065041.000,A,5333.1676,N,01000.6897,E,2.37,121.99,170912,,,A*61
$GPGGA,065042.000,5333.1671,N,01000.6916,E,1,04,7.9,24.6,M,46.0,M,,0000*6F
$GPGSA,A,3,27,15,09,17,,,,,,,,,8.4,7.9,2.7*3B
$GPRMC,065042.000,A,5333.1671,N,01000.6916,E,3.22,112.45,170912,,,A*69
$GPGGA,065043.000,5333.1666,N,01000.6939,E,1,04,7.9,25.0,M,46.0,M,,0000*62
$GPGSA,A,3,27,15,09,17,,,,,,,,,8.4,7.9,2.7*3B
$GPRMC,065043.000,A,5333.1666,N,01000.6939,E,4.04,108.48,170912,,,A*66
$GPGGA,065044.000,5333.1660,N,01000.6963,E,1,04,7.9,25.2,M,46.0,M,,0000*6E
$GPGSA,A,3,27,15,09,17,,,,,,,,,8.4,7.9,2.7*3B
$GPGSV,3,1,11,09,78,120,28,27,66,120,27,12,55,240,15,17,32,053,23*76
$GPGSV,3,2,11,14,26,313,,15,24,181,39,25,16,244,26,22,13,285,*73
$GPGSV,3,3,11,04,07,101,26,18,05,248,,01,02,004,*4B
$GPRMC,065044.000,A,5333.1660,N,01000.6963,E,4.59,113.00,170912,,,A*66
$GPGGA,065045.000,5333.1655,N,01000.6982,E,1,04,7.9,25.3,M,46.0,M,,0000*67
$GPGSA,A,3,27,15,09,17,,,,,,,,,8.4,7.9,2.7*3B
$GPRMC,065045.000,A,5333.1655,N,01000.6982,E,3.54,116.38,170912,,,A*6A
$GPGGA,065046.000,5333.1649,N,01000.7001,E,1,05,2.1,25.6,M,46.0,M,,0000*63
$GPGSA,A,3,27,12,15,09,17,,,,,,,,3.1,2.1,2.2*3E
$GPRMC,065046.000,A,5333.1649,N,01000.7001,E,3.31,120.63,170912,,,A*6F
$GPGGA,065047.000,5333.1643,N,01000.7017,E,1,05,2.1,25.8,M,46.0,M,,0000*61
$GPGSA,A,3,27,12,15,09,17,,,,,,,,3.1,2.1,2.2*3E
$GPRMC,065047.000,A,5333.1643,N,01000.7017,E,2.66,126.18,170912,,,A*6A
$GPGGA,065048.000,5333.1639,N,01000.7037,E,1,05,2.1,26.1,M,46.0,M,,0000*6B
$GPGSA,A,3,27,12,15,09,17,,,,,,,,3.1,2.1,2.2*3E
$GPRMC,065048.000,A,5333.1639,N,01000.7037,E,3.01,113.34,170912,,,A*62
$GPGGA,065049.000,5333.1636,N,01000.7059,E,1,05,2.1,26.1,M,46.0,M,,0000*6D
$GPGSA,A,3,27,12,15,09,17,,,,,,,,3.1,2.1,2.2*3E
$GPGSV,3,1,11,09,78,120,27,27,66,120,27,12,55,240,17,17,32,053,22*7A
$GPGSV,3,2,11,14,26,313,,15,24,181,39,25,16,244,26,22,13,285,*73
$GPGSV,3,3,11,04,07,101,26,18,05,248,,01,02,004,*4B
$GPRMC,065049.000,A,5333.1636,N,01000.7059,E,3.11,100.93,170912,,,A*6A
$GPGGA,065050.000,5333.1633,N,01000.7076,E,1,05,2.1,26.0,M,46.0,M,,0000*6C
$GPGSA,A,3,27,12,15,09,17,,,,,,,,3.1,2.1,2.2*3E
$GPRMC,065050.000,A,5333.1633,N,01000.7076,E,2.18,105.24,170912,,,A*6B
$GPGGA,065051.000,5333.1632,N,01000.7087,E,1,05,2.1,25.8,M,46.0,M,,0000*69
$GPGSA,A,3,27,12,15,09,17,,,,,,,,3.1,2.1,2.2*3E
$GPRMC,065051.000,A,5333.1632,N,01000.7087,E,0.90,111.66,170912,,,A*64
$GPGGA,065052.000,5333.1630,N,01000.7100,E,1,05,2.1,25.4,M,46.0,M,,0000*6A
$GPGSA,A,3,27,12,15,09,17,,,,,,,,3.1,2.1,2.2*3E
$GPRMC,065052.000,A,5333.1630,N,01000.7100,E,1.47,114.73,170912,,,A*61
$GPGGA,065053.000,5333.1630,N,01000.7112,E,1,04,7.9,24.8,M,46.0,M,,0000*69
$GPGSA,A,3,27,15,09,17,,,,,,,,,8.4,7.9,2.6*3A
$GPRMC,065053.000,A,5333.1630,N,01000.7112,E,1.37,106.22,170912,,,A*63
$GPGGA,065054.000,5333.1630,N,01000.7123,E,1,05,2.1,24.1,M,46.0,M,,0000*69
$GPGSA,A,3,27,12,15,09,17,,,,,,,,3.1,2.1,2.2*3E
$GPGSV,3,1,11,09,78,120,27,27,66,120,26,12,55,240,17,17,32,053,19*73
$GPGSV,3,2,11,14,26,313,,15,24,181,39,25,16,244,27,22,13,285,*72
$GPGSV,3,3,11,04,07,101,26,18,05,248,,01,02,004,*4B
$GPRMC,065054.000,A,5333.1630,N,01000.7123,E,1.05,99.33,170912,,,A*50
$GPGGA,065055.000,5333.1630,N,01000.7129,E,1,05,2.1,23.5,M,46.0,M,,0000*61
$GPGSA,A,3,27,12,15,09,17,,,,,,,,3.1,2.1,2.2*3E
$GPRMC,065057.000,A,5333.1635,N,01000.7128,E,1.34,309.03,170912,,,A*66
$GPGGA,065058.000,5333.1638,N,01000.7126,E,1,05,2.1,22.2,M,46.0,M,,0000*6D
$GPGSA,A,3,27,12,15,09,17,,,,,,,,3.1,2.1,2.2*3E
$GPRMC,065058.000,A,5333.1638,N,01000.7126,E,1.59,314.47,170912,,,A*6D
$GPGGA,065059.000,5333.1643,N,01000.7124,E,1,05,2.1,21.7,M,46.0,M,,0000*64
$GPGSA,A,3,27,12,15,09,17,,,,,,,,3.1,2.1,2.2*3E
$GPGSV,3,1,11,09,78,120,27,27,66,120,27,12,55,240,16,17,32,053,17*7D
$GPGSV,3,2,11,14,26,313,,15,24,181,39,25,16,244,27,22,13,285,*72
$GPGSV,3,3,11,04,07,101,25,18,05,248,,01,02,004,*48
$GPRMC,065059.000,A,5333.1643,N,01000.7124,E,2.08,320.82,170912,,,A*6B
$GPGGA,065100.000,5333.1649,N,01000.7118,E,1,04,7.9,21.0,M,46.0,M,,0000*67
$GPGSA,A,3,27,15,09,17,,,,,,,,,8.4,7.9,2.6*3A
$GPRMC,065100.000,A,5333.1649,N,01000.7118,E,2.68,316.35,170912,,,A*6C
$GPGGA,065101.000,5333.1656,N,01000.7110,E,1,05,2.1,20.1,M,46.0,M,,0000*6C
$GPGSA,A,3,27,12,15,09,17,,,,,,,,3.1,2.1,2.2*3E
$GPRMC,065101.000,A,5333.1656,N,01000.7110,E,3.03,308.27,170912,,,A*6B
$GPGGA,065102.000,5333.1660,N,01000.7106,E,1,05,2.1,19.1,M,46.0,M,,0000*67
$GPGSA,A,3,27,12,15,09,17,,,,,,,,3.1,2.1,2.2*3E
$GPRMC,065102.000,A,5333.1660,N,01000.7106,E,2.11,307.38,170912,,,A*69
$GPGGA,065103.000,5333.1663,N,01000.7104,E,1,05,2.1,18.2,M,46.0,M,,0000*65
$GPGSA,A,3,27,12,15,09,17,,,,,,,,3.1,2.1,2.2*3E
$GPRMC,065103.000,A,5333.1663,N,01000.7104,E,1.30,303.95,170912,,,A*6A
$GPGGA,065104.000,5333.1664,N,01000.7106,E,1,05,2.1,17.6,M,46.0,M,,0000*6C
$GPGSA,A,3,27,12,15,09,17,,,,,,,,3.1,2.1,2.2*3E
$GPGSV,3,1,11,09,78,120,27,27,66,120,28,12,55,240,15,17,32,053,17*71
$GPGSV,3,2,11,14,26,313,,15,24,181,39,25,16,244,27,22,13,285,*72
$GPGSV,3,3,11,04,07,101,25,18,05,248,,01,02,004,*48
$GPRMC,065106.000,A,5333.1664,N,01000.7117,E,1.32,109.35,170912,,,A*6A
$GPGGA,065107.000,5333.1662,N,01000.7127,E,1,04,7.9,16.3,M,46.0,M,,0000*62
$GPGSA,A,3,27,15,09,17,,,,,,,,,8.4,7.9,2.6*3A
$GPRMC,065107.000,A,5333.1662,N,01000.7127,E,1.94,115.33,170912,,,A*69
$GPGGA,065108.000,5333.1659,N,01000.7140,E,1,04,7.9,16.1,M,46.0,M,,0000*66
$GPGSA,A,3,27,15,09,17,,,,,,,,,8.4,7.9,2.6*3A
$GPRMC,065108.000,A,5333.1659,N,01000.7140,E,2.42,118.54,170912,,,A*6B
$GPGGA,065109.000,5333.1655,N,01000.7153,E,1,04,7.9,16.1,M,46.0,M,,0000*69
$GPGSA,A,3,27,15,09,17,,,,,,,,,8.4,7.9,2.6*3A
$GPGSV,3,1,11,09,78,120,27,27,66,120,29,12,55,240,15,17,32,053,15*72
$GPGSV,3,2,11,14,26,313,,15,24,181,40,25,16,244,28,22,13,285,*73
$GPGSV,3,3,11,04,07,101,26,18,05,248,,01,02,004,*4B
$GPRMC,065109.000,A,5333.1655,N,01000.7153,E,2.99,120.61,170912,,,A*6F
$GPGGA,065110.000,5333.1649,N,01000.7170,E,1,04,7.9,16.4,M,46.0,M,,0000*68
$GPGSA,A,3,27,15,09,17,,,,,,,,,8.4,7.9,2.6*3A
$GPRMC,065110.000,A,5333.1649,N,01000.7170,E,3.60,120.76,170912,,,A*6A
$GPGGA,065111.000,5333.1644,N,01000.7188,E,1,04,7.9,16.8,M,46.0,M,,0000*6F
$GPGSA,A,3,27,15,09,17,,,,,,,,,8.4,7.9,2.6*3A
$GPRMC,065111.000,A,5333.1644,N,01000.7188,E,4.15,116.38,170912,,,A*6B
$GPGGA,065112.000,5333.1638,N,01000.7209,E,1,04,7.9,17.2,M,46.0,M,,0000*66
$GPGSA,A,3,27,15,09,17,,,,,,,,,8.4,7.9,2.6*3A
$GPRMC,065112.000,A,5333.1638,N,01000.7209,E,4.70,113.32,170912,,,A*65
$GPGGA,065113.000,5333.1633,N,01000.7230,E,1,04,7.9,17.8,M,46.0,M,,0000*6C
$GPGSA,A,3,27,15,09,17,,,,,,,,,8.4,7.9,2.6*3A
$GPRMC,065113.000,A,5333.1633,N,01000.7230,E,4.94,111.98,170912,,,A*6D
$GPGGA,065114.000,5333.1627,N,01000.7252,E,1,04,7.9,18.4,M,46.0,M,,0000*69
$GPGSA,A,3,27,15,09,17,,,,,,,,,8.4,7.9,2.6*3A
$GPGSV,3,1,11,09,78,120,26,27,66,120,30,12,55,240,13,17,32,053,14*7C
$GPGSV,3,2,11,14,26,313,,15,24,181,40,25,16,244,28,22,13,285,*73
$GPGSV,3,3,11,04,07,101,26,18,05,248,,01,02,004,*4B
$GPRMC,065114.000,A,5333.1627,N,01000.7252,E,5.13,111.83,170912,,,A*6F
$GPGGA,065115.000,5333.1623,N,01000.7270,E,1,04,7.9,19.0,M,46.0,M,,0000*69
$GPGSA,A,3,27,15,09,17,,,,,,,,,8.4,7.9,2.6*3A
$GPRMC,065115.000,A,5333.1623,N,01000.7270,E,4.62,112.60,170912,,,A*63
$GPGGA,065116.000,5333.1618,N,01000.7285,E,1,04,7.9,19.6,M,46.0,M,,0000*6E
$GPGSA,A,3,27,15,09,17,,,,,,,,,8.4,7.9,2.6*3A
$GPRMC,065116.000,A,5333.1618,N,01000.7285,E,3.85,114.82,170912,,,A*66
$GPGGA,065117.000,5333.1615,N,01000.7294,E,1,03,7.7,20.2,M,46.0,M,,0000*65
$GPGSA,A,2,27,15,09,,,,,,,,,,7.8,7.7,1.0*35
$GPRMC,065117.000,A,5333.1615,N,01000.7294,E,2.74,117.86,170912,,,A*62
$GPGGA,065118.000,5333.1613,N,01000.7297,E,1,03,7.7,20.7,M,46.0,M,,0000*6A
$GPGSA,A,2,27,15,09,,,,,,,,,,7.8,7.7,1.0*35
$GPRMC,065118.000,A,5333.1613,N,01000.7297,E,1.68,122.75,170912,,,A*6C
$GPGGA,065119.000,5333.1613,N,01000.7295,E,1,03,7.7,21.1,M,46.0,M,,0000*6E
$GPGSA,A,2,27,15,09,,,,,,,,,,7.8,7.7,1.0*35
$GPGSV,3,1,11,09,77,120,25,27,66,120,30,12,55,240,,17,32,052,*76
$GPGSV,3,2,11,14,26,313,,15,23,181,40,25,17,244,28,22,13,285,*75
$GPGSV,3,3,11,04,07,101,25,18,04,248,,01,02,003,17*48
$GPRMC,065122.000,A,5333.1617,N,01000.7270,E,1.37,281.37,170912,,,A*6E
$GPGGA,065123.000,5333.1620,N,01000.7255,E,1,03,7.7,22.6,M,46.0,M,,0000*6F
$GPGSA,A,2,27,15,09,,,,,,,,,,7.8,7.7,1.0*35
$GPRMC,065123.000,A,5333.1620,N,01000.7255,E,1.76,283.97,170912,,,A*61
$GPGGA,065124.000,5333.1623,N,01000.7239,E,1,03,7.7,22.9,M,46.0,M,,0000*6E
$GPGSA,A,2,27,15,09,,,,,,,,,,7.8,7.7,1.0*35
$GPGSV,3,1,11,09,77,120,25,27,66,120,30,12,55,240,,17,32,052,*76
$GPGSV,3,2,11,14,26,313,19,15,23,181,40,25,17,244,28,22,13,285,*7D
$GPGSV,3,3,11,04,07,101,25,18,04,248,,01,02,003,16*49
$GPRMC,065124.000,A,5333.1623,N,01000.7239,E,1.96,286.17,170912,,,A*6C
$GPGGA,065125.000,5333.1627,N,01000.7222,E,1,03,7.7,23.1,M,46.0,M,,0000*68
$GPGSA,A,2,27,15,09,,,,,,,,,,7.8,7.7,1.0*35
$GPRMC,065125.000,A,5333.1627,N,01000.7222,E,1.96,285.24,170912,,,A*60
$GPGGA,065126.000,5333.1630,N,01000.7205,E,1,03,7.7,23.4,M,46.0,M,,0000*6D
$GPGSA,A,2,27,15,09,,,,,,,,,,7.8,7.7,1.0*35
$GPRMC,065126.000,A,5333.1630,N,01000.7205,E,2.01,285.94,170912,,,A*66
$GPGGA,065127.000,5333.1634,N,01000.7189,E,1,03,7.7,23.5,M,46.0,M,,0000*6E
$GPGSA,A,2,27,15,09,,,,,,,,,,7.8,7.7,1.0*35
$GPRMC,065127.000,A,5333.1634,N,01000.7189,E,1.90,286.53,170912,,,A*67
$GPGGA,065128.000,5333.1637,N,01000.7175,E,1,03,7.7,23.7,M,46.0,M,,0000*63
$GPGSA,A,2,27,15,09,,,,,,,,,,7.8,7.7,1.0*35
$GPRMC,065128.000,A,5333.1637,N,01000.7175,E,1.59,285.92,170912,,,A*63
$GPGGA,065129.000,5333.1639,N,01000.7163,E,1,03,7.7,23.8,M,46.0,M,,0000*64
$GPGSA,A,2,27,15,09,,,,,,,,,,7.8,7.7,1.0*35
$GPGSV,3,1,11,09,77,120,25,27,66,120,30,12,55,240,,17,32,052,*76
$GPGSV,3,2,11,14,26,313,19,15,23,181,40,25,17,244,28,22,13,285,*7D
$GPGSV,3,3,11,04,07,101,24,18,04,248,,01,02,003,14*4A
$GPRMC,065129.000,A,5333.1639,N,01000.7163,E,1.37,286.13,170912,,,A*69
$GPGGA,065130.000,5333.1642,N,01000.7150,E,1,03,7.7,23.9,M,46.0,M,,0000*61
$GPGSA,A,2,27,15,09,,,,,,,,,,7.8,7.7,1.0*35
$GPRMC,065130.000,A,5333.1642,N,01000.7150,E,1.32,287.14,170912,,,A*6E
$GPGGA,065131.000,5333.1645,N,01000.7139,E,1,03,7.7,24.0,M,46.0,M,,0000*66
$GPGSA,A,2,27,15,09,,,,,,,,,,7.8,7.7,1.0*35
$GPRMC,065131.000,A,5333.1645,N,01000.7139,E,1.27,289.64,170912,,,A*6A
$GPGGA,065132.000,5333.1650,N,01000.7119,E,1,04,2.1,23.7,M,46.0,M,,0000*67
$GPGSA,A,3,27,25,15,09,,,,,,,,,2.3,2.1,1.0*3E
$GPRMC,065132.000,A,5333.1650,N,01000.7119,E,1.09,290.30,170912,,,A*6A
$GPGGA,065133.000,5333.1655,N,01000.7100,E,1,04,2.1,23.4,M,46.0,M,,0000*68
$GPGSA,A,3,27,25,15,09,,,,,,,,,2.3,2.1,1.0*3E
$GPRMC,065216.000,A,5333.1627,N,01000.6747,E,0.88,117.64,170912,,,A*66
$GPGGA,065217.000,5333.1625,N,01000.6747,E,1,06,1.5,56.0,M,46.0,M,,0000*6D
$GPGSA,A,3,27,25,17,15,09,12,,,,,,,2.3,1.5,1.7*3B
$GPRMC,065217.000,A,5333.1625,N,01000.6747,E,1.10,124.41,170912,,,A*62
$GPGGA,065218.000,5333.1623,N,01000.6745,E,1,06,1.5,56.4,M,46.0,M,,0000*62
$GPGSA,A,3,27,25,17,15,09,12,,,,,,,2.3,1.5,1.7*3B
$GPRMC,065220.000,A,5333.1618,N,01000.6744,E,1.46,140.19,170912,,,A*67
$GPGGA,065221.000,5333.1615,N,01000.6743,E,1,06,1.5,58.5,M,46.0,M,,0000*64
$GPGSA,A,3,27,25,17,15,09,12,,,,,,,2.3,1.5,1.7*3B
$GPRMC,065221.000,A,5333.1615,N,01000.6743,E,1.05,142.73,170912,,,A*65
$GPGGA,065222.000,5333.1613,N,01000.6741,E,1,06,1.5,59.4,M,46.0,M,,0000*63
$GPGSA,A,3,27,25,17,15,09,12,,,,,,,2.3,1.5,1.7*3B
$GPRMC,065224.000,A,5333.1607,N,01000.6732,E,0.91,176.53,170912,,,A*6C
$GPGGA,065225.000,5333.1604,N,01000.6724,E,1,06,1.5,62.4,M,46.0,M,,0000*69
$GPGSA,A,3,27,25,17,15,09,12,,,,,,,2.3,1.5,1.7*3B
$GPRMC,065225.000,A,5333.1604,N,01000.6724,E,1.11,224.30,170912,,,A*61
$GPGGA,065226.000,5333.1603,N,01000.6716,E,1,06,1.5,63.3,M,46.0,M,,0000*6A
$GPGSA,A,3,27,25,17,15,09,12,,,,,,,2.3,1.5,1.7*3B
$GPRMC,065226.000,A,5333.1603,N,01000.6716,E,0.84,230.51,170912,,,A*6B
$GPGGA,065227.000,5333.1601,N,01000.6711,E,1,05,3.7,64.0,M,46.0,M,,0000*69
$GPGSA,A,3,27,25,15,09,12,,,,,,,,5.6,3.7,4.2*3F
$GPRMC,065229.000,A,5333.1597,N,01000.6708,E,1.00,135.22,170912,,,A*6A
$GPGGA,065230.000,5333.1596,N,01000.6709,E,1,06,1.5,65.2,M,46.0,M,,0000*6B
$GPGSA,A,3,27,25,17,15,09,12,,,,,,,2.3,1.5,1.7*3B
$GPRMC,065237.000,A,5333.1601,N,01000.6712,E,0.83,68.31,170912,,,A*53
$GPGGA,065238.000,5333.1604,N,01000.6716,E,1,05,3.7,60.9,M,46.0,M,,0000*68
$GPGSA,A,3,27,25,15,09,12,,,,,,,,5.6,3.7,4.3*3E
$GPRMC,065238.000,A,5333.1604,N,01000.6716,E,1.06,59.16,170912,,,A*56
$GPGGA,065239.000,5333.1609,N,01000.6719,E,1,05,3.7,59.4,M,46.0,M,,0000*6C
$GPGSA,A,3,27,25,15,09,12,,,,,,,,5.6,3.7,4.3*3E
$GPGSV,3,1,11,09,77,120,27,27,65,120,36,12,56,241,22,17,32,052,*73
$GPGSV,3,2,11,14,27,313,19,15,23,181,41,25,17,245,23,22,12,284,18*7E
$GPGSV,3,3,11,04,07,100,24,18,04,247,,01,02,003,*41
$GPRMC,065239.000,A,5333.1609,N,01000.6719,E,1.08,33.34,170912,,,A*57
$GPGGA,065240.000,5333.1614,N,01000.6723,E,1,05,3.7,57.6,M,46.0,M,,0000*6B
$GPGSA,A,3,27,25,15,09,12,,,,,,,,5.6,3.7,4.3*3E
$GPRMC,065240.000,A,5333.1614,N,01000.6723,E,1.35,31.45,170912,,,A*56
$GPGGA,065241.000,5333.1620,N,01000.6729,E,1,05,3.7,55.5,M,46.0,M,,0000*66
$GPGSA,A,3,27,25,15,09,12,,,,,,,,5.6,3.7,4.3*3E
$GPRMC,065241.000,A,5333.1620,N,01000.6729,E,1.54,37.62,170912,,,A*5E
$GPGGA,065242.000,5333.1626,N,01000.6733,E,1,05,3.7,53.5,M,46.0,M,,0000*6E
$GPGSA,A,3,27,25,15,09,12,,,,,,,,5.6,3.7,4.3*3E
$GPRMC,065242.000,A,5333.1626,N,01000.6733,E,1.54,25.01,170912,,,A*56
$GPGGA,065243.000,5333.1633,N,01000.6739,E,1,05,3.7,51.2,M,46.0,M,,0000*64
$GPGSA,A,3,27,25,15,09,12,,,,,,,,5.6,3.7,4.3*3E
$GPRMC,065243.000,A,5333.1633,N,01000.6739,E,1.75,30.45,170912,,,A*5E
$GPGGA,065244.000,5333.1640,N,01000.6745,E,1,05,3.7,48.7,M,46.0,M,,0000*61
$GPGSA,A,3,27,25,15,09,12,,,,,,,,5.6,3.7,4.3*3E
$GPGSV,3,1,11,09,77,120,28,27,65,120,36,12,56,241,22,17,32,052,*7C
$GPGSV,3,2,11,14,27,313,19,15,23,181,41,25,17,245,23,22,12,284,17*71
$GPGSV,3,3,11,04,07,100,23,18,04,247,,01,02,003,*46
$GPRMC,065244.000,A,5333.1640,N,01000.6745,E,1.90,29.34,170912,,,A*53
$GPGGA,065245.000,5333.1647,N,01000.6753,E,1,05,3.7,46.1,M,46.0,M,,0000*68
$GPGSA,A,3,27,25,15,09,12,,,,,,,,5.6,3.7,4.3*3E
$GPRMC,065245.000,A,5333.1647,N,01000.6753,E,1.93,41.11,170912,,,A*58
$GPGGA,065246.000,5333.1654,N,01000.6763,E,1,05,3.7,43.5,M,46.0,M,,0000*6B
$GPGSA,A,3,27,25,15,09,12,,,,,,,,5.6,3.7,4.3*3E
$GPRMC,065246.000,A,5333.1654,N,01000.6763,E,1.96,44.76,170912,,,A*5B
$GPGGA,065247.000,5333.1662,N,01000.6775,E,1,06,1.5,40.2,M,46.0,M,,0000*6F
$GPGSA,A,3,27,25,17,15,09,12,,,,,,,2.3,1.5,1.7*3B
$GPRMC,065247.000,A,5333.1662,N,01000.6775,E,2.32,50.05,170912,,,A*54
$GPGGA,065248.000,5333.1673,N,01000.6786,E,1,06,1.5,36.6,M,46.0,M,,0000*69
$GPGSA,A,3,27,25,17,15,09,12,,,,,,,2.3,1.5,1.7*3B
$GPRMC,065248.000,A,5333.1673,N,01000.6786,E,2.41,31.82,170912,,,A*5B
$GPGGA,065249.000,5333.1685,N,01000.6798,E,1,06,1.5,32.6,M,46.0,M,,0000*6A
$GPGSA,A,3,27,25,17,15,09,12,,,,,,,2.3,1.5,1.7*3B
$GPGSV,3,1,11,09,77,120,27,27,65,120,36,12,56,241,23,17,32,052,20*70
$GPGSV,3,2,11,14,27,313,18,15,23,181,42,25,17,245,24,22,12,284,16*75
$GPGSV,3,3,11,04,07,100,23,18,04,247,,01,02,003,*46
$GPRMC,065249.000,A,5333.1685,N,01000.6798,E,2.83,29.15,170912,,,A*55
$GPGGA,065250.000,5333.1696,N,01000.6811,E,1,06,1.5,29.0,M,46.0,M,,0000*62
$GPGSA,A,3,27,25,17,15,09,12,,,,,,,2.3,1.5,1.7*3B
$GPRMC,065250.000,A,5333.1696,N,01000.6811,E,2.73,33.89,170912,,,A*50
$GPGGA,065251.000,5333.1706,N,01000.6822,E,1,06,1.5,25.7,M,46.0,M,,0000*60
$GPGSA,A,3,27,25,17,15,09,12,,,,,,,2.3,1.5,1.7*3B
$GPRMC,065251.000,A,5333.1706,N,01000.6822,E,2.50,34.74,170912,,,A*5D
$GPGGA,065252.000,5333.1715,N,01000.6833,E,1,06,1.5,22.9,M,46.0,M,,0000*68
$GPGSA,A,3,27,25,17,15,09,12,,,,,,,2.3,1.5,1.7*3B
$GPRMC,065252.000,A,5333.1715,N,01000.6833,E,2.19,36.30,170912,,,A*53
$GPGGA,065253.000,5333.1721,N,01000.6842,E,1,06,1.5,20.5,M,46.0,M,,0000*66
$GPGSA,A,3,27,25,17,15,09,12,,,,,,,2.3,1.5,1.7*3B
$GPRMC,065253.000,A,5333.1721,N,01000.6842,E,1.86,37.84,170912,,,A*58
$GPGGA,065254.000,5333.1727,N,01000.6849,E,1,06,1.5,18.5,M,46.0,M,,0000*67
$GPGSA,A,3,27,25,17,15,09,12,,,,,,,2.3,1.5,1.7*3B
$GPGSV,3,1,11,09,77,120,27,27,65,120,35,12,56,241,24,17,32,052,20*74
$GPGSV,3,2,11,14,27,313,17,15,23,181,42,25,17,245,24,22,12,284,15*79
$GPGSV,3,3,11,04,07,100,22,18,04,247,,01,02,003,*47
$GPRMC,065254.000,A,5333.1727,N,01000.6849,E,1.59,26.49,170912,,,A*51
$GPGGA,065255.000,5333.1732,N,01000.6855,E,1,06,1.5,16.8,M,46.0,M,,0000*6C
$GPGSA,A,3,27,25,17,15,09,12,,,,,,,2.3,1.5,1.7*3B
$GPRMC,065255.000,A,5333.1732,N,01000.6855,E,1.42,31.33,170912,,,A*58
$GPGGA,065256.000,5333.1736,N,01000.6861,E,1,06,1.5,15.3,M,46.0,M,,0000*64
$GPGSA,A,3,27,25,17,15,09,12,,,,,,,2.3,1.5,1.7*3B
$GPRMC,065256.000,A,5333.1736,N,01000.6861,E,1.16,29.12,170912,,,A*53
$GPGGA,065257.000,5333.1739,N,01000.6866,E,1,06,1.5,14.2,M,46.0,M,,0000*6D
$GPGSA,A,3,27,25,17,15,09,12,,,,,,,2.3,1.5,1.7*3B
$GPRMC,065257.000,A,5333.1739,N,01000.6866,E,0.91,35.34,170912,,,A*5D
$GPGGA,065258.000,5333.1742,N,01000.6869,E,1,06,1.5,13.2,M,46.0,M,,0000*66
$GPGSA,A,3,27,25,17,15,09,12,,,,,,,2.3,1.5,1.7*3B
$GPRMC,065338.000,A,5333.1721,N,01000.6904,E,0.87,216.60,170912,,,A*6C
$GPGGA,065339.000,5333.1717,N,01000.6900,E,1,05,1.7,28.4,M,46.0,M,,0000*61
$GPGSA,A,3,27,25,17,15,09,,,,,,,,2.6,1.7,2.0*3B
$GPGSV,3,1,11,09,76,121,30,27,65,121,34,12,56,241,,17,31,051,24*70
$GPGSV,3,2,11,14,27,313,,15,22,181,41,25,18,245,25,22,12,284,22*77
$GPGSV,3,3,11,04,08,100,22,18,04,247,,01,01,002,*4A
$GPRMC,065339.000,A,5333.1717,N,01000.6900,E,0.97,209.91,170912,,,A*6D
$GPGGA,065340.000,5333.1713,N,01000.6895,E,1,05,1.7,30.1,M,46.0,M,,0000*6A
$GPGSA,A,3,27,25,17,15,09,,,,,,,,2.6,1.7,2.0*3B
$GPRMC,065340.000,A,5333.1713,N,01000.6895,E,1.08,212.30,170912,,,A*6C
$GPGGA,065341.000,5333.1708,N,01000.6894,E,1,05,1.7,31.6,M,46.0,M,,0000*66
$GPGSA,A,3,27,25,17,15,09,,,,,,,,2.6,1.7,2.0*3B
$GPRMC,065341.000,A,5333.1708,N,01000.6894,E,1.03,178.72,170912,,,A*64
$GPGGA,065342.000,5333.1704,N,01000.6892,E,1,05,1.7,33.1,M,46.0,M,,0000*6A
$GPGSA,A,3,27,25,17,15,09,,,,,,,,2.6,1.7,2.0*3B
$GPRMC,065342.000,A,5333.1704,N,01000.6892,E,0.97,191.95,170912,,,A*6F
