$GPGGA,173417.000,6541.5573,N,01806.0625,W,1,11,0.8,12.3,M,60.3,M,,0000*78
$GPGSA,A,3,01,15,22,19,27,11,08,28,03,18,06,,1.8,0.8,1.6*32
$GPRMC,173417.000,A,6541.5573,N,01806.0625,W,10.52,285.00,030912,,,A*47
$GPGGA,173418.000,6541.5580,N,01806.0685,W,1,10,0.8,12.1,M,60.3,M,,0000*72
$GPGSA,A,3,01,15,22,27,11,08,28,03,18,06,,,2.1,0.8,1.9*3F
$GPGSV,3,1,12,19,60,141,,11,55,224,33,22,43,079,35,01,37,228,35*72
$GPGSV,3,2,12,28,34,306,28,03,28,133,31,08,20,268,33,18,19,040,31*72
$GPGSV,3,3,12,06,17,125,28,27,10,009,30,15,09,354,30,14,06,096,*78
$GPRMC,173418.000,A,6541.5580,N,01806.0685,W,8.94,286.55,030912,,,A*7E
$GPGGA,173419.000,6541.5583,N,01806.0731,W,1,10,0.8,11.8,M,60.3,M,,0000*74
$GPGSA,A,3,01,22,19,27,11,08,28,03,18,06,,,1.9,0.8,1.7*36
$GPRMC,173419.000,A,6541.5583,N,01806.0731,W,6.61,280.11,030912,,,A*70
$GPGGA,173420.000,6541.5582,N,01806.0762,W,1,11,0.8,11.4,M,60.3,M,,0000*74
$GPGSA,A,3,01,15,22,19,27,11,08,28,03,18,06,,1.8,0.8,1.6*32
$GPRMC,173420.000,A,6541.5582,N,01806.0762,W,4.15,268.25,030912,,,A*7D
$GPGGA,173421.000,6541.5581,N,01806.0774,W,1,11,0.8,11.1,M,60.3,M,,0000*74
$GPGSA,A,3,01,15,22,19,27,11,08,28,03,18,06,,1.8,0.8,1.6*32
$GPRMC,173421.000,A,6541.5581,N,01806.0774,W,1.50,259.98,030912,,,A*78
$GPGGA,173422.000,6541.5581,N,01806.0778,W,1,11,0.8,10.8,M,60.3,M,,0000*73
$GPGSA,A,3,01,15,22,19,27,11,08,28,03,18,06,,1.8,0.8,1.6*32
$GPRMC,173453.000,A,6541.5602,N,01806.0793,W,1.60,261.32,030912,,,A*74
$GPGGA,173454.000,6541.5600,N,01806.0817,W,1,11,0.8,12.0,M,60.3,M,,0000*74
$GPGSA,A,3,01,15,22,19,27,11,08,28,03,18,06,,1.8,0.8,1.6*32
$GPRMC,173454.000,A,6541.5600,N,01806.0817,W,3.86,255.90,030912,,,A*77
$GPGGA,173455.000,6541.5596,N,01806.0853,W,1,11,0.8,11.7,M,60.3,M,,0000*7D
$GPGSA,A,3,01,15,22,19,27,11,08,28,03,18,06,,1.8,0.8,1.6*32
$GPRMC,173455.000,A,6541.5596,N,01806.0853,W,5.62,256.82,030912,,,A*76
$GPGGA,173456.000,6541.5594,N,01806.0899,W,1,11,0.8,11.5,M,60.3,M,,0000*78
$GPGSA,A,3,01,15,22,19,27,11,08,28,03,18,06,,1.8,0.8,1.6*32
$GPRMC,173456.000,A,6541.5594,N,01806.0899,W,7.13,263.15,030912,,,A*7D
$GPGGA,173457.000,6541.5592,N,01806.0948,W,1,11,0.8,11.2,M,60.3,M,,0000*75
$GPGSA,A,3,01,15,22,19,27,11,08,28,03,18,06,,1.8,0.8,1.6*32
$GPRMC,173457.000,A,6541.5592,N,01806.0948,W,7.45,266.88,030912,,,A*75
$GPGGA,173458.000,6541.5592,N,01806.1009,W,1,11,0.8,11.1,M,60.3,M,,0000*74
$GPGSA,A,3,01,15,22,19,27,11,08,28,03,18,06,,1.8,0.8,1.6*32
$GPGSV,3,1,12,19,60,140,29,11,55,223,32,22,43,079,30,01,37,228,29*76
$GPGSV,3,2,12,28,34,306,37,03,28,133,23,08,19,268,32,18,19,040,27*73
$GPGSV,3,3,12,06,17,125,34,27,10,009,20,15,09,354,21,14,06,095,*77
$GPRMC,173458.000,A,6541.5592,N,01806.1009,W,9.33,270.73,030912,,,A*7B
$GPGGA,173459.000,6541.5594,N,01806.1086,W,1,11,0.8,10.9,M,60.3,M,,0000*7D
$GPGSA,A,3,01,15,22,19,27,11,08,28,03,18,06,,1.8,0.8,1.6*32
$GPRMC,173459.000,A,6541.5594,N,01806.1086,W,11.71,273.09,030912,,,A*4A
$GPGGA,173500.000,6541.5596,N,01806.1176,W,1,10,0.8,10.6,M,60.3,M,,0000*72
$GPGSA,A,3,01,22,19,27,11,08,28,03,18,06,,,1.9,0.8,1.7*36
$GPRMC,173500.000,A,6541.5596,N,01806.1176,W,13.66,274.10,030912,,,A*40
$GPGGA,173501.000,6541.5598,N,01806.1276,W,1,10,0.8,10.3,M,60.3,M,,0000*7B
$GPGSA,A,3,01,22,19,27,11,08,28,03,18,06,,,1.9,0.8,1.7*36
$GPRMC,173501.000,A,6541.5598,N,01806.1276,W,15.02,273.46,030912,,,A*4C
$GPGGA,173502.000,6541.5600,N,01806.1378,W,1,10,0.8,9.9,M,60.3,M,,0000*47
$GPGSA,A,3,01,22,19,27,11,08,28,03,18,06,,,1.9,0.8,1.7*36
$GPRMC,173502.000,A,6541.5600,N,01806.1378,W,15.29,273.85,030912,,,A*44
$GPGGA,173503.000,6541.5602,N,01806.1486,W,1,10,0.8,9.5,M,60.3,M,,0000*4E
$GPGSA,A,3,01,22,19,27,11,08,28,03,18,06,,,1.9,0.8,1.7*36
$GPRMC,173503.000,A,6541.5602,N,01806.1486,W,16.37,273.67,030912,,,A*41
$GPGGA,173504.000,6541.5604,N,01806.1605,W,1,10,0.8,9.2,M,60.3,M,,0000*41
$GPGSA,A,3,01,22,19,27,11,08,28,03,18,06,,,1.9,0.8,1.7*36
$GPRMC,173504.000,A,6541.5604,N,01806.1605,W,17.76,273.12,030912,,,A*4F
$GPGGA,173505.000,6541.5606,N,01806.1730,W,1,10,0.8,8.9,M,60.3,M,,0000*4F
$GPGSA,A,3,01,22,19,27,11,08,28,03,18,06,,,1.9,0.8,1.7*36
$GPRMC,173505.000,A,6541.5606,N,01806.1730,W,18.79,272.88,030912,,,A*49
$GPGGA,173506.000,6541.5608,N,01806.1859,W,1,10,0.8,8.8,M,60.3,M,,0000*43
$GPGSA,A,3,01,22,19,27,11,08,28,03,18,06,,,1.9,0.8,1.7*36
$GPRMC,173506.000,A,6541.5608,N,01806.1859,W,19.30,272.74,030912,,,A*4B
$GPGGA,173507.000,6541.5610,N,01806.1989,W,1,10,0.8,8.8,M,60.3,M,,0000*47
$GPGSA,A,3,01,22,19,27,11,08,28,03,18,06,,,1.9,0.8,1.7*36
$GPRMC,173507.000,A,6541.5610,N,01806.1989,W,19.52,272.27,030912,,,A*4D
$GPGGA,173508.000,6541.5613,N,01806.2119,W,1,09,0.9,8.8,M,60.3,M,,0000*40
$GPGSA,A,3,22,19,27,11,08,28,03,18,06,,,,1.9,0.9,1.7*36
$GPGSV,3,1,12,19,60,140,24,11,55,223,28,22,43,079,29,01,37,228,*73
$GPGSV,3,2,12,28,34,306,32,03,28,133,25,08,19,268,33,18,19,040,33*74
$GPGSV,3,3,12,06,17,125,32,27,10,009,30,15,09,354,24,14,06,095,*75
$GPRMC,173508.000,A,6541.5613,N,01806.2119,W,19.53,273.53,030912,,,A*40
$GPGGA,173509.000,6541.5618,N,01806.2248,W,1,10,0.8,9.0,M,60.3,M,,0000*4D
$GPGSA,A,3,01,22,19,27,11,08,28,03,18,06,,,1.9,0.8,1.7*36
$GPRMC,173509.000,A,6541.5618,N,01806.2248,W,19.23,276.27,030912,,,A*4C
$GPGGA,173510.000,6541.5625,N,01806.2376,W,1,10,0.8,9.3,M,60.3,M,,0000*44
$GPGSA,A,3,01,22,19,27,11,08,28,03,18,06,,,1.9,0.8,1.7*36
$GPRMC,173510.000,A,6541.5625,N,01806.2376,W,19.25,278.30,030912,,,A*48
$GPGGA,173511.000,6541.5634,N,01806.2502,W,1,10,0.8,9.6,M,60.3,M,,0000*45
$GPGSA,A,3,01,22,19,27,11,08,28,03,18,06,,,1.9,0.8,1.7*36
$GPRMC,173511.000,A,6541.5634,N,01806.2502,W,19.05,280.89,030912,,,A*4B
$GPGGA,173512.000,6541.5647,N,01806.2624,W,1,10,0.8,10.0,M,60.3,M,,0000*7B
$GPGSA,A,3,01,22,19,27,11,08,28,03,18,06,,,1.9,0.8,1.7*36
$GPRMC,173512.000,A,6541.5647,N,01806.2624,W,18.80,285.45,030912,,,A*42
$GPGGA,173513.000,6541.5663,N,01806.2741,W,1,10,0.8,10.5,M,60.3,M,,0000*7B
$GPGSA,A,3,01,22,19,27,11,08,28,03,18,06,,,1.9,0.8,1.7*36
$GPGSV,3,1,12,19,60,140,29,11,55,223,34,22,43,079,37,01,37,228,35*7A
$GPGSV,3,2,12,28,34,306,31,03,28,133,32,08,19,268,27,18,19,040,39*7E
$GPGSV,3,3,12,06,17,125,29,27,10,009,24,15,09,354,30,14,06,095,*7F
$GPRMC,173513.000,A,6541.5663,N,01806.2741,W,18.31,290.07,030912,,,A*4F
$GPGGA,173514.000,6541.5684,N,01806.2852,W,1,10,0.8,11.3,M,60.3,M,,0000*7F
$GPGSA,A,3,01,22,19,27,11,08,28,03,18,06,,,1.9,0.8,1.7*36
$GPRMC,173514.000,A,6541.5684,N,01806.2852,W,18.17,295.62,030912,,,A*4E
$GPGGA,173515.000,6541.5707,N,01806.2955,W,1,10,0.8,12.1,M,60.3,M,,0000*73
$GPGSA,A,3,01,22,19,27,11,08,28,03,18,06,,,1.9,0.8,1.7*36
$GPRMC,173515.000,A,6541.5707,N,01806.2955,W,17.24,298.25,030912,,,A*42
$GPGGA,173516.000,6541.5729,N,01806.3048,W,1,10,0.8,12.9,M,60.3,M,,0000*70
$GPGSA,A,3,01,22,19,27,11,08,28,03,18,06,,,1.9,0.8,1.7*36
$GPRMC,173516.000,A,6541.5729,N,01806.3048,W,15.82,301.29,030912,,,A*4A
$GPGGA,173517.000,6541.5750,N,01806.3129,W,1,10,0.8,13.7,M,60.3,M,,0000*76
$GPGSA,A,3,01,22,19,27,11,08,28,03,18,06,,,1.9,0.8,1.7*36
$GPRMC,173517.000,A,6541.5750,N,01806.3129,W,14.15,303.18,030912,,,A*4C
$GPGGA,173518.000,6541.5766,N,01806.3206,W,1,10,0.8,14.5,M,60.3,M,,0000*77
$GPGSA,A,3,01,22,19,27,11,08,28,03,18,06,,,1.9,0.8,1.7*36
$GPGSV,3,1,12,19,60,140,33,11,55,223,34,22,43,079,35,01,37,228,34*72
$GPGSV,3,2,12,28,34,306,30,03,28,133,24,08,19,268,31,18,19,040,38*7E
$GPGSV,3,3,12,06,17,125,28,27,10,009,25,15,09,354,31,14,06,095,*7E
$GPRMC,173518.000,A,6541.5766,N,01806.3206,W,12.74,297.83,030912,,,A*47
$GPGGA,173519.000,6541.5775,N,01806.3279,W,1,10,0.8,15.1,M,60.3,M,,0000*79
$GPGSA,A,3,01,22,19,27,11,08,28,03,18,06,,,1.9,0.8,1.7*36
$GPRMC,173519.000,A,6541.5775,N,01806.3279,W,11.22,287.14,030912,,,A*43
$GPGGA,173520.000,6541.5775,N,01806.3345,W,1,10,0.8,15.7,M,60.3,M,,0000*7B
$GPGSA,A,3,01,22,19,27,11,08,28,03,18,06,,,1.9,0.8,1.7*36
$GPRMC,173520.000,A,6541.5775,N,01806.3345,W,9.63,271.06,030912,,,A*71
$GPGGA,173521.000,6541.5768,N,01806.3412,W,1,10,0.8,16.2,M,60.3,M,,0000*75
$GPGSA,A,3,01,22,19,27,11,08,28,03,18,06,,,1.9,0.8,1.7*36
$GPRMC,173521.000,A,6541.5768,N,01806.3412,W,10.09,254.20,030912,,,A*4E
$GPGGA,173522.000,6541.5750,N,01806.3474,W,1,10,0.8,16.8,M,60.3,M,,0000*77
$GPGSA,A,3,01,22,19,27,11,08,28,03,18,06,,,1.9,0.8,1.7*36
$GPRMC,173522.000,A,6541.5750,N,01806.3474,W,11.10,235.25,030912,,,A*4D
$GPGGA,173523.000,6541.5726,N,01806.3531,W,1,10,0.8,17.2,M,60.3,M,,0000*7C
$GPGSA,A,3,01,22,19,27,11,08,28,03,18,06,,,1.9,0.8,1.7*36
$GPGSV,3,1,12,19,60,140,38,11,55,223,32,22,43,079,28,01,37,228,32*75
$GPGSV,3,2,12,28,34,306,34,03,28,133,33,08,19,268,29,18,19,040,31*7C
$GPGSV,3,3,12,06,17,125,34,27,10,009,30,15,09,354,26,14,06,095,*71
$GPRMC,173523.000,A,6541.5726,N,01806.3531,W,12.06,223.39,030912,,,A*43
$GPGGA,173524.000,6541.5700,N,01806.3590,W,1,10,0.8,17.7,M,60.3,M,,0000*71
$GPGSA,A,3,01,22,19,27,11,08,28,03,18,06,,,1.9,0.8,1.7*36
$GPRMC,173524.000,A,6541.5700,N,01806.3590,W,12.99,221.33,030912,,,A*45
$GPGGA,173525.000,6541.5672,N,01806.3652,W,1,10,0.8,18.3,M,60.3,M,,0000*72
$GPGSA,A,3,01,22,19,27,11,08,28,03,18,06,,,1.9,0.8,1.7*36
$GPRMC,173525.000,A,6541.5672,N,01806.3652,W,13.75,221.99,030912,,,A*4E
$GPGGA,173526.000,6541.5643,N,01806.3718,W,1,10,0.8,18.8,M,60.3,M,,0000*77
$GPGSA,A,3,01,22,19,27,11,08,28,03,18,06,,,1.9,0.8,1.7*36
$GPRMC,173526.000,A,6541.5643,N,01806.3718,W,14.37,222.90,030912,,,A*4B
$GPGGA,173527.000,6541.5614,N,01806.3783,W,1,10,0.8,19.2,M,60.3,M,,0000*7D
$GPGSA,A,3,01,22,19,27,11,08,28,03,18,06,,,1.9,0.8,1.7*36
$GPRMC,173527.000,A,6541.5614,N,01806.3783,W,14.26,222.61,030912,,,A*44
$GPGGA,173528.000,6541.5586,N,01806.3848,W,1,10,0.8,19.7,M,60.3,M,,0000*77
$GPGSA,A,3,01,22,19,27,11,08,28,03,18,06,,,1.9,0.8,1.7*36
$GPGSV,3,1,12,19,60,140,39,11,55,223,25,22,43,079,28,01,37,228,27*76
$GPGSV,3,2,12,28,34,306,31,03,28,133,33,08,19,268,29,18,19,040,25*7C
$GPGSV,3,3,12,06,17,125,27,27,10,009,30,15,09,354,37,14,06,095,*73
$GPRMC,173528.000,A,6541.5586,N,01806.3848,W,13.98,223.92,030912,,,A*44
$GPGGA,173529.000,6541.5557,N,01806.3917,W,1,08,1.1,20.2,M,60.3,M,,0000*7F
$GPGSA,A,3,22,19,27,11,08,28,03,18,,,,,2.3,1.1,2.0*34
$GPRMC,173529.000,A,6541.5557,N,01806.3917,W,14.91,224.12,030912,,,A*43
$GPGGA,173530.000,6541.5525,N,01806.3995,W,1,09,1.0,20.7,M,60.3,M,,0000*7D
$GPGSA,A,3,01,22,19,27,11,08,28,03,18,,,,2.2,1.0,2.0*35
$GPRMC,173530.000,A,6541.5525,N,01806.3995,W,16.24,225.32,030912,,,A*4B
$GPGGA,173531.000,6541.5494,N,01806.4076,W,1,10,0.8,21.3,M,60.3,M,,0000*70
$GPGSA,A,3,01,22,19,27,11,08,28,03,18,06,,,1.9,0.8,1.7*36
$GPRMC,173531.000,A,6541.5494,N,01806.4076,W,16.71,227.01,030912,,,A*40
$GPGGA,173532.000,6541.5461,N,01806.4161,W,1,10,0.8,21.8,M,60.3,M,,0000*75
$GPGSA,A,3,01,22,19,27,11,08,28,03,18,06,,,1.9,0.8,1.7*36
$GPRMC,173532.000,A,6541.5461,N,01806.4161,W,17.28,226.83,030912,,,A*48
$GPGGA,173533.000,6541.5428,N,01806.4243,W,1,10,0.8,22.3,M,60.3,M,,0000*72
$GPGSA,A,3,01,22,19,27,11,08,28,03,18,06,,,1.9,0.8,1.7*36
$GPGSV,3,1,12,19,60,140,39,11,55,223,31,22,43,079,24,01,37,228,32*7B
$GPGSV,3,2,12,28,34,306,31,03,28,133,32,08,19,268,25,18,19,040,27*73
$GPGSV,3,3,12,06,17,125,36,27,10,009,17,15,09,354,19,14,06,095,*7A
$GPRMC,173533.000,A,6541.5428,N,01806.4243,W,17.00,226.16,030912,,,A*41
$GPGGA,173534.000,6541.5396,N,01806.4323,W,1,10,0.8,22.7,M,60.3,M,,0000*74
$GPGSA,A,3,01,22,19,27,11,08,28,03,18,06,,,1.9,0.8,1.7*36
$GPRMC,173534.000,A,6541.5396,N,01806.4323,W,16.76,225.30,030912,,,A*44
$GPGGA,173535.000,6541.5362,N,01806.4399,W,1,10,0.8,23.0,M,60.3,M,,0000*79
$GPGSA,A,3,01,22,19,27,11,08,28,03,18,06,,,1.9,0.8,1.7*36
$GPRMC,173535.000,A,6541.5362,N,01806.4399,W,16.60,222.50,030912,,,A*49
$GPGGA,173536.000,6541.5327,N,01806.4468,W,1,10,0.8,23.3,M,60.3,M,,0000*71
$GPGSA,A,3,01,22,19,27,11,08,28,03,18,06,,,1.9,0.8,1.7*36
$GPRMC,173536.000,A,6541.5327,N,01806.4468,W,16.11,219.22,030912,,,A*49
$GPGGA,173537.000,6541.5292,N,01806.4532,W,1,10,0.8,23.5,M,60.3,M,,0000*77
$GPGSA,A,3,01,22,19,27,11,08,28,03,18,06,,,1.9,0.8,1.7*36
$GPRMC,173537.000,A,6541.5292,N,01806.4532,W,15.92,216.79,030912,,,A*40
$GPGGA,173538.000,6541.5255,N,01806.4598,W,1,10,0.8,23.7,M,60.3,M,,0000*71
$GPGSA,A,3,01,22,19,27,11,08,28,03,18,06,,,1.9,0.8,1.7*36
$GPGSV,3,1,12,19,60,140,36,11,55,223,27,22,43,079,32,01,37,228,19*7D
$GPGSV,3,2,12,28,34,306,32,03,28,133,37,08,19,268,31,18,19,040,22*75
$GPGSV,3,3,12,06,17,125,30,27,10,009,17,15,09,354,34,14,06,095,*73
$GPRMC,173538.000,A,6541.5255,N,01806.4598,W,16.31,216.41,030912,,,A*45
$GPGGA,173539.000,6541.5219,N,01806.4665,W,1,10,0.8,23.8,M,60.3,M,,0000*76
$GPGSA,A,3,01,22,19,27,11,08,28,03,18,06,,,1.9,0.8,1.7*36
$GPRMC,173539.000,A,6541.5219,N,01806.4665,W,16.43,217.00,030912,,,A*4C
$GPGGA,173540.000,6541.5182,N,01806.4733,W,1,10,0.8,23.9,M,60.3,M,,0000*7A
$GPGSA,A,3,01,22,19,27,11,08,28,03,18,06,,,1.9,0.8,1.7*36
$GPRMC,173540.000,A,6541.5182,N,01806.4733,W,16.38,217.10,030912,,,A*4C
$GPGGA,173541.000,6541.5146,N,01806.4801,W,1,10,0.8,24.0,M,60.3,M,,0000*73
$GPGSA,A,3,01,22,19,27,11,08,28,03,18,06,,,1.9,0.8,1.6*37
$GPRMC,173541.000,A,6541.5146,N,01806.4801,W,16.49,217.20,030912,,,A*4E
$GPGGA,173542.000,6541.5110,N,01806.4867,W,1,10,0.8,24.2,M,60.3,M,,0000*71
$GPGSA,A,3,01,22,19,27,11,08,28,03,18,06,,,1.9,0.8,1.6*37
$GPRMC,173542.000,A,6541.5110,N,01806.4867,W,15.93,217.51,030912,,,A*4C
$GPGGA,173543.000,6541.5078,N,01806.4931,W,1,10,0.8,24.3,M,60.3,M,,0000*7C
$GPGSA,A,3,01,22,19,27,11,08,28,03,18,06,,,1.9,0.8,1.6*37
$GPRMC,173543.000,A,6541.5078,N,01806.4931,W,14.86,219.07,030912,,,A*48
$GPGGA,173544.000,6541.5050,N,01806.4998,W,1,10,0.8,24.4,M,60.3,M,,0000*75
$GPGSA,A,3,01,22,19,27,11,08,28,03,18,06,,,1.9,0.8,1.6*37
$GPRMC,173544.000,A,6541.5050,N,01806.4998,W,13.74,224.94,030912,,,A*48
$GPGGA,173545.000,6541.5029,N,01806.5068,W,1,10,0.8,24.5,M,60.3,M,,0000*7C
$GPGSA,A,3,01,22,19,27,11,08,28,03,18,06,,,1.9,0.8,1.6*37
$GPRMC,173545.000,A,6541.5029,N,01806.5068,W,12.68,234.01,030912,,,A*41
$GPGGA,173546.000,6541.5013,N,01806.5142,W,1,10,0.8,24.5,M,60.3,M,,0000*7F
$GPGSA,A,3,01,22,19,27,11,08,28,03,18,06,,,1.9,0.8,1.6*37
$GPRMC,173546.000,A,6541.5013,N,01806.5142,W,12.03,243.99,030912,,,A*4E
$GPGGA,173547.000,6541.5002,N,01806.5221,W,1,10,0.8,24.7,M,60.3,M,,0000*7A
$GPGSA,A,3,01,22,19,27,11,08,28,03,18,06,,,1.9,0.8,1.6*37
$GPRMC,173547.000,A,6541.5002,N,01806.5221,W,12.03,253.11,030912,,,A*48
$GPGGA,173548.000,6541.4994,N,01806.5305,W,1,10,0.8,24.8,M,60.3,M,,0000*7A
$GPGSA,A,3,01,22,19,27,11,08,28,03,18,06,,,1.9,0.8,1.6*37
$GPGSV,3,1,12,19,60,140,28,11,55,223,36,22,43,079,30,01,37,228,36*7D
$GPGSV,3,2,12,28,34,306,33,03,28,133,31,08,19,268,29,18,19,040,30*78
$GPGSV,3,3,12,06,17,125,30,27,10,009,30,15,09,354,,14,06,095,*71
$GPRMC,173548.000,A,6541.4994,N,01806.5305,W,12.61,259.24,030912,,,A*4F
$GPGGA,173549.000,6541.4990,N,01806.5395,W,1,10,0.8,25.0,M,60.3,M,,0000*7F
$GPGSA,A,3,01,22,19,27,11,08,28,03,18,06,,,1.9,0.8,1.6*37
$GPRMC,173549.000,A,6541.4990,N,01806.5395,W,13.28,265.75,030912,,,A*44
$GPGGA,173550.000,6541.4992,N,01806.5489,W,1,09,0.9,25.0,M,60.3,M,,0000*76
$GPGSA,A,3,22,19,27,11,08,28,03,18,06,,,,1.9,0.9,1.7*36
$GPRMC,173550.000,A,6541.4992,N,01806.5489,W,13.90,274.33,030912,,,A*45
$GPGGA,173551.000,6541.5001,N,01806.5585,W,1,10,0.8,25.0,M,60.3,M,,0000*71
$GPGSA,A,3,01,22,19,27,11,08,28,03,18,06,,,1.8,0.8,1.6*36
$GPRMC,173551.000,A,6541.5001,N,01806.5585,W,14.54,285.00,030912,,,A*4A
$GPGGA,173552.000,6541.5017,N,01806.5682,W,1,10,0.8,25.0,M,60.3,M,,0000*71
$GPGSA,A,3,01,22,19,27,11,08,28,03,18,06,,,1.8,0.8,1.6*36
$GPRMC,173552.000,A,6541.5017,N,01806.5682,W,15.71,293.85,030912,,,A*46
$GPGGA,173553.000,6541.5040,N,01806.5778,W,1,10,0.8,25.1,M,60.3,M,,0000*77
$GPGSA,A,3,01,22,19,27,11,08,28,03,18,06,,,1.8,0.8,1.6*36
$GPGSV,3,1,12,19,60,140,29,11,55,223,34,22,43,079,38,01,37,228,33*73
$GPGSV,3,2,12,28,34,306,28,03,28,133,29,08,19,268,25,18,19,040,32*75
$GPGSV,3,3,12,06,17,125,28,27,10,009,25,15,09,354,35,14,06,095,*7A
$GPRMC,173553.000,A,6541.5040,N,01806.5778,W,16.59,301.28,030912,,,A*45
$GPGGA,173554.000,6541.5067,N,01806.5878,W,1,10,0.8,25.1,M,60.3,M,,0000*7A
$GPGSA,A,3,01,22,19,27,11,08,28,03,18,06,,,1.8,0.8,1.6*36
$GPRMC,173554.000,A,6541.5067,N,01806.5878,W,18.14,305.28,030912,,,A*4B
$GPGGA,173555.000,6541.5097,N,01806.5985,W,1,10,0.8,25.1,M,60.3,M,,0000*77
$GPGSA,A,3,01,22,19,27,11,08,28,03,18,06,,,1.8,0.8,1.6*36
$GPRMC,173555.000,A,6541.5097,N,01806.5985,W,19.56,305.37,030912,,,A*4F
$GPGGA,173556.000,6541.5129,N,01806.6097,W,1,10,0.8,25.1,M,60.3,M,,0000*79
$GPGSA,A,3,01,22,19,27,11,08,28,03,18,06,,,1.8,0.8,1.6*36
$GPRMC,173556.000,A,6541.5129,N,01806.6097,W,20.39,304.73,030912,,,A*43
$GPGGA,173557.000,6541.5162,N,01806.6212,W,1,10,0.8,25.2,M,60.3,M,,0000*7B
$GPGSA,A,3,01,22,19,27,11,08,28,03,18,06,,,1.8,0.8,1.6*36
$GPRMC,173557.000,A,6541.5162,N,01806.6212,W,21.18,306.18,030912,,,A*4F
$GPGGA,173558.000,6541.5199,N,01806.6326,W,1,10,0.8,25.3,M,60.3,M,,0000*77
$GPGSA,A,3,01,22,19,27,11,08,28,03,18,06,,,1.8,0.8,1.6*36
$GPGSV,3,1,12,19,60,140,29,11,55,223,38,22,43,079,40,01,37,228,36*75
$GPGSV,3,2,12,28,34,306,34,03,28,133,26,08,19,268,31,18,19,040,30*70
$GPGSV,3,3,12,06,17,125,30,27,10,009,18,15,09,354,25,14,06,095,*7C
$GPRMC,173558.000,A,6541.5199,N,01806.6326,W,21.73,308.54,030912,,,A*49
$GPGGA,173559.000,6541.5237,N,01806.6440,W,1,10,0.8,25.5,M,60.3,M,,0000*70
$GPGSA,A,3,01,22,19,27,11,08,28,03,18,06,,,1.8,0.8,1.6*36
$GPRMC,173559.000,A,6541.5237,N,01806.6440,W,22.01,309.32,030912,,,A*4F
$GPGGA,173600.000,6541.5276,N,01806.6554,W,1,10,0.8,25.9,M,60.3,M,,0000*72
$GPGSA,A,3,01,22,19,27,11,08,28,03,18,06,,,1.8,0.8,1.6*36
$GPRMC,173600.000,A,6541.5276,N,01806.6554,W,22.25,309.96,030912,,,A*49
$GPGGA,173601.000,6541.5317,N,01806.6666,W,1,10,0.8,26.2,M,60.3,M,,0000*7F
$GPGSA,A,3,01,22,19,27,11,08,28,03,18,06,,,1.8,0.8,1.6*36
$GPRMC,173601.000,A,6541.5317,N,01806.6666,W,22.25,311.62,030912,,,A*4E
$GPGGA,173602.000,6541.5358,N,01806.6777,W,1,10,0.8,26.6,M,60.3,M,,0000*72
$GPGSA,A,3,01,22,19,27,11,08,28,03,18,06,,,1.8,0.8,1.6*36
$GPRMC,173602.000,A,6541.5358,N,01806.6777,W,22.48,312.40,030912,,,A*4F
$GPGGA,173603.000,6541.5400,N,01806.6889,W,1,10,0.8,27.1,M,60.3,M,,0000*71
$GPGSA,A,3,01,22,19,27,11,08,28,03,18,06,,,1.8,0.8,1.6*36
$GPGSV,3,1,12,19,60,140,25,11,55,223,40,22,43,079,40,01,37,228,37*77
$GPGSV,3,2,12,28,34,306,35,03,28,133,31,08,19,268,25,18,19,040,36*74
$GPGSV,3,3,12,06,17,125,24,27,10,009,20,15,09,354,27,14,06,095,*70
$GPRMC,173603.000,A,6541.5400,N,01806.6889,W,22.49,312.30,030912,,,A*4C
$GPGGA,173604.000,6541.5441,N,01806.6998,W,1,10,0.8,27.6,M,60.3,M,,0000*75
$GPGSA,A,3,01,22,19,27,11,08,28,03,18,06,,,1.8,0.8,1.6*36
$GPRMC,173604.000,A,6541.5441,N,01806.6998,W,21.90,312.10,030912,,,A*4A
$GPGGA,173605.000,6541.5482,N,01806.7105,W,1,10,0.8,28.2,M,60.3,M,,0000*7D
$GPGSA,A,3,01,22,19,27,11,08,28,03,18,06,,,1.8,0.8,1.6*36
$GPRMC,173605.000,A,6541.5482,N,01806.7105,W,21.85,312.81,030912,,,A*45
$GPGGA,173606.000,6541.5523,N,01806.7214,W,1,10,0.8,28.9,M,60.3,M,,0000*7C
$GPGSA,A,3,01,22,19,27,11,08,28,03,18,06,,,1.8,0.8,1.6*36
$GPRMC,173606.000,A,6541.5523,N,01806.7214,W,21.99,312.72,030912,,,A*4E
$GPGGA,173607.000,6541.5565,N,01806.7323,W,1,10,0.8,29.6,M,60.3,M,,0000*74
$GPGSA,A,3,01,22,19,27,11,08,28,03,18,06,,,1.8,0.8,1.6*36
$GPRMC,173607.000,A,6541.5565,N,01806.7323,W,22.12,312.91,030912,,,A*45
$GPGGA,173608.000,6541.5608,N,01806.7433,W,1,10,0.8,30.3,M,60.3,M,,0000*78
$GPGSA,A,3,01,22,19,27,11,08,28,03,18,06,,,1.8,0.8,1.6*36
$GPRMC,173608.000,A,6541.5608,N,01806.7433,W,22.38,312.95,030912,,,A*48
$GPGGA,173609.000,6541.5651,N,01806.7544,W,1,10,0.8,31.1,M,60.3,M,,0000*77
$GPGSA,A,3,01,22,19,27,11,08,28,03,18,06,,,1.8,0.8,1.6*36
$GPRMC,173609.000,A,6541.5651,N,01806.7544,W,22.58,313.02,030912,,,A*4D
$GPGGA,173610.000,6541.5694,N,01806.7656,W,1,10,0.8,31.8,M,60.3,M,,0000*7F
$GPGSA,A,3,01,22,19,27,11,08,28,03,18,06,,,1.8,0.8,1.6*36
$GPRMC,173610.000,A,6541.5694,N,01806.7656,W,22.73,312.60,030912,,,A*40
$GPGGA,173611.000,6541.5737,N,01806.7769,W,1,10,0.8,32.5,M,60.3,M,,0000*75
$GPGSA,A,3,01,22,19,27,11,08,28,03,18,06,,,1.8,0.8,1.6*36
$GPRMC,173611.000,A,6541.5737,N,01806.7769,W,22.94,313.12,030912,,,A*49
$GPGGA,173612.000,6541.5781,N,01806.7883,W,1,10,0.8,33.2,M,60.3,M,,0000*76
$GPGSA,A,3,01,22,19,27,11,08,28,03,18,06,,,1.8,0.8,1.6*36
$GPRMC,173612.000,A,6541.5781,N,01806.7883,W,23.09,312.66,030912,,,A*4B
$GPGGA,173613.000,6541.5824,N,01806.8000,W,1,10,0.8,33.9,M,60.3,M,,0000*70
$GPGSA,A,3,01,22,19,27,11,08,28,03,18,06,,,1.8,0.8,1.6*36
$GPRMC,173613.000,A,6541.5824,N,01806.8000,W,23.21,311.60,030912,,,A*49
$GPGGA,173614.000,6541.5867,N,01806.8116,W,1,10,0.8,34.7,M,60.3,M,,0000*7F
$GPGSA,A,3,01,22,19,27,11,08,28,03,18,06,,,1.8,0.8,1.6*36
$GPRMC,173614.000,A,6541.5867,N,01806.8116,W,23.18,311.49,030912,,,A*4E
$GPGGA,173615.000,6541.5910,N,01806.8232,W,1,10,0.8,35.5,M,60.3,M,,0000*79
$GPGSA,A,3,01,22,19,27,11,08,28,03,18,06,,,1.8,0.8,1.6*36
$GPRMC,173615.000,A,6541.5910,N,01806.8232,W,23.08,312.03,030912,,,A*47
$GPGGA,173616.000,6541.5953,N,01806.8348,W,1,10,0.8,36.3,M,60.3,M,,0000*74
$GPGSA,A,3,01,22,19,27,11,08,28,03,18,06,,,1.8,0.8,1.6*36
$GPRMC,173616.000,A,6541.5953,N,01806.8348,W,23.07,311.61,030912,,,A*47
$GPGGA,173617.000,6541.5995,N,01806.8466,W,1,10,0.8,37.1,M,60.3,M,,0000*77
$GPGSA,A,3,01,22,19,27,11,08,28,03,18,06,,,1.8,0.8,1.6*36
$GPRMC,173617.000,A,6541.5995,N,01806.8466,W,23.18,310.80,030912,,,A*47
$GPGGA,173618.000,6541.6037,N,01806.8584,W,1,10,0.8,38.0,M,60.3,M,,0000*79
$GPGSA,A,3,01,22,19,27,11,08,28,03,18,06,,,1.8,0.8,1.6*36
$GPGSV,3,1,12,19,60,140,25,11,56,223,36,22,42,078,34,01,38,228,36*78
$GPGSV,3,2,12,28,35,305,36,03,27,134,34,08,19,268,25,18,18,040,36*79
$GPGSV,3,3,12,06,16,125,26,27,10,009,29,15,09,354,21,14,06,095,*7C
$GPRMC,173618.000,A,6541.6037,N,01806.8584,W,23.06,309.95,030912,,,A*44
$GPGGA,173619.000,6541.6077,N,01806.8705,W,1,10,0.8,38.8,M,60.3,M,,0000*7F
$GPGSA,A,3,01,22,19,27,11,08,28,03,18,06,,,1.8,0.8,1.6*36
$GPRMC,173619.000,A,6541.6077,N,01806.8705,W,23.02,308.56,030912,,,A*40
$GPGGA,173620.000,6541.6115,N,01806.8831,W,1,09,0.9,39.6,M,60.3,M,,0000*7E
$GPGSA,A,3,01,22,27,11,08,28,03,18,06,,,,2.1,0.9,1.9*3A
$GPRMC,173620.000,A,6541.6115,N,01806.8831,W,23.14,306.13,030912,,,A*4F
$GPGGA,173621.000,6541.6152,N,01806.8959,W,1,10,0.8,40.5,M,60.3,M,,0000*77
$GPGSA,A,3,01,22,19,27,11,08,28,03,18,06,,,1.8,0.8,1.6*36
$GPRMC,173621.000,A,6541.6152,N,01806.8959,W,23.13,304.25,030912,,,A*42
$GPGGA,173622.000,6541.6188,N,01806.9091,W,1,10,0.8,41.1,M,60.3,M,,0000*7A
$GPGSA,A,3,01,22,19,27,11,08,28,03,18,06,,,1.8,0.8,1.6*36
$GPRMC,173622.000,A,6541.6188,N,01806.9091,W,23.44,302.71,030912,,,A*4F
$GPGGA,173623.000,6541.6223,N,01806.9228,W,1,10,0.8,41.8,M,60.3,M,,0000*70
$GPGSA,A,3,01,22,19,27,11,08,28,03,18,06,,,1.8,0.8,1.6*36
$GPGSV,3,1,12,19,60,140,27,11,56,223,32,22,42,078,41,01,38,228,31*7B
$GPGSV,3,2,12,28,35,305,17,03,27,134,19,08,19,268,23,18,18,040,32*77
$GPGSV,3,3,12,06,16,125,26,27,10,009,28,15,09,353,31,14,06,095,17*7D
$GPRMC,173623.000,A,6541.6223,N,01806.9228,W,24.02,301.86,030912,,,A*42
$GPGGA,173624.000,6541.6259,N,01806.9369,W,1,10,0.8,42.4,M,60.3,M,,0000*71
$GPGSA,A,3,01,22,19,27,11,08,28,03,18,06,,,1.8,0.8,1.6*36
$GPRMC,173624.000,A,6541.6259,N,01806.9369,W,24.60,300.82,030912,,,A*4D
$GPGGA,173625.000,6541.6294,N,01806.9513,W,1,10,0.8,43.1,M,60.3,M,,0000*7E
$GPGSA,A,3,01,22,19,27,11,08,28,03,18,06,,,1.8,0.8,1.6*36
$GPRMC,173625.000,A,6541.6294,N,01806.9513,W,24.85,300.32,030912,,,A*46
$GPGGA,173626.000,6541.6330,N,01806.9660,W,1,10,0.8,43.7,M,60.3,M,,0000*73
$GPGSA,A,3,01,22,19,27,11,08,28,03,18,06,,,1.8,0.8,1.6*36
$GPRMC,173626.000,A,6541.6330,N,01806.9660,W,25.49,300.51,030912,,,A*49
$GPGGA,173627.000,6541.6367,N,01806.9808,W,1,10,0.8,44.4,M,60.3,M,,0000*74
$GPGSA,A,3,01,22,19,27,11,08,28,03,18,06,,,1.8,0.8,1.6*36
$GPRMC,173627.000,A,6541.6367,N,01806.9808,W,25.67,300.75,030912,,,A*40
$GPGGA,173628.000,6541.6403,N,01806.9958,W,1,10,0.8,45.0,M,60.3,M,,0000*7F
$GPGSA,A,3,01,22,19,27,11,08,28,03,18,06,,,1.8,0.8,1.6*36
$GPGSV,3,1,12,19,60,140,31,11,56,223,34,22,42,078,40,01,38,228,30*7A
$GPGSV,3,2,12,28,35,305,20,03,27,134,24,08,19,268,26,18,18,040,31*7B
$GPGSV,3,3,12,06,16,125,33,27,10,009,24,15,09,353,,14,06,095,17*77
$GPRMC,173628.000,A,6541.6403,N,01806.9958,W,25.79,299.92,030912,,,A*49
$GPGGA,173629.000,6541.6440,N,01807.0113,W,1,10,0.8,45.6,M,60.3,M,,0000*70
$GPGSA,A,3,01,22,19,27,11,08,28,03,18,06,,,1.8,0.8,1.6*36
$GPRMC,173629.000,A,6541.6440,N,01807.0113,W,26.54,299.41,030912,,,A*42
$GPGGA,173630.000,6541.6477,N,01807.0272,W,1,10,0.8,46.0,M,60.3,M,,0000*7D
$GPGSA,A,3,01,22,19,27,11,08,28,03,18,06,,,1.8,0.8,1.6*36
$GPRMC,173630.000,A,6541.6477,N,01807.0272,W,27.19,299.25,030912,,,A*40
$GPGGA,173631.000,6541.6516,N,01807.0431,W,1,10,0.8,46.4,M,60.3,M,,0000*7F
$GPGSA,A,3,01,22,19,27,11,08,28,03,18,06,,,1.8,0.8,1.6*36
$GPRMC,173631.000,A,6541.6516,N,01807.0431,W,27.40,299.89,030912,,,A*4C
$GPGGA,173632.000,6541.6553,N,01807.0591,W,1,10,0.8,46.8,M,60.3,M,,0000*7A
$GPGSA,A,3,01,22,19,27,11,08,28,03,18,06,,,1.8,0.8,1.6*36
$GPRMC,173632.000,A,6541.6553,N,01807.0591,W,27.26,299.37,030912,,,A*40
$GPGGA,173633.000,6541.6591,N,01807.0751,W,1,10,0.8,47.2,M,60.3,M,,0000*70
$GPGSA,A,3,01,22,19,27,11,08,28,03,18,06,,,1.8,0.8,1.6*36
$GPGSV,3,1,12,19,60,140,31,11,56,223,34,22,42,078,40,01,38,228,34*7E
$GPGSV,3,2,12,28,35,305,21,03,27,134,23,08,19,268,26,18,18,040,32*7E
$GPGSV,3,3,12,06,16,125,32,27,10,009,27,15,09,353,31,14,06,095,20*73
$GPRMC,173633.000,A,6541.6591,N,01807.0751,W,27.37,299.68,030912,,,A*4B
$GPGGA,173634.000,6541.6630,N,01807.0910,W,1,10,0.8,47.6,M,60.3,M,,0000*70
$GPGSA,A,3,01,22,19,27,11,08,28,03,18,06,,,1.8,0.8,1.6*36
$GPRMC,173634.000,A,6541.6630,N,01807.0910,W,27.40,300.05,030912,,,A*45
$GPGGA,173635.000,6541.6668,N,01807.1069,W,1,10,0.8,48.0,M,60.3,M,,0000*73
$GPGSA,A,3,01,22,19,27,11,08,28,03,18,06,,,1.8,0.8,1.6*36
$GPRMC,173635.000,A,6541.6668,N,01807.1069,W,27.25,299.98,030912,,,A*49
$GPGGA,173636.000,6541.6707,N,01807.1227,W,1,10,0.8,48.4,M,60.3,M,,0000*74
$GPGSA,A,3,01,22,19,27,11,08,28,03,18,06,,,1.8,0.8,1.6*36
$GPRMC,173636.000,A,6541.6707,N,01807.1227,W,27.15,300.17,030912,,,A*4F
$GPGGA,173637.000,6541.6745,N,01807.1382,W,1,10,0.8,49.0,M,60.3,M,,0000*78
$GPGSA,A,3,01,22,19,27,11,08,28,03,18,06,,,1.8,0.8,1.6*36
$GPRMC,173637.000,A,6541.6745,N,01807.1382,W,26.60,300.42,030912,,,A*45
$GPGGA,173638.000,6541.6781,N,01807.1535,W,1,10,0.8,49.6,M,60.3,M,,0000*73
$GPGSA,A,3,01,22,19,27,11,08,28,03,18,06,,,1.8,0.8,1.6*36
$GPGSV,3,1,12,19,60,140,30,11,56,223,26,22,42,078,40,01,38,228,29*70
$GPGSV,3,2,12,28,35,305,15,03,27,134,28,08,19,268,22,18,18,040,24*71
$GPGSV,3,3,12,06,16,125,29,27,10,009,27,15,09,353,27,14,06,095,25*7B
$GPRMC,173638.000,A,6541.6781,N,01807.1535,W,26.05,299.93,030912,,,A*46
$GPGGA,173639.000,6541.6817,N,01807.1686,W,1,10,0.8,50.2,M,60.3,M,,0000*75
$GPGSA,A,3,01,22,19,27,11,08,28,03,18,06,,,1.8,0.8,1.6*36
$GPRMC,173639.000,A,6541.6817,N,01807.1686,W,25.73,299.78,030912,,,A*4B
$GPGGA,173640.000,6541.6853,N,01807.1835,W,1,10,0.8,50.9,M,60.3,M,,0000*76
$GPGSA,A,3,01,22,19,27,11,08,28,03,18,06,,,1.8,0.8,1.6*36
$GPRMC,173640.000,A,6541.6853,N,01807.1835,W,25.33,299.36,030912,,,A*4D
$GPGGA,173641.000,6541.6887,N,01807.1984,W,1,10,0.8,51.7,M,60.3,M,,0000*7A
$GPGSA,A,3,01,22,19,27,11,08,28,03,18,06,,,1.8,0.8,1.6*36
$GPRMC,173641.000,A,6541.6887,N,01807.1984,W,25.19,299.26,030912,,,A*47
$GPGGA,173642.000,6541.6922,N,01807.2134,W,1,10,0.8,52.4,M,60.3,M,,0000*77
$GPGSA,A,3,01,22,19,27,11,08,28,03,18,06,,,1.8,0.8,1.6*36
$GPRMC,173642.000,A,6541.6922,N,01807.2134,W,25.37,298.92,030912,,,A*48
$GPGGA,173643.000,6541.6958,N,01807.2286,W,1,10,0.8,53.0,M,60.3,M,,0000*74
$GPGSA,A,3,01,22,19,27,11,08,28,03,18,06,,,1.8,0.8,1.6*36
$GPGSV,3,1,12,19,60,140,30,11,56,223,28,22,42,078,40,01,38,228,24*73
$GPGSV,3,2,12,28,35,305,24,03,27,134,25,08,19,268,25,18,18,040,25*78
$GPGSV,3,3,12,06,16,125,30,27,10,009,24,15,09,353,26,14,06,095,15*72
$GPRMC,173643.000,A,6541.6958,N,01807.2286,W,25.94,299.58,030912,,,A*40
$GPGGA,173644.000,6541.6995,N,01807.2438,W,1,10,0.8,53.5,M,60.3,M,,0000*74
$GPGSA,A,3,01,22,19,27,11,08,28,03,18,06,,,1.8,0.8,1.6*36
$GPRMC,173644.000,A,6541.6995,N,01807.2438,W,25.93,300.27,030912,,,A*4B
$GPGGA,173645.000,6541.7033,N,01807.2585,W,1,10,0.8,53.9,M,60.3,M,,0000*7A
$GPGSA,A,3,01,22,19,27,11,08,28,03,18,06,,,1.8,0.8,1.6*36
$GPRMC,173645.000,A,6541.7033,N,01807.2585,W,25.64,301.87,030912,,,A*4A
$GPGGA,173646.000,6541.7073,N,01807.2728,W,1,10,0.8,54.2,M,60.3,M,,0000*74
$GPGSA,A,3,01,22,19,27,11,08,28,03,18,06,,,1.8,0.8,1.6*36
$GPRMC,173646.000,A,6541.7073,N,01807.2728,W,25.37,304.19,030912,,,A*4C
$GPGGA,173647.000,6541.7114,N,01807.2867,W,1,09,1.0,54.4,M,60.3,M,,0000*76
$GPGSA,A,3,01,22,19,27,11,08,28,03,18,,,,2.2,1.0,2.0*35
$GPRMC,173647.000,A,6541.7114,N,01807.2867,W,25.18,305.08,030912,,,A*45
$GPGGA,173648.000,6541.7154,N,01807.3010,W,1,09,1.0,54.5,M,60.3,M,,0000*75
$GPGSA,A,3,01,22,19,27,11,08,28,03,18,,,,2.2,1.0,2.0*35
$GPGSV,3,1,12,19,60,140,29,11,56,223,31,22,42,078,40,01,38,228,32*74
$GPGSV,3,2,12,28,35,305,26,03,27,134,25,08,19,268,32,18,18,040,26*7F
$GPGSV,3,3,12,06,16,125,,27,10,009,27,15,09,353,28,14,06,095,22*78
$GPRMC,173648.000,A,6541.7154,N,01807.3010,W,25.44,304.60,030912,,,A*41
$GPGGA,173649.000,6541.7194,N,01807.3153,W,1,09,1.0,54.6,M,60.3,M,,0000*7D
$GPGSA,A,3,01,22,19,27,11,08,28,03,18,,,,2.2,1.0,2.0*35
$GPRMC,173649.000,A,6541.7194,N,01807.3153,W,25.51,303.95,030912,,,A*43
$GPGGA,173650.000,6541.7234,N,01807.3299,W,1,09,1.0,54.6,M,60.3,M,,0000*79
$GPGSA,A,3,01,22,19,27,11,08,28,03,18,,,,2.2,1.0,2.0*35
$GPRMC,173650.000,A,6541.7234,N,01807.3299,W,25.90,303.49,030912,,,A*4B
$GPGGA,173651.000,6541.7273,N,01807.3448,W,1,10,0.8,54.6,M,60.3,M,,0000*70
$GPGSA,A,3,01,22,19,27,11,08,28,03,18,06,,,1.8,0.8,1.6*36
$GPRMC,173651.000,A,6541.7273,N,01807.3448,W,26.01,301.97,030912,,,A*49
$GPGGA,173652.000,6541.7310,N,01807.3599,W,1,10,0.8,54.6,M,60.3,M,,0000*7A
$GPGSA,A,3,01,22,19,27,11,08,28,03,18,06,,,1.8,0.8,1.6*36
$GPRMC,173652.000,A,6541.7310,N,01807.3599,W,25.94,300.92,030912,,,A*48
$GPGGA,173653.000,6541.7347,N,01807.3753,W,1,10,0.8,54.6,M,60.3,M,,0000*7D
$GPGSA,A,3,01,22,19,27,11,08,28,03,18,06,,,1.8,0.8,1.6*36
$GPRMC,173653.000,A,6541.7347,N,01807.3753,W,26.55,300.49,030912,,,A*47
$GPGGA,173654.000,6541.7386,N,01807.3910,W,1,10,0.8,54.7,M,60.3,M,,0000*7F
$GPGSA,A,3,01,22,19,27,11,08,28,03,18,06,,,1.8,0.8,1.6*36
$GPRMC,173654.000,A,6541.7386,N,01807.3910,W,27.09,300.75,030912,,,A*43
$GPGGA,173655.000,6541.7423,N,01807.4067,W,1,10,0.8,54.8,M,60.3,M,,0000*77
$GPGSA,A,3,01,22,19,27,11,08,28,03,18,06,,,1.8,0.8,1.6*36
$GPRMC,173655.000,A,6541.7423,N,01807.4067,W,26.88,300.01,030912,,,A*4F
$GPGGA,173656.000,6541.7460,N,01807.4224,W,1,09,0.8,54.9,M,60.3,M,,0000*7F
$GPGSA,A,3,01,22,19,27,08,28,03,18,06,,,,2.0,0.8,1.8*33
$GPRMC,173656.000,A,6541.7460,N,01807.4224,W,26.67,299.51,030912,,,A*4B
$GPGGA,173657.000,6541.7497,N,01807.4382,W,1,10,0.8,55.0,M,60.3,M,,0000*7B
$GPGSA,A,3,01,22,19,27,11,08,28,03,18,06,,,1.8,0.8,1.6*36
$GPRMC,173657.000,A,6541.7497,N,01807.4382,W,26.89,299.46,030912,,,A*49
$GPGGA,173658.000,6541.7533,N,01807.4543,W,1,10,0.8,55.1,M,60.3,M,,0000*71
$GPGSA,A,3,01,22,19,27,11,08,28,03,18,06,,,1.8,0.8,1.6*36
$GPGSV,3,1,12,19,59,140,33,11,56,223,34,22,42,077,34,01,38,228,25*7A
$GPGSV,3,2,12,28,35,305,27,03,27,134,30,08,19,268,22,18,18,039,36*74
$GPGSV,3,3,12,06,16,125,29,27,11,008,28,15,09,353,29,14,07,095,29*77
$GPRMC,173658.000,A,6541.7533,N,01807.4543,W,27.24,298.29,030912,,,A*4C
$GPGGA,173659.000,6541.7567,N,01807.4709,W,1,09,0.9,55.3,M,60.3,M,,0000*76
$GPGSA,A,3,22,19,27,11,08,28,03,18,06,,,,1.9,0.9,1.6*37
$GPRMC,173659.000,A,6541.7567,N,01807.4709,W,27.44,296.30,030912,,,A*40
$GPGGA,173700.000,6541.7600,N,01807.4877,W,1,08,0.9,55.5,M,60.3,M,,0000*78
$GPGSA,A,3,22,19,27,08,28,03,18,06,,,,,2.0,0.9,1.8*33
$GPRMC,173700.000,A,6541.7600,N,01807.4877,W,27.60,294.98,030912,,,A*4F
$GPGGA,173701.000,6541.7632,N,01807.5041,W,1,10,0.8,55.7,M,60.3,M,,0000*7E
$GPGSA,A,3,01,22,19,27,11,08,28,03,18,06,,,1.8,0.8,1.6*36
$GPRMC,173701.000,A,6541.7632,N,01807.5041,W,27.00,295.25,030912,,,A*42
$GPGGA,173702.000,6541.7664,N,01807.5203,W,1,10,0.8,56.0,M,60.3,M,,0000*7E
$GPGSA,A,3,01,22,19,27,11,08,28,03,18,06,,,1.8,0.8,1.6*36
$GPRMC,173702.000,A,6541.7664,N,01807.5203,W,26.55,295.17,030912,,,A*46
$GPGGA,173703.000,6541.7697,N,01807.5364,W,1,10,0.8,56.2,M,60.3,M,,0000*71
$GPGSA,A,3,01,22,19,27,11,08,28,03,18,06,,,1.8,0.8,1.6*36
$GPGSV,3,1,12,19,59,140,24,11,56,223,28,22,42,077,32,01,38,228,31*72
$GPGSV,3,2,12,28,35,305,24,03,27,134,31,08,19,268,28,18,18,039,35*7F
$GPGSV,3,3,12,06,16,125,20,27,11,008,21,15,09,353,32,14,07,095,19*7E
$GPRMC,173703.000,A,6541.7697,N,01807.5364,W,26.61,296.53,030912,,,A*4F
$GPGGA,173704.000,6541.7731,N,01807.5524,W,1,10,0.8,56.4,M,60.3,M,,0000*7F
$GPGSA,A,3,01,22,19,27,11,08,28,03,18,06,,,1.8,0.8,1.6*36
$GPRMC,173704.000,A,6541.7731,N,01807.5524,W,26.66,297.62,030912,,,A*43
$GPGGA,173705.000,6541.7765,N,01807.5682,W,1,10,0.8,56.7,M,60.3,M,,0000*73
$GPGSA,A,3,01,22,19,27,11,08,28,03,18,06,,,1.8,0.8,1.6*36
$GPRMC,173705.000,A,6541.7765,N,01807.5682,W,26.49,297.63,030912,,,A*40
$GPGGA,173706.000,6541.7801,N,01807.5840,W,1,10,0.8,57.0,M,60.3,M,,0000*7B
$GPGSA,A,3,01,22,19,27,11,08,28,03,18,06,,,1.8,0.8,1.6*36
$GPRMC,173706.000,A,6541.7801,N,01807.5840,W,26.55,298.84,030912,,,A*45
$GPGGA,173707.000,6541.7837,N,01807.5997,W,1,10,0.8,57.4,M,60.3,M,,0000*70
$GPGSA,A,3,01,22,19,27,11,08,28,03,18,06,,,1.8,0.8,1.6*36
$GPRMC,173707.000,A,6541.7837,N,01807.5997,W,26.64,299.48,030912,,,A*49
$GPGGA,173708.000,6541.7874,N,01807.6153,W,1,10,0.8,57.8,M,60.3,M,,0000*77
$GPGSA,A,3,01,22,19,27,11,08,28,03,18,06,,,1.8,0.8,1.6*36
$GPGSV,3,1,12,19,59,140,28,11,56,223,31,22,42,077,34,01,38,228,31*70
$GPGSV,3,2,12,28,35,305,28,03,27,134,30,08,19,268,31,18,18,039,32*7D
$GPGSV,3,3,12,06,16,125,31,27,11,008,29,15,09,353,,14,07,095,24*79
$GPRMC,173708.000,A,6541.7874,N,01807.6153,W,26.74,299.76,030912,,,A*4E
$GPGGA,173709.000,6541.7911,N,01807.6312,W,1,10,0.8,58.1,M,60.3,M,,0000*75
$GPGSA,A,3,01,22,19,27,11,08,28,03,18,06,,,1.8,0.8,1.6*36
$GPRMC,173709.000,A,6541.7911,N,01807.6312,W,26.97,299.26,030912,,,A*42
$GPGGA,173710.000,6541.7947,N,01807.6471,W,1,10,0.8,58.4,M,60.3,M,,0000*79
$GPGSA,A,3,01,22,19,27,11,08,28,03,18,06,,,1.8,0.8,1.6*36
$GPRMC,173710.000,A,6541.7947,N,01807.6471,W,27.05,299.33,030912,,,A*45
$GPGGA,173711.000,6541.7985,N,01807.6629,W,1,10,0.8,58.8,M,60.3,M,,0000*75
$GPGSA,A,3,01,22,19,27,11,08,28,03,18,06,,,1.8,0.8,1.6*36
$GPRMC,173711.000,A,6541.7985,N,01807.6629,W,27.13,300.08,030912,,,A*4B
$GPGGA,173712.000,6541.8023,N,01807.6787,W,1,10,0.8,59.2,M,60.3,M,,0000*72
$GPGSA,A,3,01,22,19,27,11,08,28,03,18,06,,,1.8,0.8,1.6*36
$GPRMC,173712.000,A,6541.8023,N,01807.6787,W,27.17,300.42,030912,,,A*4D
$GPGGA,173713.000,6541.8060,N,01807.6946,W,1,10,0.8,59.6,M,60.3,M,,0000*73
$GPGSA,A,3,01,22,19,27,11,08,28,03,18,06,,,1.8,0.8,1.6*36
$GPGSV,3,1,12,19,59,140,27,11,56,223,31,22,42,077,33,01,38,228,31*78
$GPGSV,3,2,12,28,35,305,27,03,27,134,24,08,19,268,30,18,18,039,31*75
$GPGSV,3,3,12,06,16,125,29,27,11,008,23,15,09,353,29,14,07,095,24*71
$GPRMC,173713.000,A,6541.8060,N,01807.6946,W,27.24,299.95,030912,,,A*43
$GPGGA,173714.000,6541.8098,N,01807.7105,W,1,10,0.8,60.0,M,60.3,M,,0000*71
$GPGSA,A,3,01,22,19,27,11,08,28,03,18,06,,,1.8,0.8,1.6*36
$GPRMC,173714.000,A,6541.8098,N,01807.7105,W,27.35,300.00,030912,,,A*40
$GPGGA,173715.000,6541.8136,N,01807.7264,W,1,10,0.8,60.4,M,60.3,M,,0000*75
$GPGSA,A,3,01,22,19,27,11,08,28,03,18,06,,,1.8,0.8,1.6*36
$GPRMC,173715.000,A,6541.8136,N,01807.7264,W,27.52,300.14,030912,,,A*44
$GPGGA,173716.000,6541.8174,N,01807.7424,W,1,10,0.8,60.9,M,60.3,M,,0000*7F
$GPGSA,A,3,01,22,19,27,11,08,28,03,18,06,,,1.8,0.8,1.6*36
$GPRMC,173716.000,A,6541.8174,N,01807.7424,W,27.41,299.80,030912,,,A*4D
$GPGGA,173717.000,6541.8211,N,01807.7584,W,1,10,0.8,61.3,M,60.3,M,,0000*7E
$GPGSA,A,3,01,22,19,27,11,08,28,03,18,06,,,1.8,0.8,1.6*36
$GPRMC,173717.000,A,6541.8211,N,01807.7584,W,27.38,299.66,030912,,,A*41
$GPGGA,173718.000,6541.8248,N,01807.7743,W,1,10,0.8,61.8,M,60.3,M,,0000*7F
$GPGSA,A,3,01,22,19,27,11,08,28,03,18,06,,,1.8,0.8,1.6*36
$GPGSV,3,1,12,19,59,140,27,11,56,223,32,22,42,077,31,01,39,228,31*78
$GPGSV,3,2,12,28,35,305,22,03,27,134,26,08,19,267,30,18,18,039,30*7C
$GPGSV,3,3,12,06,16,125,29,27,11,008,23,15,09,353,37,14,07,095,21*7B
$GPRMC,173718.000,A,6541.8248,N,01807.7743,W,27.50,299.88,030912,,,A*45
$GPGGA,173719.000,6541.8286,N,01807.7904,W,1,10,0.8,62.3,M,60.3,M,,0000*79
$GPGSA,A,3,01,22,19,27,11,08,28,03,18,06,,,1.8,0.8,1.6*36
$GPRMC,173719.000,A,6541.8286,N,01807.7904,W,27.47,299.62,030912,,,A*49
$GPGGA,173720.000,6541.8324,N,01807.8064,W,1,10,0.8,62.8,M,60.3,M,,0000*71
$GPGSA,A,3,01,22,19,27,11,08,28,03,18,06,,,1.8,0.8,1.6*36
$GPRMC,173720.000,A,6541.8324,N,01807.8064,W,27.61,299.98,030912,,,A*4B
$GPGGA,173721.000,6541.8361,N,01807.8224,W,1,10,0.8,63.3,M,60.3,M,,0000*7D
$GPGSA,A,3,01,22,19,27,11,08,28,03,18,06,,,1.8,0.8,1.6*36
$GPRMC,173721.000,A,6541.8361,N,01807.8224,W,27.57,299.91,030912,,,A*41
$GPGGA,173722.000,6541.8399,N,01807.8385,W,1,10,0.8,63.8,M,60.3,M,,0000*78
$GPGSA,A,3,01,22,19,27,11,08,28,03,18,06,,,1.8,0.8,1.6*36
$GPRMC,173722.000,A,6541.8399,N,01807.8385,W,27.61,299.77,030912,,,A*42
$GPGGA,173723.000,6541.8437,N,01807.8547,W,1,10,0.8,64.3,M,60.3,M,,0000*7E
$GPGSA,A,3,01,22,19,27,11,08,28,03,18,06,,,1.8,0.8,1.6*36
$GPGSV,3,1,12,19,59,140,27,11,56,223,33,22,42,077,32,01,39,228,32*79
$GPGSV,3,2,12,28,35,305,22,03,27,134,26,08,19,267,30,18,18,039,25*78
$GPGSV,3,3,12,06,16,125,21,27,11,008,28,15,09,353,36,14,07,095,20*78
$GPRMC,173723.000,A,6541.8437,N,01807.8547,W,27.75,299.77,030912,,,A*4D
$GPGGA,173724.000,6541.8475,N,01807.8710,W,1,10,0.8,64.9,M,60.3,M,,0000*75
$GPGSA,A,3,01,22,19,27,11,08,28,03,18,06,,,1.8,0.8,1.6*36
$GPRMC,173724.000,A,6541.8475,N,01807.8710,W,28.13,299.86,030912,,,A*4D
$GPGGA,173725.000,6541.8513,N,01807.8873,W,1,09,0.9,65.3,M,60.3,M,,0000*7D
$GPGSA,A,3,01,22,19,11,08,28,03,18,06,,,,1.9,0.9,1.7*32
$GPRMC,173725.000,A,6541.8513,N,01807.8873,W,27.86,299.59,030912,,,A*46
$GPGGA,173726.000,6541.8550,N,01807.9034,W,1,10,0.8,65.7,M,60.3,M,,0000*7E
$GPGSA,A,3,01,22,19,27,11,08,28,03,18,06,,,1.8,0.8,1.6*36
$GPRMC,173726.000,A,6541.8550,N,01807.9034,W,27.36,299.03,030912,,,A*4C
$GPGGA,173727.000,6541.8588,N,01807.9198,W,1,10,0.8,66.0,M,60.3,M,,0000*79
$GPGSA,A,3,01,22,19,27,11,08,28,03,18,06,,,1.8,0.8,1.6*36
$GPRMC,173727.000,A,6541.8588,N,01807.9198,W,27.86,298.81,030912,,,A*4F
$GPGGA,173728.000,6541.8626,N,01807.9363,W,1,10,0.8,66.2,M,60.3,M,,0000*75
$GPGSA,A,3,01,22,19,27,11,08,28,03,18,06,,,1.8,0.8,1.6*36
$GPGSV,3,1,12,19,59,140,27,11,56,223,33,22,42,077,34,01,39,228,33*7E
$GPGSV,3,2,12,28,35,305,21,03,27,134,23,08,19,267,23,18,18,039,26*7F
$GPGSV,3,3,12,06,16,125,24,27,11,008,24,15,09,353,23,14,07,095,20*75
$GPRMC,173728.000,A,6541.8626,N,01807.9363,W,28.07,299.55,030912,,,A*4F
$GPGGA,173729.000,6541.8666,N,01807.9526,W,1,10,0.8,66.3,M,60.3,M,,0000*76
$GPGSA,A,3,01,22,19,27,11,08,28,03,18,06,,,1.8,0.8,1.6*36
$GPRMC,173729.000,A,6541.8666,N,01807.9526,W,28.06,300.39,030912,,,A*47
$GPGGA,173730.000,6541.8706,N,01807.9691,W,1,10,0.8,66.4,M,60.3,M,,0000*71
$GPGSA,A,3,01,22,19,27,11,08,28,03,18,06,,,1.8,0.8,1.6*36
$GPRMC,173730.000,A,6541.8706,N,01807.9691,W,28.39,300.66,030912,,,A*41
$GPGGA,173731.000,6541.8746,N,01807.9858,W,1,10,0.8,66.5,M,60.3,M,,0000*7E
$GPGSA,A,3,01,22,19,27,11,08,28,03,18,06,,,1.8,0.8,1.6*36
$GPRMC,173731.000,A,6541.8746,N,01807.9858,W,28.57,300.26,030912,,,A*43
$GPGGA,173732.000,6541.8787,N,01808.0025,W,1,10,0.8,66.5,M,60.3,M,,0000*74
$GPGSA,A,3,01,22,19,27,11,08,28,03,18,06,,,1.8,0.8,1.6*36
$GPRMC,173732.000,A,6541.8787,N,01808.0025,W,28.81,300.48,030912,,,A*4A
$GPGGA,173733.000,6541.8828,N,01808.0193,W,1,10,0.8,66.5,M,60.3,M,,0000*73
$GPGSA,A,3,01,22,19,27,11,08,28,03,18,06,,,1.8,0.8,1.6*36
$GPRMC,173733.000,A,6541.8828,N,01808.0193,W,28.87,300.70,030912,,,A*40
$GPGGA,173734.000,6541.8868,N,01808.0360,W,1,10,0.8,66.6,M,60.3,M,,0000*7D
$GPGSA,A,3,01,22,19,27,11,08,28,03,18,06,,,1.8,0.8,1.6*36
$GPRMC,173734.000,A,6541.8868,N,01808.0360,W,28.62,300.37,030912,,,A*45
$GPGGA,173735.000,6541.8907,N,01808.0526,W,1,10,0.8,66.7,M,60.3,M,,0000*71
$GPGSA,A,3,01,22,19,27,11,08,28,03,18,06,,,1.8,0.8,1.6*36
$GPRMC,173735.000,A,6541.8907,N,01808.0526,W,28.24,299.78,030912,,,A*40
$GPGGA,173736.000,6541.8946,N,01808.0691,W,1,10,0.8,67.0,M,60.3,M,,0000*7E
$GPGSA,A,3,01,22,19,27,11,08,28,03,18,06,,,1.8,0.8,1.6*36
$GPRMC,173736.000,A,6541.8946,N,01808.0691,W,28.00,299.58,030912,,,A*4D
$GPGGA,173737.000,6541.8985,N,01808.0856,W,1,10,0.8,67.2,M,60.3,M,,0000*77
$GPGSA,A,3,01,22,19,27,11,08,28,03,18,06,,,1.8,0.8,1.6*36
$GPRMC,173737.000,A,6541.8985,N,01808.0856,W,27.97,299.52,030912,,,A*4D
$GPGGA,173738.000,6541.9024,N,01808.1018,W,1,10,0.8,67.5,M,60.3,M,,0000*7F
$GPGSA,A,3,01,22,19,27,11,08,28,03,18,06,,,1.8,0.8,1.6*36
$GPGSV,3,1,12,19,59,140,33,11,56,223,33,22,42,077,36,01,39,228,30*7A
$GPGSV,3,2,12,28,35,305,28,03,27,134,30,08,19,267,24,18,18,039,29*7C
$GPGSV,3,3,12,06,16,125,31,27,11,008,22,15,09,353,30,14,07,095,26*73
$GPRMC,173738.000,A,6541.9024,N,01808.1018,W,27.60,299.56,030912,,,A*4E
$GPGGA,173739.000,6541.9062,N,01808.1180,W,1,10,0.8,67.8,M,60.3,M,,0000*71
$GPGSA,A,3,01,22,19,27,11,08,28,03,18,06,,,1.8,0.8,1.6*36
$GPRMC,173739.000,A,6541.9062,N,01808.1180,W,27.51,299.75,030912,,,A*4E
$GPGGA,173740.000,6541.9100,N,01808.1343,W,1,10,0.8,68.1,M,60.3,M,,0000*71
$GPGSA,A,3,01,22,19,27,11,08,28,03,18,06,,,1.8,0.8,1.6*36
$GPRMC,173740.000,A,6541.9100,N,01808.1343,W,27.42,299.01,030912,,,A*49
$GPGGA,173741.000,6541.9137,N,01808.1505,W,1,10,0.8,68.3,M,60.3,M,,0000*72
$GPGSA,A,3,01,22,19,27,11,08,28,03,18,06,,,1.8,0.8,1.6*36
$GPRMC,173741.000,A,6541.9137,N,01808.1505,W,27.42,298.82,030912,,,A*42
$GPGGA,173742.000,6541.9174,N,01808.1667,W,1,10,0.8,68.5,M,60.3,M,,0000*77
$GPGSA,A,3,01,22,19,27,11,08,28,03,18,06,,,1.8,0.8,1.6*36
$GPRMC,173742.000,A,6541.9174,N,01808.1667,W,27.37,298.87,030912,,,A*46
$GPGGA,173743.000,6541.9211,N,01808.1828,W,1,10,0.8,68.7,M,60.3,M,,0000*71
$GPGSA,A,3,01,22,19,27,11,08,28,03,18,06,,,1.8,0.8,1.6*36
$GPGSV,3,1,12,19,59,140,26,11,56,223,33,22,42,077,32,01,39,228,30*7A
$GPGSV,3,2,12,28,35,305,28,03,27,134,24,08,19,267,28,18,18,039,26*7A
$GPGSV,3,3,12,06,16,125,24,27,11,008,22,15,09,353,31,14,07,095,24*74
$GPRMC,173743.000,A,6541.9211,N,01808.1828,W,27.55,299.32,030912,,,A*49
$GPGGA,173744.000,6541.9248,N,01808.1989,W,1,10,0.8,68.9,M,60.3,M,,0000*7E
$GPGSA,A,3,01,22,19,27,11,08,28,03,18,06,,,1.8,0.8,1.6*36
$GPRMC,173744.000,A,6541.9248,N,01808.1989,W,27.43,299.46,030912,,,A*4C
$GPGGA,173745.000,6541.9286,N,01808.2149,W,1,10,0.8,69.1,M,60.3,M,,0000*73
$GPGSA,A,3,01,22,19,27,11,08,28,03,18,06,,,1.8,0.8,1.6*36
$GPRMC,173745.000,A,6541.9286,N,01808.2149,W,27.66,299.92,030912,,,A*46
$GPGGA,173746.000,6541.9323,N,01808.2311,W,1,10,0.8,69.4,M,60.3,M,,0000*74
$GPGSA,A,3,01,22,19,27,11,08,28,03,18,06,,,1.8,0.8,1.6*36
$GPRMC,173746.000,A,6541.9323,N,01808.2311,W,27.78,299.71,030912,,,A*46
$GPGGA,173747.000,6541.9361,N,01808.2473,W,1,10,0.8,69.6,M,60.3,M,,0000*72
$GPGSA,A,3,01,22,19,27,11,08,28,03,18,06,,,1.8,0.8,1.6*36
$GPRMC,173747.000,A,6541.9361,N,01808.2473,W,27.84,299.54,030912,,,A*46
$GPGGA,173748.000,6541.9398,N,01808.2634,W,1,10,0.8,69.9,M,60.3,M,,0000*75
$GPGSA,A,3,01,22,19,27,11,08,28,03,18,06,,,1.8,0.8,1.6*36
$GPGSV,3,1,12,19,59,140,26,11,57,222,32,22,42,077,32,01,39,228,30*7B
$GPGSV,3,2,12,28,35,305,28,03,26,134,18,08,18,267,28,18,18,039,24*77
$GPGSV,3,3,12,06,16,125,25,27,11,008,26,15,09,353,25,14,07,095,22*72
$GPRMC,173748.000,A,6541.9398,N,01808.2634,W,27.81,299.85,030912,,,A*47
$GPGGA,173749.000,6541.9436,N,01808.2794,W,1,10,0.8,70.2,M,60.3,M,,0000*7F
$GPGSA,A,3,01,22,19,27,11,08,28,03,18,06,,,1.8,0.8,1.6*36
$GPRMC,173749.000,A,6541.9436,N,01808.2794,W,27.67,300.17,030912,,,A*4C
$GPGGA,173750.000,6541.9473,N,01808.2954,W,1,10,0.8,70.4,M,60.3,M,,0000*72
$GPGSA,A,3,01,22,19,27,11,08,28,03,18,06,,,1.8,0.8,1.6*36
$GPRMC,173750.000,A,6541.9473,N,01808.2954,W,27.62,299.81,030912,,,A*4C
$GPGGA,173751.000,6541.9510,N,01808.3113,W,1,10,0.8,70.6,M,60.3,M,,0000*7F
$GPGSA,A,3,01,22,19,27,11,08,28,03,18,06,,,1.8,0.8,1.6*36
$GPRMC,173751.000,A,6541.9510,N,01808.3113,W,27.45,299.69,030912,,,A*40
$GPGGA,173752.000,6541.9546,N,01808.3270,W,1,10,0.8,70.9,M,60.3,M,,0000*76
$GPGSA,A,3,01,22,19,27,11,08,28,03,18,06,,,1.8,0.8,1.6*36
$GPRMC,173752.000,A,6541.9546,N,01808.3270,W,26.90,299.47,030912,,,A*43
$GPGGA,173753.000,6541.9582,N,01808.3423,W,1,10,0.8,71.1,M,60.3,M,,0000*76
$GPGSA,A,3,01,22,19,27,11,08,28,03,18,06,,,1.8,0.8,1.6*36
$GPGSV,3,1,12,19,59,140,26,11,57,222,33,22,42,077,32,01,39,228,30*7A
$GPGSV,3,2,12,28,35,305,29,03,26,134,20,08,18,267,29,18,18,039,25*7D
$GPGSV,3,3,12,06,16,125,25,27,11,008,21,15,09,353,32,14,07,095,21*70
$GPRMC,173753.000,A,6541.9582,N,01808.3423,W,26.33,299.72,030912,,,A*45
$GPGGA,173754.000,6541.9616,N,01808.3573,W,1,10,0.8,71.3,M,60.3,M,,0000*79
$GPGSA,A,3,01,22,19,27,11,08,28,03,18,06,,,1.8,0.8,1.6*36
$GPRMC,173754.000,A,6541.9616,N,01808.3573,W,25.84,299.94,030912,,,A*4F
$GPGGA,173755.000,6541.9650,N,01808.3715,W,1,10,0.8,71.4,M,60.3,M,,0000*7F
$GPGSA,A,3,01,22,19,27,11,08,28,03,18,06,,,1.8,0.8,1.6*36
$GPRMC,173755.000,A,6541.9650,N,01808.3715,W,24.64,300.26,030912,,,A*49
$GPGGA,173756.000,6541.9682,N,01808.3850,W,1,10,0.8,71.5,M,60.3,M,,0000*7C
$GPGSA,A,3,01,22,19,27,11,08,28,03,18,06,,,1.8,0.8,1.6*36
$GPRMC,173756.000,A,6541.9682,N,01808.3850,W,23.10,300.18,030912,,,A*42
$GPGGA,173757.000,6541.9712,N,01808.3969,W,1,10,0.8,71.5,M,60.3,M,,0000*7E
$GPGSA,A,3,01,22,19,27,11,08,28,03,18,06,,,1.8,0.8,1.6*36
$GPRMC,173757.000,A,6541.9712,N,01808.3969,W,20.87,301.76,030912,,,A*44
$GPGGA,173758.000,6541.9739,N,01808.4066,W,1,10,0.8,71.4,M,60.3,M,,0000*78
$GPGSA,A,3,01,22,19,27,11,08,28,03,18,06,,,1.8,0.8,1.6*36
$GPRMC,173758.000,A,6541.9739,N,01808.4066,W,17.08,304.41,030912,,,A*41
$GPGGA,173759.000,6541.9760,N,01808.4131,W,1,10,0.8,71.4,M,60.3,M,,0000*76
$GPGSA,A,3,01,22,19,27,11,08,28,03,18,06,,,1.8,0.8,1.6*36
$GPRMC,173759.000,A,6541.9760,N,01808.4131,W,12.32,309.67,030912,,,A*4A
$GPGGA,173800.000,6541.9779,N,01808.4177,W,1,10,0.8,71.3,M,60.3,M,,0000*78
$GPGSA,A,3,01,22,19,27,11,08,28,03,18,06,,,1.8,0.8,1.6*36
$GPRMC,173800.000,A,6541.9779,N,01808.4177,W,9.37,316.09,030912,,,A*7A
$GPGGA,173801.000,6541.9796,N,01808.4211,W,1,10,0.8,71.3,M,60.3,M,,0000*7B
$GPGSA,A,3,01,22,19,27,11,08,28,03,18,06,,,1.8,0.8,1.6*36
$GPRMC,173801.000,A,6541.9796,N,01808.4211,W,7.66,322.28,030912,,,A*77
$GPGGA,173802.000,6541.9814,N,01808.4238,W,1,10,0.8,71.2,M,60.3,M,,0000*77
$GPGSA,A,3,01,22,19,27,11,08,28,03,18,06,,,1.8,0.8,1.6*36
$GPRMC,173802.000,A,6541.9814,N,01808.4238,W,7.55,329.36,030912,,,A*7E
$GPGGA,173803.000,6541.9834,N,01808.4261,W,1,10,0.8,71.2,M,60.3,M,,0000*78
$GPGSA,A,3,01,22,19,27,11,08,28,03,18,06,,,1.8,0.8,1.6*36
$GPRMC,173803.000,A,6541.9834,N,01808.4261,W,8.05,336.83,030912,,,A*7B
$GPGGA,173804.000,6541.9858,N,01808.4285,W,1,10,0.8,71.1,M,60.3,M,,0000*7C
$GPGSA,A,3,01,22,19,27,11,08,28,03,18,06,,,1.8,0.8,1.6*36
$GPRMC,173804.000,A,6541.9858,N,01808.4285,W,9.33,338.81,030912,,,A*74
$GPGGA,173805.000,6541.9884,N,01808.4318,W,1,10,0.8,71.0,M,60.3,M,,0000*78
$GPGSA,A,3,01,22,19,27,11,08,28,03,18,06,,,1.8,0.8,1.6*36
$GPRMC,173805.000,A,6541.9884,N,01808.4318,W,10.29,332.86,030912,,,A*4F
$GPGGA,173806.000,6541.9907,N,01808.4365,W,1,10,0.8,71.0,M,60.3,M,,0000*7B
$GPGSA,A,3,01,22,19,27,11,08,28,03,18,06,,,1.8,0.8,1.6*36
$GPRMC,173806.000,A,6541.9907,N,01808.4365,W,11.00,320.65,030912,,,A*48
$GPGGA,173807.000,6541.9926,N,01808.4426,W,1,10,0.8,71.1,M,60.3,M,,0000*78
$GPGSA,A,3,01,22,19,27,11,08,28,03,18,06,,,1.8,0.8,1.6*36
$GPRMC,173807.000,A,6541.9926,N,01808.4426,W,11.38,306.47,030912,,,A*45
$GPGGA,173808.000,6541.9938,N,01808.4499,W,1,10,0.8,71.2,M,60.3,M,,0000*7F
$GPGSA,A,3,01,22,19,27,11,08,28,03,18,06,,,1.8,0.8,1.6*36
$GPRMC,173808.000,A,6541.9938,N,01808.4499,W,11.75,291.22,030912,,,A*44
$GPGGA,173809.000,6541.9942,N,01808.4577,W,1,10,0.8,71.3,M,60.3,M,,0000*73
$GPGSA,A,3,01,22,19,27,11,08,28,03,18,06,,,1.8,0.8,1.6*36
$GPRMC,173809.000,A,6541.9942,N,01808.4577,W,11.84,274.56,030912,,,A*4F
$GPGGA,173810.000,6541.9939,N,01808.4659,W,1,09,0.8,71.4,M,60.3,M,,0000*77
$GPGSA,A,3,01,22,19,27,08,28,03,18,06,,,,1.9,0.8,1.8*39
$GPRMC,173810.000,A,6541.9939,N,01808.4659,W,12.36,263.42,030912,,,A*4D
$GPGGA,173811.000,6541.9936,N,01808.4743,W,1,10,0.8,71.6,M,60.3,M,,0000*79
$GPGSA,A,3,01,22,19,27,11,08,28,03,18,06,,,1.8,0.8,1.6*36
$GPRMC,173811.000,A,6541.9936,N,01808.4743,W,12.61,265.23,030912,,,A*4A
$GPGGA,173812.000,6541.9940,N,01808.4831,W,1,10,0.8,71.7,M,60.3,M,,0000*70
$GPGSA,A,3,01,22,19,27,11,08,28,03,18,06,,,1.8,0.8,1.6*36
$GPRMC,173812.000,A,6541.9940,N,01808.4831,W,13.20,275.60,030912,,,A*40
$GPGGA,173813.000,6541.9950,N,01808.4922,W,1,10,0.8,71.9,M,60.3,M,,0000*7D
$GPGSA,A,3,01,22,19,27,11,08,28,03,18,06,,,1.8,0.8,1.6*36
$GPRMC,173813.000,A,6541.9950,N,01808.4922,W,14.03,284.08,030912,,,A*45
$GPGGA,173814.000,6541.9964,N,01808.5013,W,1,09,0.9,72.3,M,60.3,M,,0000*77
$GPGSA,A,3,01,19,27,11,08,28,03,18,06,,,,2.0,0.9,1.8*32
$GPRMC,173814.000,A,6541.9964,N,01808.5013,W,14.40,290.62,030912,,,A*41
$GPGGA,173815.000,6541.9982,N,01808.5102,W,1,09,1.0,72.6,M,60.3,M,,0000*72
$GPGSA,A,3,01,22,19,27,11,28,03,18,06,,,,2.1,1.0,1.9*32
$GPRMC,173815.000,A,6541.9982,N,01808.5102,W,14.76,295.27,030912,,,A*48
$GPGGA,173816.000,6542.0003,N,01808.5194,W,1,10,0.8,72.9,M,60.3,M,,0000*7A
$GPGSA,A,3,01,22,19,27,11,08,28,03,18,06,,,1.8,0.8,1.6*36
$GPRMC,173816.000,A,6542.0003,N,01808.5194,W,15.70,299.61,030912,,,A*47
$GPGGA,173817.000,6542.0028,N,01808.5294,W,1,10,0.8,73.1,M,60.3,M,,0000*78
$GPGSA,A,3,01,22,19,27,11,08,28,03,18,06,,,1.8,0.8,1.6*36
$GPRMC,173817.000,A,6542.0028,N,01808.5294,W,17.37,301.00,030912,,,A*4A
$GPGGA,173818.000,6542.0054,N,01808.5402,W,1,10,0.8,73.3,M,60.3,M,,0000*77
$GPGSA,A,3,01,22,19,27,11,08,28,03,18,06,,,1.8,0.8,1.6*36
$GPGSV,3,1,12,19,59,140,33,11,57,222,27,22,42,077,38,01,39,228,33*72
$GPGSV,3,2,12,28,35,305,29,03,26,134,25,08,18,267,24,18,18,039,31*70
$GPGSV,3,3,12,06,16,125,32,27,11,008,24,15,09,353,28,14,07,095,25*7C
$GPRMC,173818.000,A,6542.0054,N,01808.5402,W,18.79,300.58,030912,,,A*4E
$GPGGA,173819.000,6542.0082,N,01808.5515,W,1,10,0.8,73.5,M,60.3,M,,0000*7C
$GPGSA,A,3,01,22,19,27,11,08,28,03,18,06,,,1.8,0.8,1.6*36
$GPRMC,173819.000,A,6542.0082,N,01808.5515,W,19.68,300.59,030912,,,A*43
$GPGGA,173820.000,6542.0111,N,01808.5634,W,1,10,0.8,73.6,M,60.3,M,,0000*7E
$GPGSA,A,3,01,22,19,27,11,08,28,03,18,06,,,1.8,0.8,1.6*36
$GPRMC,173820.000,A,6542.0111,N,01808.5634,W,20.46,300.43,030912,,,A*4F
$GPGGA,173821.000,6542.0140,N,01808.5757,W,1,10,0.8,73.7,M,60.3,M,,0000*7E
$GPGSA,A,3,01,22,19,27,11,08,28,03,18,06,,,1.8,0.8,1.6*36
$GPRMC,173821.000,A,6542.0140,N,01808.5757,W,21.32,300.21,030912,,,A*48
$GPGGA,173822.000,6542.0171,N,01808.5885,W,1,10,0.8,73.8,M,60.3,M,,0000*70
$GPGSA,A,3,01,22,19,27,11,08,28,03,18,06,,,1.8,0.8,1.6*36
$GPRMC,173822.000,A,6542.0171,N,01808.5885,W,22.15,300.32,030912,,,A*4D
$GPGGA,173823.000,6542.0203,N,01808.6016,W,1,09,0.9,73.8,M,60.3,M,,0000*7F
$GPGSA,A,3,01,22,19,27,11,08,03,18,06,,,,1.9,0.9,1.6*3C
$GPGSV,3,1,12,19,59,140,34,11,57,222,26,22,42,077,39,01,39,228,33*75
$GPGSV,3,2,12,28,35,305,,03,26,134,26,08,18,267,24,18,18,039,32*7B
$GPGSV,3,3,12,06,16,125,32,27,11,008,24,15,09,353,27,14,07,095,19*7C
$GPRMC,173823.000,A,6542.0203,N,01808.6016,W,22.62,300.59,030912,,,A*46
$GPGGA,173824.000,6542.0235,N,01808.6147,W,1,10,0.8,73.8,M,60.3,M,,0000*71
$GPGSA,A,3,01,22,19,27,11,08,28,03,18,06,,,1.8,0.8,1.6*36
$GPRMC,173824.000,A,6542.0235,N,01808.6147,W,22.58,300.62,030912,,,A*40
$GPGGA,173825.000,6542.0265,N,01808.6279,W,1,10,0.8,73.8,M,60.3,M,,0000*7B
$GPGSA,A,3,01,22,19,27,11,08,28,03,18,06,,,1.8,0.8,1.6*36
$GPRMC,173825.000,A,6542.0265,N,01808.6279,W,22.66,299.60,030912,,,A*44
$GPGGA,173826.000,6542.0299,N,01808.6421,W,1,10,0.8,73.7,M,60.3,M,,0000*7F
$GPGSA,A,3,01,22,19,27,11,08,28,03,18,06,,,1.8,0.8,1.6*36
$GPRMC,173826.000,A,6542.0299,N,01808.6421,W,24.31,299.76,030912,,,A*4C
$GPGGA,173827.000,6542.0334,N,01808.6568,W,1,09,0.9,73.6,M,60.3,M,,0000*7C
$GPGSA,A,3,01,22,19,27,11,08,03,18,06,,,,1.9,0.9,1.6*3C
$GPRMC,173827.000,A,6542.0334,N,01808.6568,W,25.36,300.27,030912,,,A*44
$GPGGA,173828.000,6542.0371,N,01808.6718,W,1,10,0.8,73.5,M,60.3,M,,0000*7D
$GPGSA,A,3,01,22,19,27,11,08,28,03,18,06,,,1.8,0.8,1.6*36
$GPGSV,3,1,12,19,59,140,34,11,57,222,27,22,42,077,40,01,39,228,30*79
$GPGSV,3,2,12,28,35,305,21,03,26,134,21,08,18,267,24,18,18,039,33*7E
$GPGSV,3,3,12,06,16,125,32,27,11,008,25,15,09,353,28,14,07,095,27*7F
$GPRMC,173828.000,A,6542.0371,N,01808.6718,W,26.13,301.02,030912,,,A*4D
$GPGGA,173829.000,6542.0409,N,01808.6872,W,1,10,0.8,73.4,M,60.3,M,,0000*76
$GPGSA,A,3,01,22,19,27,11,08,28,03,18,06,,,1.8,0.8,1.6*36
$GPRMC,173829.000,A,6542.0409,N,01808.6872,W,26.59,300.82,030912,,,A*40
$GPGGA,173830.000,6542.0447,N,01808.7028,W,1,10,0.8,73.2,M,60.3,M,,0000*74
$GPGSA,A,3,01,22,19,27,11,08,28,03,18,06,,,1.8,0.8,1.6*36
$GPRMC,173830.000,A,6542.0447,N,01808.7028,W,26.98,300.93,030912,,,A*49
$GPGGA,173831.000,6542.0486,N,01808.7184,W,1,10,0.8,73.0,M,60.3,M,,0000*7D
$GPGSA,A,3,01,22,19,27,11,08,28,03,18,06,,,1.8,0.8,1.6*36
$GPRMC,173831.000,A,6542.0486,N,01808.7184,W,27.26,301.60,030912,,,A*4B
$GPGGA,173832.000,6542.0526,N,01808.7342,W,1,10,0.8,72.7,M,60.3,M,,0000*7B
$GPGSA,A,3,01,22,19,27,11,08,28,03,18,06,,,1.8,0.8,1.6*36
$GPRMC,173832.000,A,6542.0526,N,01808.7342,W,27.53,301.71,030912,,,A*49
$GPGGA,173833.000,6542.0567,N,01808.7501,W,1,10,0.8,72.3,M,60.3,M,,0000*7A
$GPGSA,A,3,01,22,19,27,11,08,28,03,18,06,,,1.8,0.8,1.6*36
$GPGSV,3,1,12,19,59,140,34,11,57,222,20,22,42,077,39,01,39,228,32*72
$GPGSV,3,2,12,28,35,305,23,03,26,134,19,08,18,267,34,18,18,039,27*73
$GPGSV,3,3,12,06,16,125,32,27,11,008,26,15,09,353,28,14,07,095,23*78
$GPRMC,173833.000,A,6542.0567,N,01808.7501,W,27.72,301.87,030912,,,A*46
$GPGGA,173834.000,6542.0608,N,01808.7659,W,1,10,0.8,71.9,M,60.3,M,,0000*70
$GPGSA,A,3,01,22,19,27,11,08,28,03,18,06,,,1.8,0.8,1.6*36
$GPRMC,173834.000,A,6542.0608,N,01808.7659,W,27.72,302.39,030912,,,A*43
$GPGGA,173835.000,6542.0651,N,01808.7817,W,1,10,0.8,71.5,M,60.3,M,,0000*75
$GPGSA,A,3,01,22,19,27,11,08,28,03,18,06,,,1.8,0.8,1.6*36
$GPRMC,173835.000,A,6542.0651,N,01808.7817,W,27.97,303.71,030912,,,A*4C
$GPGGA,173836.000,6542.0694,N,01808.7973,W,1,10,0.8,71.0,M,60.3,M,,0000*79
$GPGSA,A,3,01,22,19,27,11,08,28,03,18,06,,,1.8,0.8,1.6*36
$GPRMC,173836.000,A,6542.0694,N,01808.7973,W,27.95,304.14,030912,,,A*43
$GPGGA,173837.000,6542.0737,N,01808.8130,W,1,10,0.8,70.5,M,60.3,M,,0000*74
$GPGSA,A,3,01,22,19,27,11,08,28,03,18,06,,,1.8,0.8,1.6*36
$GPRMC,173837.000,A,6542.0737,N,01808.8130,W,27.89,304.12,030912,,,A*41
$GPGGA,173838.000,6542.0782,N,01808.8285,W,1,10,0.8,70.1,M,60.3,M,,0000*7C
$GPGSA,A,3,01,22,19,27,11,08,28,03,18,06,,,1.8,0.8,1.6*36
$GPGSV,3,1,12,19,59,140,33,11,57,222,20,22,42,077,38,01,39,228,33*75
$GPGSV,3,2,12,28,35,305,23,03,26,134,21,08,18,267,34,18,18,039,29*76
$GPGSV,3,3,12,06,16,125,32,27,11,008,26,15,09,353,28,14,07,095,24*7F
$GPRMC,173838.000,A,6542.0782,N,01808.8285,W,28.19,305.33,030912,,,A*49
$GPGGA,173839.000,6542.0828,N,01808.8440,W,1,09,0.8,69.6,M,60.3,M,,0000*7A
$GPGSA,A,3,01,22,19,27,08,28,03,18,06,,,,1.9,0.8,1.7*36
$GPRMC,173839.000,A,6542.0828,N,01808.8440,W,28.34,306.03,030912,,,A*47
$GPGGA,173840.000,6542.0876,N,01808.8596,W,1,09,0.8,69.2,M,60.3,M,,0000*71
$GPGSA,A,3,01,22,19,27,08,28,03,18,06,,,,1.9,0.8,1.7*36
$GPRMC,173840.000,A,6542.0876,N,01808.8596,W,28.73,306.88,030912,,,A*48
$GPGGA,173841.000,6542.0926,N,01808.8751,W,1,09,0.8,68.8,M,60.3,M,,0000*76
$GPGSA,A,3,01,22,19,27,08,28,03,18,06,,,,1.9,0.8,1.7*36
$GPRMC,173841.000,A,6542.0926,N,01808.8751,W,28.97,307.97,030912,,,A*41
$GPGGA,173842.000,6542.0975,N,01808.8905,W,1,10,0.8,68.5,M,60.3,M,,0000*79
$GPGSA,A,3,01,22,19,27,11,08,28,03,18,06,,,1.8,0.8,1.6*36
$GPRMC,173842.000,A,6542.0975,N,01808.8905,W,28.91,308.36,030912,,,A*49
$GPGGA,173843.000,6542.1025,N,01808.9056,W,1,10,0.8,68.2,M,60.3,M,,0000*7C
$GPGSA,A,3,01,22,19,27,11,08,28,03,18,06,,,1.8,0.8,1.6*36
$GPGSV,3,1,12,19,59,140,32,11,57,222,25,22,42,077,37,01,39,228,34*79
$GPGSV,3,2,12,28,35,305,32,03,26,134,30,08,18,267,25,18,18,039,33*7D
$GPGSV,3,3,12,06,16,125,33,27,11,008,28,15,09,353,21,14,07,095,15*7B
$GPRMC,173843.000,A,6542.1025,N,01808.9056,W,28.56,308.70,030912,,,A*42
$GPGGA,173844.000,6542.1075,N,01808.9204,W,1,10,0.8,68.0,M,60.3,M,,0000*79
$GPGSA,A,3,01,22,19,27,11,08,28,03,18,06,,,1.8,0.8,1.6*36
$GPRMC,173844.000,A,6542.1075,N,01808.9204,W,28.45,309.70,030912,,,A*46
$GPGGA,173845.000,6542.1127,N,01808.9353,W,1,10,0.8,67.8,M,60.3,M,,0000*7A
$GPGSA,A,3,01,22,19,27,11,08,28,03,18,06,,,1.8,0.8,1.6*36
$GPRMC,173845.000,A,6542.1127,N,01808.9353,W,28.84,310.47,030912,,,A*43
$GPGGA,173846.000,6542.1181,N,01808.9503,W,1,10,0.8,67.7,M,60.3,M,,0000*79
$GPGSA,A,3,01,22,19,27,11,08,28,03,18,06,,,1.8,0.8,1.6*36
$GPRMC,173846.000,A,6542.1181,N,01808.9503,W,29.42,311.23,030912,,,A*47
$GPGGA,173847.000,6542.1237,N,01808.9654,W,1,10,0.8,67.6,M,60.3,M,,0000*76
$GPGSA,A,3,01,22,19,27,11,08,28,03,18,06,,,1.8,0.8,1.6*36
$GPRMC,173847.000,A,6542.1237,N,01808.9654,W,30.02,311.94,030912,,,A*49
$GPGGA,173848.000,6542.1293,N,01808.9806,W,1,10,0.8,67.4,M,60.3,M,,0000*7C
$GPGSA,A,3,01,22,19,27,11,08,28,03,18,06,,,1.8,0.8,1.6*36
$GPGSV,3,1,12,19,58,139,22,11,57,222,26,22,42,076,38,01,39,228,35*7B
$GPGSV,3,2,12,28,36,304,39,03,26,134,32,08,18,267,21,18,17,039,29*76
$GPGSV,3,3,12,06,15,125,35,27,11,008,29,15,08,353,32,14,07,094,19*71
$GPRMC,173848.000,A,6542.1293,N,01808.9806,W,30.39,312.32,030912,,,A*46
$GPGGA,173849.000,6542.1351,N,01808.9959,W,1,10,0.8,67.3,M,60.3,M,,0000*7E
$GPGSA,A,3,01,22,19,27,11,08,28,03,18,06,,,1.8,0.8,1.6*36
$GPRMC,173849.000,A,6542.1351,N,01808.9959,W,30.66,312.68,030912,,,A*46
$GPGGA,173850.000,6542.1410,N,01809.0111,W,1,10,0.8,67.2,M,60.3,M,,0000*79
$GPGSA,A,3,01,22,19,27,11,08,28,03,18,06,,,1.8,0.8,1.6*36
$GPRMC,173850.000,A,6542.1410,N,01809.0111,W,30.94,313.32,030912,,,A*43
$GPGGA,173851.000,6542.1469,N,01809.0264,W,1,10,0.8,67.1,M,60.3,M,,0000*74
$GPGSA,A,3,01,22,19,27,11,08,28,03,18,06,,,1.8,0.8,1.6*36
$GPRMC,173851.000,A,6542.1469,N,01809.0264,W,31.29,313.67,030912,,,A*4A
$GPGGA,173852.000,6542.1531,N,01809.0416,W,1,10,0.8,67.0,M,60.3,M,,0000*79
$GPGSA,A,3,01,22,19,27,11,08,28,03,18,06,,,1.8,0.8,1.6*36
$GPRMC,173852.000,A,6542.1531,N,01809.0416,W,31.68,314.60,030912,,,A*43
$GPGGA,173853.000,6542.1593,N,01809.0567,W,1,10,0.8,66.9,M,60.3,M,,0000*7F
$GPGSA,A,3,01,22,19,27,11,08,28,03,18,06,,,1.8,0.8,1.6*36
$GPRMC,173853.000,A,6542.1593,N,01809.0567,W,31.65,314.94,030912,,,A*4B
$GPGGA,173854.000,6542.1655,N,01809.0716,W,1,10,0.8,66.8,M,60.3,M,,0000*74
$GPGSA,A,3,01,22,19,27,11,08,28,03,18,06,,,1.8,0.8,1.6*36
$GPRMC,173854.000,A,6542.1655,N,01809.0716,W,31.37,315.34,030912,,,A*4D
$GPGGA,173855.000,6542.1717,N,01809.0863,W,1,10,0.8,66.8,M,60.3,M,,0000*7F
$GPGSA,A,3,01,22,19,27,11,08,28,03,18,06,,,1.8,0.8,1.6*36
$GPRMC,173855.000,A,6542.1717,N,01809.0863,W,31.23,315.83,030912,,,A*4F
$GPGGA,173856.000,6542.1781,N,01809.1007,W,1,10,0.8,66.7,M,60.3,M,,0000*77
$GPGSA,A,3,01,22,19,27,11,08,28,03,18,06,,,1.8,0.8,1.6*36
$GPRMC,173856.000,A,6542.1781,N,01809.1007,W,31.43,317.52,030912,,,A*40
$GPGGA,173857.000,6542.1848,N,01809.1147,W,1,10,0.8,66.6,M,60.3,M,,0000*78
$GPGSA,A,3,01,22,19,27,11,08,28,03,18,06,,,1.8,0.8,1.6*36
$GPRMC,173857.000,A,6542.1848,N,01809.1147,W,31.75,319.32,030912,,,A*43
$GPGGA,173858.000,6542.1916,N,01809.1285,W,1,09,1.0,66.4,M,60.3,M,,0000*73
