$GPGGA,070502.835,5351.3386,N,01041.8159,E,1,03,9.7,-1.3,M,45.5,M,,0000*79
$GPGSA,A,2,09,27,17,,,,,,,,,,9.8,9.7,1.0*37
$GPRMC,070502.835,A,5351.3386,N,01041.8159,E,22.87,145.53,190912,,,A*56
$GPGGA,070503.835,5351.3283,N,01041.8155,E,1,03,9.7,-1.3,M,45.5,M,,0000*70
$GPGSA,A,2,09,27,17,,,,,,,,,,9.8,9.7,1.0*37
$GPRMC,070503.835,A,5351.3283,N,01041.8155,E,21.98,141.48,190912,,,A*5C
$GPGGA,070504.835,5351.3227,N,01041.8196,E,1,03,9.7,-1.3,M,45.5,M,,0000*76
$GPGSA,A,2,09,27,17,,,,,,,,,,9.8,9.7,1.0*37
$GPRMC,070504.835,A,5351.3227,N,01041.8196,E,21.87,144.79,190912,,,A*53
$GPGGA,070505.835,5351.3205,N,01041.8282,E,1,03,9.7,-1.3,M,45.5,M,,0000*71
$GPGSA,A,2,09,27,17,,,,,,,,,,9.8,9.7,1.0*37
$GPRMC,070505.835,A,5351.3205,N,01041.8282,E,21.55,142.14,190912,,,A*56
$GPGGA,070506.835,5351.3150,N,01041.8452,E,1,03,9.7,-1.3,M,45.5,M,,0000*7A
$GPGSA,A,2,09,27,17,,,,,,,,,,9.8,9.7,1.0*37
$GPGSV,3,1,11,09,66,128,31,27,56,127,36,17,26,047,40,12,65,247,33*78
$GPGSV,3,2,11,14,33,307,27,25,25,250,21,04,14,094,29,15,13,180,23*71
$GPGSV,3,3,11,22,07,277,,02,02,130,,32,00,359,*40
$GPRMC,070506.835,A,5351.3150,N,01041.8452,E,37.81,123.85,190912,,,A*5C
$GPGGA,070507.835,5351.3049,N,01041.8904,E,1,03,9.7,-1.3,M,45.5,M,,0000*7C
$GPGSA,A,2,09,27,17,,,,,,,,,,9.8,9.7,1.0*37
$GPRMC,070507.835,A,5351.3049,N,01041.8904,E,21.17,144.80,190912,,,A*56
$GPGGA,070508.835,5351.3025,N,01041.8875,E,1,03,9.7,-1.3,M,45.5,M,,0000*7E
$GPGSA,A,2,09,27,17,,,,,,,,,,9.8,9.7,1.0*37
$GPRMC,070508.835,A,5351.3025,N,01041.8875,E,20.78,141.84,190912,,,A*5D
$GPGGA,070509.835,5351.2976,N,01041.8952,E,1,03,9.7,-1.3,M,45.5,M,,0000*75
$GPGSA,A,2,09,27,17,,,,,,,,,,9.8,9.7,1.0*37
$GPRMC,070509.835,A,5351.2976,N,01041.8952,E,20.95,140.39,190912,,,A*52
$GPGGA,070510.835,5351.2933,N,01041.8958,E,1,03,9.7,-1.3,M,45.5,M,,0000*76
$GPGSA,A,2,09,27,17,,,,,,,,,,9.8,9.7,1.0*37
$GPRMC,070510.835,A,5351.2933,N,01041.8958,E,18.15,141.99,190912,,,A*59
$GPGGA,070511.835,5351.2863,N,01041.8945,E,1,03,9.7,-1.3,M,45.5,M,,0000*7F
$GPGSA,A,2,09,27,17,,,,,,,,,,9.8,9.7,1.0*37
$GPGSV,3,1,11,09,66,128,34,27,56,127,35,17,26,047,26,12,65,247,29*75
$GPGSV,3,2,11,14,33,307,21,25,25,250,31,04,14,094,28,15,13,180,24*70
$GPGSV,3,3,11,22,07,277,20,02,02,130,,32,00,359,*42
$GPRMC,070511.835,A,5351.2863,N,01041.8945,E,17.68,132.65,190912,,,A*52
$GPGGA,070512.835,5351.2830,N,01041.9004,E,1,03,9.7,-1.3,M,45.5,M,,0000*77
$GPGSA,A,2,09,27,17,,,,,,,,,,9.8,9.7,1.0*37
$GPRMC,070512.835,A,5351.2830,N,01041.9004,E,16.68,146.31,190912,,,A*59
$GPGGA,070513.835,5351.2804,N,01041.9083,E,1,03,9.7,-1.3,M,45.5,M,,0000*7E
$GPGSA,A,2,09,27,17,,,,,,,,,,9.8,9.7,1.0*37
$GPRMC,070513.835,A,5351.2804,N,01041.9083,E,17.07,140.54,190912,,,A*5D
$GPGGA,070514.835,5351.2726,N,01041.9085,E,1,03,9.7,-1.3,M,45.5,M,,0000*70
$GPGSA,A,2,09,27,17,,,,,,,,,,9.8,9.7,1.0*37
$GPRMC,070514.835,A,5351.2726,N,01041.9085,E,15.98,143.92,190912,,,A*5E
$GPGGA,070515.835,5351.2747,N,01041.9206,E,1,03,9.7,-1.3,M,45.5,M,,0000*7F
$GPGSA,A,2,09,27,17,,,,,,,,,,9.8,9.7,1.0*37
$GPRMC,070515.835,A,5351.2747,N,01041.9206,E,16.91,142.34,190912,,,A*56
$GPGGA,070516.839,,,,,0,00,,,M,0.0,M,,0000*51
$GPGSA,A,1,,,,,,,,,,,,,,,*1E
$GPGSV,3,1,11,09,66,128,33,27,56,128,35,17,26,046,,12,65,248,28*76
$GPGSV,3,2,11,14,33,307,22,25,25,250,24,04,14,094,19,15,13,180,22*73
$GPGSV,3,3,11,22,07,277,20,02,03,130,,32,00,359,*43
$GPRMC,070517.835,A,5351.2648,N,01041.9267,E,16.98,140.20,190912,,,A*53
$GPGGA,070518.835,5351.2599,N,01041.9279,E,1,03,9.7,-1.3,M,45.5,M,,0000*7B
$GPGSA,A,2,09,27,17,,,,,,,,,,9.8,9.7,1.0*37
$GPRMC,070518.835,A,5351.2599,N,01041.9279,E,15.58,142.49,190912,,,A*5E
$GPGGA,070519.835,5351.2572,N,01041.9321,E,1,03,9.7,-1.3,M,45.5,M,,0000*73
$GPGSA,A,2,09,27,17,,,,,,,,,,9.8,9.7,1.0*37
$GPRMC,070519.835,A,5351.2572,N,01041.9321,E,14.98,139.99,190912,,,A*5A
$GPGGA,070520.835,5351.2589,N,01041.9420,E,1,03,9.7,-1.3,M,45.5,M,,0000*7B
$GPGSA,A,2,09,27,17,,,,,,,,,,9.8,9.7,1.0*37
$GPRMC,070520.835,A,5351.2589,N,01041.9420,E,14.08,132.20,190912,,,A*52
$GPGGA,070521.835,5351.2562,N,01041.9463,E,1,03,9.8,-1.3,M,45.5,M,,0000*77
$GPGSA,A,2,09,27,17,,,,,,,,,,9.8,9.8,1.0*38
$GPGSV,3,1,11,09,66,128,33,27,56,128,35,17,26,046,31,12,65,248,37*7A
$GPGSV,3,2,11,14,33,307,27,25,25,250,30,04,14,094,20,15,13,180,23*78
$GPGSV,3,3,11,22,07,277,13,02,03,130,,32,00,359,*43
$GPRMC,070521.835,A,5351.2562,N,01041.9463,E,12.89,127.88,190912,,,A*58
$GPGGA,070522.835,5351.2516,N,01041.9479,E,1,03,9.8,-1.3,M,45.5,M,,0000*7C
$GPGSA,A,2,09,27,17,,,,,,,,,,9.8,9.8,1.0*38
$GPRMC,070522.835,A,5351.2516,N,01041.9479,E,14.75,139.02,190912,,,A*5B
$GPGGA,070523.835,5351.2501,N,01041.9541,E,1,03,9.8,-1.3,M,45.5,M,,0000*71
$GPGSA,A,2,09,27,17,,,,,,,,,,9.8,9.8,1.0*38
$GPRMC,070523.835,A,5351.2501,N,01041.9541,E,15.20,140.99,190912,,,A*5B
$GPGGA,070524.839,5351.2445,N,01041.9563,E,1,03,9.8,-1.3,M,45.5,M,,0000*7B
$GPGSA,A,2,09,27,17,,,,,,,,,,9.8,9.8,1.0*38
$GPRMC,070524.839,A,5351.2445,N,01041.9563,E,15.09,143.16,190912,,,A*5E
$GPGGA,070525.835,5351.2430,N,01041.9634,E,1,03,9.8,-1.3,M,45.5,M,,0000*75
$GPGSA,A,2,09,27,17,,,,,,,,,,9.8,9.8,1.0*38
$GPRMC,070525.835,A,5351.2430,N,01041.9634,E,16.32,140.16,190912,,,A*58
$GPGGA,070526.835,5351.2391,N,01041.9681,E,1,03,9.8,-1.3,M,45.5,M,,0000*74
$GPGSA,A,2,09,27,17,,,,,,,,,,9.8,9.8,1.0*38
$GPGSV,3,1,11,09,66,128,33,27,56,128,35,17,26,046,35,12,65,248,35*7C
$GPGSV,3,2,11,14,33,307,26,25,25,250,,04,14,094,30,15,13,180,35*7C
$GPGSV,3,3,11,22,07,277,12,02,03,130,,32,00,359,*42
$GPRMC,070526.835,A,5351.2391,N,01041.9681,E,17.07,140.54,190912,,,A*58
$GPGGA,070527.839,5351.2364,N,01041.9703,E,1,03,9.8,-1.3,M,45.5,M,,0000*78
$GPGSA,A,2,09,27,17,,,,,,,,,,9.8,9.8,1.0*38
$GPRMC,070527.839,A,5351.2364,N,01041.9703,E,17.20,141.02,190912,,,A*53
$GPGGA,070528.839,,,,,0,00,,,M,0.0,M,,0000*5C
$GPGSA,A,1,,,,,,,,,,,,,,,*1E
$GPRMC,070529.835,A,5351.2281,N,01041.9581,E,21.03,138.48,190912,,,A*57
$GPGGA,070530.835,5351.2224,N,01041.9745,E,1,03,9.8,-1.3,M,45.5,M,,0000*75
$GPGSA,A,2,09,27,17,,,,,,,,,,9.8,9.8,1.0*38
$GPRMC,070530.835,A,5351.2224,N,01041.9745,E,19.12,140.80,190912,,,A*5A
$GPGGA,070531.835,5351.2191,N,01041.9628,E,1,03,9.8,-1.3,M,45.5,M,,0000*73
$GPGSA,A,2,09,27,17,,,,,,,,,,9.8,9.8,1.0*38
$GPGSV,3,1,11,09,66,128,35,27,56,128,35,17,26,046,28,12,65,248,29*7B
$GPGSV,3,2,11,14,33,307,21,25,25,250,25,04,14,094,18,15,13,180,32*71
$GPGSV,3,3,11,22,07,277,,02,03,130,,32,00,359,*41
$GPRMC,070531.835,A,5351.2191,N,01041.9628,E,21.33,137.51,190912,,,A*58
$GPGGA,070532.839,5351.2177,N,01041.9686,E,1,03,9.8,-1.3,M,45.5,M,,0000*70
$GPGSA,A,2,09,27,17,,,,,,,,,,9.8,9.8,1.0*38
$GPRMC,070532.839,A,5351.2177,N,01041.9686,E,21.79,136.91,190912,,,A*58
$GPGGA,070533.839,5351.2171,N,01041.9455,E,1,03,9.8,-1.3,M,45.5,M,,0000*7B
$GPGSA,A,2,09,27,17,,,,,,,,,,9.8,9.8,1.0*38
$GPRMC,070533.839,A,5351.2171,N,01041.9455,E,23.33,135.94,190912,,,A*59
$GPGGA,070534.835,5351.2097,N,01041.9578,E,1,03,9.8,-1.3,M,45.5,M,,0000*77
$GPGSA,A,2,09,27,17,,,,,,,,,,9.8,9.8,1.0*38
$GPRMC,070534.835,A,5351.2097,N,01041.9578,E,21.19,136.96,190912,,,A*5E
$GPGGA,070535.839,5351.2066,N,01041.9215,E,1,03,9.8,-1.3,M,45.5,M,,0000*78
$GPGSA,A,2,09,27,17,,,,,,,,,,9.8,9.8,1.0*38
$GPRMC,070535.839,A,5351.2066,N,01041.9215,E,21.21,132.64,190912,,,A*53
$GPGGA,070536.839,5351.1995,N,01041.9855,E,1,03,9.8,-1.3,M,45.5,M,,0000*73
$GPGSA,A,2,09,27,17,,,,,,,,,,9.8,9.8,1.0*38
$GPGSV,3,1,11,09,66,128,31,27,56,128,35,17,26,046,29,12,65,248,33*75
$GPGSV,3,2,11,14,33,307,23,25,25,250,26,04,14,094,17,15,13,180,21*7D
$GPGSV,3,3,11,22,07,277,22,02,03,130,25,32,00,359,*46
$GPRMC,070536.839,A,5351.1995,N,01041.9855,E,19.94,136.93,190912,,,A*51
$GPGGA,070537.839,5351.1936,N,01042.0103,E,1,03,9.8,-1.3,M,45.5,M,,0000*7B
$GPGSA,A,2,09,27,17,,,,,,,,,,9.8,9.8,1.0*38
$GPRMC,070537.839,A,5351.1936,N,01042.0103,E,20.72,145.49,190912,,,A*58
$GPGGA,070538.835,,,,,0,00,,,M,0.0,M,,0000*51
$GPGSA,A,1,,,,,,,,,,,,,,,*1E
$GPRMC,070539.839,A,5351.1859,N,01042.0220,E,18.67,143.66,190912,,,A*58
$GPGGA,070540.839,5351.1836,N,01042.0325,E,1,03,9.8,-1.3,M,45.5,M,,0000*7C
$GPGSA,A,2,09,27,17,,,,,,,,,,9.8,9.8,1.0*38
$GPRMC,070540.839,A,5351.1836,N,01042.0325,E,19.52,144.14,190912,,,A*5E
$GPGGA,070541.839,5351.1773,N,01042.0373,E,1,03,9.8,-1.3,M,45.5,M,,0000*70
$GPGSA,A,2,09,27,17,,,,,,,,,,9.8,9.8,1.0*38
$GPGSV,3,1,11,09,66,128,35,27,56,128,35,17,26,046,36,12,65,248,32*7E
$GPGSV,3,2,11,14,33,307,27,25,25,250,24,04,14,094,28,15,13,180,30*77
$GPGSV,3,3,11,22,07,277,14,02,03,130,23,32,00,359,*45
$GPRMC,070541.839,A,5351.1773,N,01042.0373,E,19.16,145.11,190912,,,A*56
$GPGGA,070542.835,5351.1723,N,01042.0416,E,1,03,9.8,-1.3,M,45.5,M,,0000*7E
$GPGSA,A,2,09,27,17,,,,,,,,,,9.8,9.8,1.0*38
$GPRMC,070542.835,A,5351.1723,N,01042.0416,E,19.35,145.67,190912,,,A*58
$GPGGA,070543.839,5351.1666,N,01042.0432,E,1,03,9.8,-1.3,M,45.5,M,,0000*75
$GPGSA,A,2,09,27,17,,,,,,,,,,9.9,9.8,1.0*39
$GPRMC,070543.839,A,5351.1666,N,01042.0432,E,19.77,144.82,190912,,,A*5F
$GPGGA,070544.839,5351.1625,N,01042.0499,E,1,03,9.8,-1.3,M,45.5,M,,0000*74
$GPGSA,A,2,09,27,17,,,,,,,,,,9.9,9.8,1.0*39
$GPRMC,070544.839,A,5351.1625,N,01042.0499,E,20.33,144.48,190912,,,A*52
$GPGGA,070545.839,5351.1583,N,01042.0569,E,1,03,9.8,-1.3,M,45.5,M,,0000*74
$GPGSA,A,2,09,27,17,,,,,,,,,,9.9,9.8,1.0*39
$GPRMC,070545.839,A,5351.1583,N,01042.0569,E,19.60,146.33,190912,,,A*50
$GPGGA,070546.835,5351.1541,N,01042.0622,E,1,03,9.8,-1.3,M,45.5,M,,0000*79
$GPGSA,A,2,09,27,17,,,,,,,,,,9.9,9.8,1.0*39
$GPGSV,3,1,11,09,66,128,35,27,56,128,34,17,25,046,31,12,65,248,31*78
$GPGSV,3,2,11,14,34,307,23,25,25,250,24,04,14,094,26,15,13,180,18*70
$GPGSV,3,3,11,22,07,277,26,02,03,130,12,32,01,359,*47
$GPRMC,070546.835,A,5351.1541,N,01042.0622,E,20.42,142.76,190912,,,A*52
$GPGGA,070547.839,5351.1466,N,01042.0629,E,1,03,9.8,-1.3,M,45.5,M,,0000*7B
$GPGSA,A,2,09,27,17,,,,,,,,,,9.9,9.8,1.0*39
$GPRMC,070547.839,A,5351.1466,N,01042.0629,E,20.59,143.30,190912,,,A*59
$GPGGA,070548.839,5351.1442,N,01042.0703,E,1,03,9.8,-1.3,M,45.5,M,,0000*7B
$GPGSA,A,2,09,27,17,,,,,,,,,,9.9,9.8,1.0*39
$GPRMC,070548.839,A,5351.1442,N,01042.0703,E,20.73,145.41,190912,,,A*51
$GPGGA,070549.839,5351.1413,N,01042.0788,E,1,03,9.8,-1.3,M,45.5,M,,0000*7D
$GPGSA,A,2,09,27,17,,,,,,,,,,9.9,9.8,1.0*39
$GPRMC,070549.839,A,5351.1413,N,01042.0788,E,21.65,144.28,190912,,,A*5F
$GPGGA,070550.835,,,,,0,00,,,M,0.0,M,,0000*5F
$GPGSA,A,1,,,,,,,,,,,,,,,*1E
$GPRMC,070552.839,A,5351.1325,N,01042.0624,E,23.80,144.43,190912,,,A*54
$GPGGA,070553.839,,,,,0,00,,,M,0.0,M,,0000*50
$GPGSA,A,1,,,,,,,,,,,,,,,*1E
$GPRMC,070554.835,A,5351.1200,N,01042.0814,E,22.38,146.10,190912,,,A*53
$GPGGA,070555.838,5351.1145,N,01042.0889,E,1,03,9.8,-1.3,M,45.5,M,,0000*79
$GPGSA,A,2,09,27,17,,,,,,,,,,9.9,9.8,1.0*39
$GPRMC,070555.838,A,5351.1145,N,01042.0889,E,21.91,146.64,190912,,,A*5A
$GPGGA,070556.838,,,,,0,00,,,M,0.0,M,,0000*54
$GPGSA,A,1,,,,,,,,,,,,,,,*1E
$GPGSV,3,1,11,09,66,128,,27,56,128,33,17,25,046,38,12,65,248,30*71
$GPGSV,3,2,11,14,34,307,25,25,25,250,21,04,14,094,26,15,13,180,24*7C
$GPGSV,3,3,11,22,07,277,25,02,03,130,,32,01,359,*47
$GPRMC,070557.838,A,5351.0993,N,01042.1341,E,24.27,138.70,190912,,,A*50
$GPGGA,070558.835,5351.0955,N,01042.1344,E,1,03,9.8,-1.3,M,45.5,M,,0000*7A
$GPGSA,A,2,09,27,17,,,,,,,,,,9.9,9.8,1.0*39
$GPRMC,070558.835,A,5351.0955,N,01042.1344,E,21.70,140.64,190912,,,A*50
$GPGGA,070559.838,5351.0832,N,01042.1672,E,1,03,9.8,-1.3,M,45.5,M,,0000*76
$GPGSA,A,2,09,27,17,,,,,,,,,,9.9,9.8,1.0*39
$GPRMC,070559.838,A,5351.0832,N,01042.1672,E,20.04,139.50,190912,,,A*57
$GPGGA,070600.838,5351.0802,N,01042.1636,E,1,03,9.8,-1.3,M,45.5,M,,0000*7A
$GPGSA,A,2,09,27,17,,,,,,,,,,9.9,9.8,1.0*39
$GPRMC,070600.838,A,5351.0802,N,01042.1636,E,20.71,143.63,190912,,,A*54
$GPGGA,070601.838,5351.0733,N,01042.1662,E,1,03,9.8,-1.3,M,45.5,M,,0000*77
$GPGSA,A,2,09,27,17,,,,,,,,,,9.9,9.8,1.0*39
$GPGSV,3,1,11,09,66,128,34,27,56,128,32,17,25,046,29,12,65,248,26*70
$GPGSV,3,2,11,14,34,307,25,25,25,250,31,04,14,094,23,15,13,180,25*79
$GPGSV,3,3,11,22,07,277,23,02,03,130,,32,01,359,*41
$GPRMC,070601.838,A,5351.0733,N,01042.1662,E,19.55,140.04,190912,,,A*57
$GPGGA,070602.835,5351.0698,N,01042.1382,E,1,03,9.8,-1.3,M,45.5,M,,0000*72
$GPGSA,A,2,09,27,17,,,,,,,,,,9.9,9.8,1.0*39
$GPRMC,070602.835,A,5351.0698,N,01042.1382,E,21.34,148.80,190912,,,A*5A
$GPGGA,070603.835,5351.0718,N,01042.1154,E,1,03,9.8,-1.3,M,45.5,M,,0000*73
$GPGSA,A,2,09,27,17,,,,,,,,,,9.9,9.8,1.0*39
$GPRMC,070603.835,A,5351.0718,N,01042.1154,E,20.22,144.16,190912,,,A*5E
$GPGGA,070604.835,5351.0660,N,01042.1603,E,1,03,9.8,-1.3,M,45.5,M,,0000*7F
$GPGSA,A,2,09,27,17,,,,,,,,,,9.9,9.8,1.0*39
$GPRMC,070604.835,A,5351.0660,N,01042.1603,E,19.94,145.29,190912,,,A*58
$GPGGA,070605.835,5351.0612,N,01042.1784,E,1,03,9.9,-1.3,M,45.5,M,,0000*74
$GPGSA,A,2,09,27,17,,,,,,,,,,9.9,9.9,1.0*38
$GPRMC,070605.835,A,5351.0612,N,01042.1784,E,21.55,142.12,190912,,,A*5B
$GPGGA,070606.835,5351.0601,N,01042.1636,E,1,03,9.9,-1.3,M,45.5,M,,0000*7D
$GPGSA,A,2,09,27,17,,,,,,,,,,9.9,9.9,1.0*38
$GPGSV,3,1,11,09,66,128,33,27,56,128,37,17,25,046,35,12,65,248,31*79
$GPGSV,3,2,11,14,34,307,29,25,25,250,27,04,14,094,32,15,13,180,19*7D
$GPGSV,3,3,11,22,07,277,22,02,03,130,,32,01,359,*40
$GPRMC,070606.835,A,5351.0601,N,01042.1636,E,19.33,147.57,190912,,,A*5D
$GPGGA,070607.835,5351.0560,N,01042.1702,E,1,03,9.9,-1.3,M,45.5,M,,0000*7E
$GPGSA,A,2,09,27,17,,,,,,,,,,9.9,9.9,1.0*38
$GPRMC,070607.835,A,5351.0560,N,01042.1702,E,17.70,140.45,190912,,,A*53
$GPGGA,070608.835,5351.0558,N,01042.1663,E,1,03,9.9,-1.3,M,45.5,M,,0000*7C
$GPGSA,A,2,09,27,17,,,,,,,,,,9.9,9.9,1.0*38
$GPRMC,070608.835,A,5351.0558,N,01042.1663,E,17.24,145.75,190912,,,A*56
$GPGGA,070609.838,5351.0523,N,01042.1687,E,1,03,9.9,-1.3,M,45.5,M,,0000*76
$GPGSA,A,2,09,27,17,,,,,,,,,,9.9,9.9,1.0*38
$GPRMC,070609.838,A,5351.0523,N,01042.1687,E,12.12,162.35,190912,,,A*5D
$GPGGA,070610.835,5351.0468,N,01042.1816,E,1,03,9.9,-1.3,M,45.5,M,,0000*7B
$GPGSA,A,2,09,27,17,,,,,,,,,,9.9,9.9,1.0*38
$GPRMC,070610.835,A,5351.0468,N,01042.1816,E,12.17,154.43,190912,,,A*51
$GPGGA,070611.835,5351.0403,N,01042.1828,E,1,03,9.9,-1.3,M,45.5,M,,0000*7A
$GPGSA,A,2,09,27,17,,,,,,,,,,9.9,9.9,1.0*38
$GPGSV,3,1,11,09,66,128,34,27,56,128,33,17,25,046,36,12,65,248,30*78
$GPGSV,3,2,11,14,34,307,23,25,25,250,19,04,14,094,24,15,13,180,23*74
$GPGSV,3,3,11,22,07,277,21,02,03,130,,32,01,359,*43
$GPRMC,070611.835,A,5351.0403,N,01042.1828,E,10.25,150.34,190912,,,A*57
$GPGGA,070612.835,5351.0424,N,01042.1788,E,1,03,9.9,-1.3,M,45.5,M,,0000*79
$GPGSA,A,2,09,27,17,,,,,,,,,,9.9,9.9,1.0*38
$GPRMC,070612.835,A,5351.0424,N,01042.1788,E,8.67,136.60,190912,,,A*6A
$GPGGA,070613.835,5351.0413,N,01042.1829,E,1,03,9.9,-1.3,M,45.5,M,,0000*78
$GPGSA,A,2,09,27,17,,,,,,,,,,9.9,9.9,1.0*38
$GPRMC,070613.835,A,5351.0413,N,01042.1829,E,5.70,138.16,190912,,,A*6F
$GPGGA,070614.835,5351.0404,N,01042.1839,E,1,03,9.9,-1.3,M,45.5,M,,0000*78
$GPGSA,A,2,09,27,17,,,,,,,,,,9.9,9.9,1.0*38
$GPRMC,070614.835,A,5351.0404,N,01042.1839,E,2.87,145.54,190912,,,A*6C
$GPGGA,070615.838,5351.0396,N,01042.1865,E,1,03,9.9,-1.3,M,45.5,M,,0000*71
$GPGSA,A,2,09,27,17,,,,,,,,,,9.9,9.9,1.0*38
$GPRMC,070616.838,A,5351.0300,N,01042.2578,E,2.92,281.21,190912,,,A*66
$GPGGA,070617.835,5351.0377,N,01042.2022,E,1,03,9.9,-1.3,M,45.5,M,,0000*79
$GPGSA,A,2,09,27,17,,,,,,,,,,9.9,9.9,1.0*38
$GPRMC,070617.835,A,5351.0377,N,01042.2022,E,1.10,251.62,190912,,,A*63
$GPGGA,070618.835,5351.0391,N,01042.1970,E,1,03,9.9,-1.3,M,45.5,M,,0000*73
$GPGSA,A,2,09,27,17,,,,,,,,,,9.9,9.9,1.0*38
$GPRMC,070618.835,A,5351.0391,N,01042.1970,E,1.51,112.46,190912,,,A*6E
$GPGGA,070619.838,5351.0398,N,01042.1940,E,1,03,9.9,-1.3,M,45.5,M,,0000*75
$GPGSA,A,2,09,27,17,,,,,,,,,,9.9,9.9,1.0*38
$GPRMC,070620.838,A,5351.0385,N,01042.2029,E,1.96,98.90,190912,,,A*58
$GPGGA,070621.837,5351.0367,N,01042.2124,E,1,03,9.9,-1.3,M,45.5,M,,0000*78
$GPGSA,A,2,09,27,17,,,,,,,,,,9.9,9.9,1.0*38
$GPGSV,3,1,11,09,66,128,32,27,56,128,31,17,25,046,40,12,65,248,38*75
$GPGSV,3,2,11,14,34,307,28,25,25,250,31,04,14,094,27,15,13,180,26*73
$GPGSV,3,3,11,22,07,277,20,02,03,130,18,32,01,359,*4B
$GPRMC,070623.837,A,5351.0314,N,01042.2419,E,0.96,280.14,190912,,,A*6D
$GPGGA,070624.837,5351.0162,N,01042.3065,E,1,03,9.9,-1.3,M,45.5,M,,0000*7F
$GPGSA,A,2,09,27,17,,,,,,,,,,9.9,9.9,1.0*38
$GPRMC,070910.000,A,5350.5964,N,01042.4936,E,3.48,170.83,190912,,,A*63
$GPGGA,070911.000,5350.5954,N,01042.4940,E,1,04,2.1,18.5,M,45.5,M,,0000*6D
$GPGSA,A,3,09,27,12,17,,,,,,,,,2.3,2.1,1.0*38
$GPGSV,3,1,11,12,67,249,26,09,64,129,43,27,54,128,45,17,24,046,40*7C
$GPGSV,3,2,11,14,34,305,25,25,27,251,28,04,15,093,40,15,12,180,31*77
$GPGSV,3,3,11,22,06,276,20,02,04,129,33,32,01,358,*4C
$GPRMC,070911.000,A,5350.5954,N,01042.4940,E,3.86,166.73,190912,,,A*6A
$GPGGA,070912.000,5350.5943,N,01042.4942,E,1,04,2.1,18.6,M,45.5,M,,0000*69
$GPGSA,A,3,09,27,12,17,,,,,,,,,2.3,2.1,1.0*38
$GPRMC,070912.000,A,5350.5943,N,01042.4942,E,4.04,173.20,190912,,,A*62
$GPGGA,070913.000,5350.5933,N,01042.4943,E,1,04,2.1,18.5,M,45.5,M,,0000*6D
$GPGSA,A,3,09,27,12,17,,,,,,,,,2.3,2.1,1.0*38
$GPRMC,070913.000,A,5350.5933,N,01042.4943,E,3.65,171.08,190912,,,A*6D
$GPGGA,070914.000,5350.5925,N,01042.4942,E,1,04,2.1,18.5,M,45.5,M,,0000*6C
$GPGSA,A,3,09,27,12,17,,,,,,,,,2.3,2.1,1.0*38
$GPRMC,070914.000,A,5350.5925,N,01042.4942,E,2.88,174.66,190912,,,A*63
$GPGGA,070915.000,5350.5920,N,01042.4941,E,1,04,2.1,18.4,M,45.5,M,,0000*6A
$GPGSA,A,3,09,27,12,17,,,,,,,,,2.3,2.1,1.0*38
$GPRMC,070915.000,A,5350.5920,N,01042.4941,E,1.92,173.76,190912,,,A*6A
$GPGGA,070916.000,5350.5916,N,01042.4939,E,1,04,2.1,18.2,M,45.5,M,,0000*65
$GPGSA,A,3,09,27,12,17,,,,,,,,,2.3,2.1,1.0*38
$GPGSV,3,1,11,12,67,249,32,09,64,129,44,27,54,128,45,17,24,046,40*7E
$GPGSV,3,2,11,14,34,305,27,25,27,251,34,04,15,093,39,15,12,180,29*7F
$GPGSV,3,3,11,22,06,276,20,02,04,129,26,32,01,358,*48
$GPRMC,070916.000,A,5350.5916,N,01042.4939,E,1.32,172.49,190912,,,A*64
$GPGGA,070917.000,5350.5913,N,01042.4937,E,1,04,2.1,18.1,M,45.5,M,,0000*6C
$GPGSA,A,3,09,27,12,17,,,,,,,,,2.3,2.1,1.0*38
$GPRMC,070917.000,A,5350.5913,N,01042.4937,E,1.02,174.99,190912,,,A*66
$GPGGA,070918.000,5350.5912,N,01042.4936,E,1,04,2.1,18.0,M,45.5,M,,0000*62
$GPGSA,A,3,09,27,12,17,,,,,,,,,2.3,2.1,1.0*38
$GPRMC,070925.000,A,5350.5912,N,01042.4967,E,0.88,138.97,190912,,,A*66
$GPGGA,070926.000,5350.5907,N,01042.4971,E,1,04,2.1,20.9,M,45.5,M,,0000*6A
$GPGSA,A,3,09,27,12,17,,,,,,,,,2.3,2.1,1.0*38
$GPGSV,3,1,11,12,67,249,25,09,64,129,44,27,54,128,42,17,24,046,36*7E
$GPGSV,3,2,11,14,34,305,27,25,27,251,27,04,15,093,35,15,12,180,30*79
$GPGSV,3,3,11,22,06,276,23,02,04,129,27,32,01,358,*4A
$GPRMC,070926.000,A,5350.5907,N,01042.4971,E,1.80,177.42,190912,,,A*6C
$GPGGA,070927.000,5350.5898,N,01042.4972,E,1,04,2.1,21.3,M,45.5,M,,0000*64
$GPGSA,A,3,09,27,12,17,,,,,,,,,2.3,2.1,1.0*38
$GPRMC,070927.000,A,5350.5898,N,01042.4972,E,3.60,186.81,190912,,,A*64
$GPGGA,070928.000,5350.5886,N,01042.4973,E,1,04,2.1,21.7,M,45.5,M,,0000*61
$GPGSA,A,3,09,27,12,17,,,,,,,,,2.3,2.1,1.0*38
$GPRMC,070928.000,A,5350.5886,N,01042.4973,E,4.38,184.02,190912,,,A*66
$GPGGA,070929.000,5350.5873,N,01042.4974,E,1,04,2.1,22.1,M,45.5,M,,0000*68
$GPGSA,A,3,09,27,12,17,,,,,,,,,2.3,2.1,1.0*38
$GPRMC,070929.000,A,5350.5873,N,01042.4974,E,5.18,184.71,190912,,,A*6D
$GPGGA,070930.000,5350.5854,N,01042.4974,E,1,04,2.1,22.4,M,45.5,M,,0000*60
$GPGSA,A,3,09,27,12,17,,,,,,,,,2.3,2.1,1.0*38
$GPRMC,070930.000,A,5350.5854,N,01042.4974,E,6.97,185.37,190912,,,A*67
$GPGGA,070931.000,5350.5829,N,01042.4974,E,1,04,2.1,22.6,M,45.5,M,,0000*69
$GPGSA,A,3,09,27,12,17,,,,,,,,,2.3,2.1,1.0*38
$GPGSV,3,1,11,12,67,249,25,09,64,129,43,27,54,128,43,17,24,046,36*78
$GPGSV,3,2,11,14,34,305,32,25,27,251,35,04,15,093,39,15,12,180,34*76
$GPGSV,3,3,11,22,06,276,30,02,04,129,24,32,01,358,*4B
$GPRMC,070931.000,A,5350.5829,N,01042.4974,E,9.31,182.12,190912,,,A*6F
$GPGGA,070932.000,5350.5798,N,01042.4975,E,1,04,2.1,22.8,M,45.5,M,,0000*60
$GPGSA,A,3,09,27,12,17,,,,,,,,,2.3,2.1,1.0*38
$GPRMC,070932.000,A,5350.5798,N,01042.4975,E,11.53,181.36,190912,,,A*50
$GPGGA,070933.000,5350.5764,N,01042.4974,E,1,04,2.1,22.9,M,45.5,M,,0000*62
$GPGSA,A,3,09,27,12,17,,,,,,,,,2.3,2.1,1.0*38
$GPRMC,070933.000,A,5350.5764,N,01042.4974,E,12.44,181.47,190912,,,A*50
$GPGGA,070934.000,5350.5730,N,01042.4973,E,1,04,2.1,23.0,M,45.5,M,,0000*6B
$GPGSA,A,3,09,27,12,17,,,,,,,,,2.3,2.1,1.0*38
$GPRMC,070934.000,A,5350.5730,N,01042.4973,E,12.49,180.60,190912,,,A*58
$GPGGA,070935.000,5350.5697,N,01042.4975,E,1,04,2.1,23.1,M,45.5,M,,0000*61
$GPGSA,A,3,09,27,12,17,,,,,,,,,2.3,2.1,1.0*38
$GPRMC,070935.000,A,5350.5697,N,01042.4975,E,11.97,178.74,190912,,,A*51
$GPGGA,070936.000,5350.5666,N,01042.4974,E,1,04,2.1,23.1,M,45.5,M,,0000*6D
$GPGSA,A,3,09,27,12,17,,,,,,,,,2.3,2.1,1.0*38
$GPGSV,3,1,11,12,67,249,26,09,64,129,43,27,54,128,44,17,24,046,36*7C
$GPGSV,3,2,11,14,34,305,33,25,27,251,28,04,15,093,33,15,12,180,35*70
$GPGSV,3,3,11,22,06,276,31,02,04,129,,32,01,358,*4C
$GPRMC,070936.000,A,5350.5666,N,01042.4974,E,11.35,179.68,190912,,,A*59
$GPGGA,070937.000,5350.5637,N,01042.4977,E,1,04,2.1,23.1,M,45.5,M,,0000*6B
$GPGSA,A,3,09,27,12,17,,,,,,,,,2.3,2.1,1.0*38
$GPRMC,070937.000,A,5350.5637,N,01042.4977,E,10.33,177.12,190912,,,A*5B
$GPGGA,070938.000,5350.5611,N,01042.4980,E,1,04,2.1,23.2,M,45.5,M,,0000*6B
$GPGSA,A,3,09,27,12,17,,,,,,,,,2.3,2.1,1.0*38
$GPRMC,070938.000,A,5350.5611,N,01042.4980,E,9.57,175.44,190912,,,A*63
$GPGGA,070939.000,5350.5589,N,01042.4983,E,1,04,2.1,23.2,M,45.5,M,,0000*6B
$GPGSA,A,3,09,27,12,17,,,,,,,,,2.3,2.1,1.0*38
$GPRMC,070939.000,A,5350.5589,N,01042.4983,E,7.98,174.72,190912,,,A*6A
$GPGGA,070940.000,5350.5572,N,01042.4982,E,1,04,2.1,23.1,M,45.5,M,,0000*63
$GPGSA,A,3,09,27,12,17,,,,,,,,,2.3,2.1,1.0*38
$GPRMC,070940.000,A,5350.5572,N,01042.4982,E,6.33,178.97,190912,,,A*66
$GPGGA,070941.000,5350.5556,N,01042.4978,E,1,04,2.1,23.0,M,45.5,M,,0000*60
$GPGSA,A,3,09,27,12,17,,,,,,,,,2.3,2.1,1.0*38
$GPGSV,3,1,11,12,67,249,27,09,64,129,43,27,54,128,45,17,24,046,34*7E
$GPGSV,3,2,11,14,34,305,27,25,27,251,24,04,15,093,,15,12,180,26*7B
$GPGSV,3,3,11,22,06,276,,02,04,129,37,32,01,358,*4A
$GPRMC,070941.000,A,5350.5556,N,01042.4978,E,5.70,182.92,190912,,,A*60
$GPGGA,070942.000,5350.5545,N,01042.4977,E,1,04,2.1,22.9,M,45.5,M,,0000*66
$GPGSA,A,3,09,27,12,17,,,,,,,,,2.3,2.1,1.0*38
$GPRMC,070942.000,A,5350.5545,N,01042.4977,E,3.77,178.12,190912,,,A*62
$GPGGA,070943.000,5350.5539,N,01042.4978,E,1,04,2.1,22.8,M,45.5,M,,0000*62
$GPGSA,A,3,09,27,12,17,,,,,,,,,2.3,2.1,1.0*38
$GPRMC,070943.000,A,5350.5539,N,01042.4978,E,2.35,165.11,190912,,,A*6F
$GPGGA,070944.000,5350.5538,N,01042.4980,E,1,04,2.1,22.8,M,45.5,M,,0000*63
$GPGSA,A,3,09,27,12,17,,,,,,,,,2.3,2.1,1.0*38
$GPRMC,070944.000,A,5350.5538,N,01042.4980,E,0.82,135.71,190912,,,A*63
$GPGGA,070945.000,5350.5537,N,01042.4982,E,1,04,2.1,22.8,M,45.5,M,,0000*6F
$GPGSA,A,3,09,27,12,17,,,,,,,,,2.3,2.1,1.0*38
$GPRMC,071032.000,A,5350.5577,N,01042.4898,E,0.88,142.61,190912,,,A*62
$GPGGA,071033.000,5350.5578,N,01042.4899,E,1,05,2.7,46.4,M,45.5,M,,0000*6F
$GPGSA,A,3,09,27,04,12,17,,,,,,,,4.9,2.7,4.0*33
$GPRMC,071034.000,A,5350.5580,N,01042.4901,E,1.04,18.31,190912,,,A*53
$GPGGA,071035.000,5350.5583,N,01042.4903,E,1,06,2.1,47.3,M,45.5,M,,0000*6C
$GPGSA,A,3,09,27,04,14,12,17,,,,,,,3.7,2.1,3.1*3F
$GPRMC,071035.000,A,5350.5583,N,01042.4903,E,1.08,12.24,190912,,,A*51
$GPGGA,071036.000,5350.5583,N,01042.4905,E,1,06,2.1,47.7,M,45.5,M,,0000*6D
$GPGSA,A,3,09,27,04,14,12,17,,,,,,,3.7,2.1,3.1*3F
$GPGSV,3,1,11,12,67,249,25,09,63,129,34,27,54,129,36,14,35,305,21*7D
$GPGSV,3,2,11,25,27,251,29,17,24,045,24,04,15,092,32,15,11,180,28*7D
$GPGSV,3,3,11,22,06,276,35,02,04,129,31,32,01,358,*4A
$GPRMC,071056.000,A,5350.5547,N,01042.4834,E,0.82,207.05,190912,,,A*6F
$GPGGA,071057.000,5350.5541,N,01042.4827,E,1,06,2.1,30.7,M,45.5,M,,0000*65
$GPGSA,A,3,09,27,04,14,12,17,,,,,,,3.7,2.1,3.1*3F
$GPRMC,071057.000,A,5350.5541,N,01042.4827,E,0.96,207.70,190912,,,A*6D
$GPGGA,071058.000,5350.5535,N,01042.4819,E,1,06,2.1,28.3,M,45.5,M,,0000*69
$GPGSA,A,3,09,27,04,14,12,17,,,,,,,3.7,2.1,3.1*3F
$GPRMC,071058.000,A,5350.5535,N,01042.4819,E,0.99,207.64,190912,,,A*66
$GPGGA,071059.000,5350.5528,N,01042.4811,E,1,06,2.1,25.8,M,45.5,M,,0000*6A
$GPGSA,A,3,09,27,04,14,12,17,,,,,,,3.7,2.1,3.1*3F
$GPRMC,071059.000,A,5350.5528,N,01042.4811,E,1.05,207.69,190912,,,A*6A
$GPGGA,071100.000,5350.5521,N,01042.4803,E,1,06,2.1,23.2,M,45.5,M,,0000*61
$GPGSA,A,3,09,27,04,14,12,17,,,,,,,3.8,2.1,3.1*30
$GPRMC,071100.000,A,5350.5521,N,01042.4803,E,1.14,207.18,190912,,,A*6B
$GPGGA,071101.000,5350.5514,N,01042.4795,E,1,06,2.1,20.5,M,45.5,M,,0000*62
$GPGSA,A,3,09,27,04,14,12,17,,,,,,,3.8,2.1,3.1*30
$GPGSV,3,1,11,12,68,250,31,09,63,129,39,27,53,129,43,14,35,305,27*71
$GPGSV,3,2,11,25,27,251,31,17,24,045,29,04,16,092,28,15,11,180,29*70
$GPGSV,3,3,11,22,06,275,37,02,04,129,33,32,01,357,13*44
$GPRMC,071101.000,A,5350.5514,N,01042.4795,E,1.13,206.92,190912,,,A*68
$GPGGA,071102.000,5350.5510,N,01042.4791,E,1,07,1.3,18.9,M,45.5,M,,0000*66
$GPGSA,A,3,09,27,04,14,12,25,17,,,,,,2.2,1.3,1.8*36
$GPRMC,071215.000,A,5350.5508,N,01042.4837,E,0.96,165.84,190912,,,A*69
$GPGGA,071216.000,5350.5500,N,01042.4839,E,1,07,1.1,15.7,M,45.5,M,,0000*6D
$GPGSA,A,3,09,27,04,14,15,12,17,,,,,,1.8,1.1,1.4*32
$GPGSV,3,1,11,12,68,250,30,09,62,130,40,27,53,129,41,14,35,304,31*73
$GPGSV,3,2,11,25,28,252,,17,23,045,25,04,16,092,28,15,10,180,26*7B
$GPGSV,3,3,11,22,05,275,23,02,05,128,24,32,02,357,*45
$GPRMC,071216.000,A,5350.5500,N,01042.4839,E,2.86,170.94,190912,,,A*6A
$GPGGA,071217.000,5350.5486,N,01042.4841,E,1,08,1.0,15.9,M,45.5,M,,0000*6C
$GPGSA,A,3,09,27,04,14,15,12,25,17,,,,,1.7,1.0,1.4*3B
$GPRMC,071217.000,A,5350.5486,N,01042.4841,E,5.33,175.13,190912,,,A*68
$GPGGA,071218.000,5350.5469,N,01042.4845,E,1,08,1.0,16.2,M,45.5,M,,0000*6E
$GPGSA,A,3,09,27,04,14,15,12,25,17,,,,,1.7,1.0,1.4*3B
$GPRMC,071218.000,A,5350.5469,N,01042.4845,E,6.36,173.00,190912,,,A*60
$GPGGA,071219.000,5350.5448,N,01042.4849,E,1,08,1.0,16.4,M,45.5,M,,0000*66
$GPGSA,A,3,09,27,04,14,15,12,25,17,,,,,1.7,1.0,1.4*3B
$GPRMC,071219.000,A,5350.5448,N,01042.4849,E,7.68,173.28,190912,,,A*6E
$GPGGA,071220.000,5350.5425,N,01042.4853,E,1,07,1.1,16.5,M,45.5,M,,0000*63
$GPGSA,A,3,09,27,04,14,15,12,17,,,,,,1.8,1.1,1.4*32
$GPRMC,071220.000,A,5350.5425,N,01042.4853,E,8.74,175.20,190912,,,A*68
$GPGGA,071221.000,5350.5403,N,01042.4857,E,1,08,1.0,16.7,M,45.5,M,,0000*6E
$GPGSA,A,3,09,27,04,14,15,12,25,17,,,,,1.7,1.0,1.4*3B
$GPGSV,3,1,11,12,68,250,24,09,62,130,38,27,53,129,40,14,35,304,32*7B
$GPGSV,3,2,11,25,28,252,27,17,23,045,35,04,16,092,39,15,10,180,30*78
$GPGSV,3,3,11,22,05,275,29,02,05,128,37,32,02,357,*4D
$GPRMC,071221.000,A,5350.5403,N,01042.4857,E,8.32,174.63,190912,,,A*6D
$GPGGA,071222.000,5350.5381,N,01042.4860,E,1,08,1.0,16.8,M,45.5,M,,0000*6B
$GPGSA,A,3,09,27,04,14,15,12,25,17,,,,,1.7,1.0,1.4*3B
$GPRMC,071222.000,A,5350.5381,N,01042.4860,E,8.01,175.93,190912,,,A*69
$GPGGA,071223.000,5350.5359,N,01042.4863,E,1,08,1.0,16.8,M,45.5,M,,0000*6C
$GPGSA,A,3,09,27,04,14,15,12,25,17,,,,,1.7,1.0,1.4*3B
$GPRMC,071223.000,A,5350.5359,N,01042.4863,E,8.13,175.30,190912,,,A*64
$GPGGA,071224.000,5350.5337,N,01042.4867,E,1,08,1.0,16.8,M,45.5,M,,0000*67
$GPGSA,A,3,09,27,04,14,15,12,25,17,,,,,1.7,1.0,1.4*3B
$GPRMC,071224.000,A,5350.5337,N,01042.4867,E,8.50,174.33,190912,,,A*6A
$GPGGA,071225.000,5350.5311,N,01042.4871,E,1,08,1.0,16.8,M,45.5,M,,0000*65
$GPGSA,A,3,09,27,04,14,15,12,25,17,,,,,1.7,1.0,1.4*3B
$GPRMC,071225.000,A,5350.5311,N,01042.4871,E,9.49,174.81,190912,,,A*68
$GPGGA,071226.000,5350.5281,N,01042.4876,E,1,08,1.0,16.6,M,45.5,M,,0000*67
$GPGSA,A,3,09,27,04,14,15,12,25,17,,,,,1.7,1.0,1.4*3B
$GPGSV,3,1,11,12,68,250,31,09,62,130,41,27,53,129,40,14,35,304,33*70
$GPGSV,3,2,11,25,28,252,30,17,23,045,37,04,16,092,40,15,10,180,24*77
$GPGSV,3,3,11,22,05,275,20,02,05,128,28,32,02,357,*4A
$GPRMC,071226.000,A,5350.5281,N,01042.4876,E,11.29,174.89,190912,,,A*53
$GPGGA,071227.000,5350.5246,N,01042.4881,E,1,08,1.0,16.5,M,45.5,M,,0000*66
$GPGSA,A,3,09,27,04,14,15,12,25,17,,,,,1.7,1.0,1.4*3B
$GPRMC,071227.000,A,5350.5246,N,01042.4881,E,12.98,174.84,190912,,,A*55
$GPGGA,071228.000,5350.5207,N,01042.4888,E,1,08,1.0,16.3,M,45.5,M,,0000*63
$GPGSA,A,3,09,27,04,14,15,12,25,17,,,,,1.7,1.0,1.4*3B
$GPRMC,071228.000,A,5350.5207,N,01042.4888,E,14.35,174.86,190912,,,A*55
$GPGGA,071229.000,5350.5164,N,01042.4894,E,1,08,1.0,16.2,M,45.5,M,,0000*68
$GPGSA,A,3,09,27,04,14,15,12,25,17,,,,,1.7,1.0,1.4*3B
$GPRMC,071229.000,A,5350.5164,N,01042.4894,E,15.74,175.38,190912,,,A*5F
$GPGGA,071230.000,5350.5117,N,01042.4900,E,1,08,1.0,16.0,M,45.5,M,,0000*6A
$GPGSA,A,3,09,27,04,14,15,12,25,17,,,,,1.7,1.0,1.4*3B
$GPRMC,071230.000,A,5350.5117,N,01042.4900,E,17.13,175.70,190912,,,A*50
$GPGGA,071231.000,5350.5069,N,01042.4907,E,1,08,1.0,15.8,M,45.5,M,,0000*6F
$GPGSA,A,3,09,27,04,14,15,12,25,17,,,,,1.7,1.0,1.4*3B
$GPGSV,3,1,11,12,68,250,27,09,62,130,41,27,53,129,41,14,35,304,34*71
$GPGSV,3,2,11,25,28,252,30,17,23,045,42,04,16,092,40,15,10,180,32*72
$GPGSV,3,3,11,22,05,275,32,02,05,128,23,32,02,357,*42
$GPRMC,071231.000,A,5350.5069,N,01042.4907,E,17.61,175.60,190912,,,A*5A
$GPGGA,071232.000,5350.5020,N,01042.4914,E,1,08,1.0,15.6,M,45.5,M,,0000*6D
$GPGSA,A,3,09,27,04,14,15,12,25,17,,,,,1.7,1.0,1.4*3B
$GPRMC,071232.000,A,5350.5020,N,01042.4914,E,18.09,175.38,190912,,,A*5A
$GPGGA,071233.000,5350.4969,N,01042.4923,E,1,08,1.0,15.4,M,45.5,M,,0000*6F
$GPGSA,A,3,09,27,04,14,15,12,25,17,,,,,1.7,1.0,1.4*3B
$GPRMC,071233.000,A,5350.4969,N,01042.4923,E,18.52,174.35,190912,,,A*58
$GPGGA,071234.000,5350.4917,N,01042.4931,E,1,08,1.0,15.1,M,45.5,M,,0000*67
$GPGSA,A,3,09,27,04,14,15,12,25,17,,,,,1.7,1.0,1.4*3B
$GPRMC,071234.000,A,5350.4917,N,01042.4931,E,19.28,174.70,190912,,,A*58
$GPGGA,071235.000,5350.4862,N,01042.4940,E,1,08,1.0,14.9,M,45.5,M,,0000*6A
$GPGSA,A,3,09,27,04,14,15,12,25,17,,,,,1.7,1.0,1.4*3B
$GPRMC,071235.000,A,5350.4862,N,01042.4940,E,19.90,174.90,190912,,,A*51
$GPGGA,071236.000,5350.4807,N,01042.4947,E,1,08,1.0,14.6,M,45.5,M,,0000*62
$GPGSA,A,3,09,27,04,14,15,12,25,17,,,,,1.7,1.0,1.4*3B
$GPGSV,3,1,11,12,68,250,24,09,62,130,41,27,53,129,42,14,35,304,29*7D
$GPGSV,3,2,11,25,28,252,30,17,23,045,42,04,16,092,29,15,10,180,31*7E
$GPGSV,3,3,11,22,05,275,29,02,05,128,27,32,02,357,*4C
$GPRMC,071236.000,A,5350.4807,N,01042.4947,E,20.24,175.32,190912,,,A*5A
$GPGGA,071237.000,5350.4750,N,01042.4955,E,1,08,1.0,14.3,M,45.5,M,,0000*68
$GPGSA,A,3,09,27,04,14,15,12,25,17,,,,,1.7,1.0,1.4*3B
$GPRMC,071237.000,A,5350.4750,N,01042.4955,E,20.67,175.44,190912,,,A*53
$GPGGA,071238.000,5350.4691,N,01042.4965,E,1,08,1.0,14.1,M,45.5,M,,0000*6A
$GPGSA,A,3,09,27,04,14,15,12,25,17,,,,,1.7,1.0,1.4*3B
$GPRMC,071238.000,A,5350.4691,N,01042.4965,E,21.33,174.54,190912,,,A*53
$GPGGA,071239.000,5350.4632,N,01042.4975,E,1,08,1.0,13.8,M,45.5,M,,0000*6D
$GPGSA,A,3,09,27,04,14,15,12,25,17,,,,,1.7,1.0,1.4*3B
$GPRMC,071239.000,A,5350.4632,N,01042.4975,E,21.47,174.17,190912,,,A*5E
$GPGGA,071240.000,5350.4573,N,01042.4986,E,1,08,1.0,13.6,M,45.5,M,,0000*67
$GPGSA,A,3,09,27,04,14,15,12,25,17,,,,,1.7,1.0,1.4*3B
$GPRMC,071240.000,A,5350.4573,N,01042.4986,E,21.48,174.43,190912,,,A*54
$GPGGA,071241.000,5350.4515,N,01042.4995,E,1,07,1.0,13.3,M,45.5,M,,0000*6E
$GPGSA,A,3,09,27,04,14,15,25,17,,,,,,1.9,1.0,1.6*34
$GPGSV,3,1,11,12,68,250,24,09,62,130,41,27,53,129,42,14,35,304,27*73
$GPGSV,3,2,11,25,28,252,23,17,23,045,44,04,16,092,34,15,10,180,31*76
$GPGSV,3,3,11,22,05,275,28,02,05,128,23,32,02,357,22*49
$GPRMC,071241.000,A,5350.4515,N,01042.4995,E,21.06,175.24,190912,,,A*5D
$GPGGA,071242.000,5350.4457,N,01042.5004,E,1,07,1.0,13.1,M,45.5,M,,0000*68
$GPGSA,A,3,09,27,04,14,15,25,17,,,,,,1.9,1.0,1.6*34
$GPRMC,071242.000,A,5350.4457,N,01042.5004,E,20.83,175.35,190912,,,A*55
$GPGGA,071243.000,5350.4399,N,01042.5011,E,1,07,1.2,12.9,M,45.5,M,,0000*63
$GPGSA,A,3,09,27,04,15,12,25,17,,,,,,1.8,1.2,1.4*33
$GPRMC,071243.000,A,5350.4399,N,01042.5011,E,20.96,176.02,190912,,,A*56
$GPGGA,071244.000,5350.4340,N,01042.5022,E,1,08,1.0,12.7,M,45.5,M,,0000*63
$GPGSA,A,3,09,27,04,14,15,12,25,17,,,,,1.7,1.0,1.4*3B
$GPRMC,071244.000,A,5350.4340,N,01042.5022,E,21.48,174.31,190912,,,A*55
$GPGGA,071245.000,5350.4278,N,01042.5035,E,1,08,1.0,12.6,M,45.5,M,,0000*6F
$GPGSA,A,3,09,27,04,14,15,12,25,17,,,,,1.7,1.0,1.4*3B
$GPRMC,071245.000,A,5350.4278,N,01042.5035,E,22.34,172.48,190912,,,A*58
$GPGGA,071246.000,5350.4216,N,01042.5054,E,1,08,1.0,12.6,M,45.5,M,,0000*63
$GPGSA,A,3,09,27,04,14,15,12,25,17,,,,,1.7,1.0,1.4*3B
$GPGSV,3,1,11,12,68,250,27,09,62,130,41,27,53,129,43,14,35,304,32*75
$GPGSV,3,2,11,25,28,252,29,17,23,045,43,04,16,091,41,15,10,180,26*7C
$GPGSV,3,3,11,22,05,275,22,02,05,128,29,32,02,357,22*49
$GPRMC,071246.000,A,5350.4216,N,01042.5054,E,22.98,170.16,190912,,,A*5B
$GPGGA,071247.000,5350.4154,N,01042.5076,E,1,08,1.0,12.5,M,45.5,M,,0000*64
$GPGSA,A,3,09,27,04,14,15,12,25,17,,,,,1.7,1.0,1.4*3B
$GPRMC,071247.000,A,5350.4154,N,01042.5076,E,22.93,167.96,190912,,,A*5A
$GPGGA,071248.000,5350.4092,N,01042.5107,E,1,08,1.0,12.4,M,45.5,M,,0000*66
$GPGSA,A,3,09,27,04,14,15,12,25,17,,,,,1.7,1.0,1.4*3B
$GPRMC,071248.000,A,5350.4092,N,01042.5107,E,23.16,163.23,190912,,,A*5F
$GPGGA,071249.000,5350.4031,N,01042.5145,E,1,07,1.0,12.4,M,45.5,M,,0000*67
$GPGSA,A,3,09,27,14,15,12,25,17,,,,,,1.8,1.0,1.5*31
$GPRMC,071249.000,A,5350.4031,N,01042.5145,E,23.53,159.71,190912,,,A*5E
$GPGGA,071250.000,5350.3969,N,01042.5190,E,1,06,1.5,12.4,M,45.5,M,,0000*60
$GPGSA,A,3,09,27,14,12,25,17,,,,,,,3.1,1.5,2.6*3B
$GPRMC,071250.000,A,5350.3969,N,01042.5190,E,24.13,156.53,190912,,,A*51
$GPGGA,071251.000,5350.3908,N,01042.5241,E,1,07,1.3,12.5,M,45.5,M,,0000*6F
$GPGSA,A,3,09,27,04,14,12,25,17,,,,,,2.3,1.3,1.9*36
$GPGSV,3,1,11,12,68,250,36,09,62,130,41,27,53,129,42,14,35,304,31*77
$GPGSV,3,2,11,25,28,252,29,17,23,045,41,04,16,091,35,15,10,180,*79
$GPGSV,3,3,11,22,05,275,17,02,05,128,27,32,02,357,23*40
$GPRMC,071251.000,A,5350.3908,N,01042.5241,E,24.60,153.38,190912,,,A*54
$GPGGA,071252.000,5350.3850,N,01042.5294,E,1,07,1.3,12.5,M,45.5,M,,0000*68
$GPGSA,A,3,09,27,04,14,12,25,17,,,,,,2.3,1.3,1.9*36
$GPRMC,071252.000,A,5350.3850,N,01042.5294,E,23.81,151.52,190912,,,A*55
$GPGGA,071253.000,5350.3796,N,01042.5349,E,1,07,1.3,12.6,M,45.5,M,,0000*6E
$GPGSA,A,3,09,27,04,14,12,25,17,,,,,,2.3,1.3,1.9*36
$GPRMC,071253.000,A,5350.3796,N,01042.5349,E,22.71,149.25,190912,,,A*57
$GPGGA,071254.000,5350.3745,N,01042.5403,E,1,07,1.3,12.7,M,45.5,M,,0000*6F
$GPGSA,A,3,09,27,04,14,12,25,17,,,,,,2.3,1.3,1.9*36
$GPRMC,071254.000,A,5350.3745,N,01042.5403,E,21.61,147.84,190912,,,A*50
$GPGGA,071255.000,5350.3697,N,01042.5453,E,1,07,1.3,12.8,M,45.5,M,,0000*6A
$GPGSA,A,3,09,27,04,14,12,25,17,,,,,,2.3,1.3,1.9*36
$GPRMC,071255.000,A,5350.3697,N,01042.5453,E,20.19,147.64,190912,,,A*5A
$GPGGA,071256.000,5350.3655,N,01042.5499,E,1,07,1.3,12.8,M,45.5,M,,0000*61
$GPGSA,A,3,09,27,04,14,12,25,17,,,,,,2.3,1.3,1.9*36
$GPGSV,3,1,11,12,68,250,34,09,62,130,40,27,53,129,41,14,35,304,24*73
$GPGSV,3,2,11,25,28,252,27,17,23,045,40,04,16,091,36,15,10,180,*75
$GPGSV,3,3,11,22,05,275,16,02,05,128,20,32,02,357,18*4E
$GPRMC,071256.000,A,5350.3655,N,01042.5499,E,18.02,147.29,190912,,,A*59
$GPGGA,071257.000,5350.3617,N,01042.5541,E,1,07,1.3,12.8,M,45.5,M,,0000*62
$GPGSA,A,3,09,27,04,14,12,25,17,,,,,,2.3,1.3,1.9*36
$GPRMC,071257.000,A,5350.3617,N,01042.5541,E,15.98,146.19,190912,,,A*56
$GPGGA,071258.000,5350.3586,N,01042.5577,E,1,07,1.3,12.8,M,45.5,M,,0000*63
$GPGSA,A,3,09,27,04,14,12,25,17,,,,,,2.3,1.3,1.9*36
$GPRMC,071258.000,A,5350.3586,N,01042.5577,E,13.44,145.93,190912,,,A*51
$GPGGA,071259.000,5350.3560,N,01042.5605,E,1,07,1.3,12.8,M,45.5,M,,0000*6C
$GPGSA,A,3,09,27,04,14,12,25,17,,,,,,2.3,1.3,1.9*36
$GPRMC,071259.000,A,5350.3560,N,01042.5605,E,10.57,147.25,190912,,,A*50
$GPGGA,071300.000,5350.3541,N,01042.5625,E,1,07,1.3,12.8,M,45.5,M,,0000*60
$GPGSA,A,3,09,27,04,14,12,25,17,,,,,,2.3,1.3,1.9*36
$GPRMC,071300.000,A,5350.3541,N,01042.5625,E,7.66,148.37,190912,,,A*64
$GPGGA,071301.000,5350.3529,N,01042.5639,E,1,07,1.3,12.9,M,45.5,M,,0000*63
$GPGSA,A,3,09,27,04,14,12,25,17,,,,,,2.3,1.3,1.9*36
$GPGSV,3,1,11,12,68,250,29,09,62,130,39,27,53,129,40,14,35,304,32*77
$GPGSV,3,2,11,25,28,252,25,17,23,045,37,04,16,091,34,15,10,180,*75
$GPGSV,3,3,11,22,05,275,16,02,05,128,33,32,02,357,26*41
$GPRMC,071301.000,A,5350.3529,N,01042.5639,E,4.78,143.52,190912,,,A*62
$GPGGA,071302.000,5350.3523,N,01042.5647,E,1,07,1.3,12.8,M,45.5,M,,0000*62
$GPGSA,A,3,09,27,04,14,12,25,17,,,,,,2.3,1.3,1.9*36
$GPRMC,071302.000,A,5350.3523,N,01042.5647,E,2.40,145.37,190912,,,A*6A
$GPGGA,071303.000,5350.3520,N,01042.5649,E,1,07,1.3,12.8,M,45.5,M,,0000*6E
$GPGSA,A,3,09,27,04,14,12,25,17,,,,,,2.3,1.3,1.9*36
$GPRMC,071316.000,A,5350.3511,N,01042.5663,E,1.79,141.96,190912,,,A*6E
$GPGGA,071317.000,5350.3502,N,01042.5672,E,1,07,1.3,9.4,M,45.5,M,,0000*55
$GPGSA,A,3,09,27,04,14,12,25,17,,,,,,2.3,1.3,1.9*36
$GPRMC,071317.000,A,5350.3502,N,01042.5672,E,4.08,148.35,190912,,,A*6E
$GPGGA,071318.000,5350.3487,N,01042.5687,E,1,07,1.3,9.0,M,45.5,M,,0000*58
$GPGSA,A,3,09,27,04,14,12,25,17,,,,,,2.3,1.3,1.9*36
$GPRMC,071318.000,A,5350.3487,N,01042.5687,E,6.35,149.14,190912,,,A*69
$GPGGA,071319.000,5350.3467,N,01042.5707,E,1,07,1.3,8.6,M,45.5,M,,0000*59
$GPGSA,A,3,09,27,04,14,12,25,17,,,,,,2.3,1.3,1.9*36
$GPRMC,071319.000,A,5350.3467,N,01042.5707,E,8.55,148.36,190912,,,A*66
$GPGGA,071320.000,5350.3443,N,01042.5734,E,1,07,1.3,8.2,M,45.5,M,,0000*51
$GPGSA,A,3,09,27,04,14,12,25,17,,,,,,2.3,1.3,1.9*36
$GPRMC,071320.000,A,5350.3443,N,01042.5734,E,10.61,146.54,190912,,,A*5E
$GPGGA,071321.000,5350.3416,N,01042.5764,E,1,07,1.3,7.7,M,45.5,M,,0000*5F
$GPGSA,A,3,09,27,04,14,12,25,17,,,,,,2.3,1.3,1.9*36
$GPGSV,3,1,11,12,69,250,27,09,62,130,34,27,52,129,38,14,36,304,25*7E
$GPGSV,3,2,11,25,28,252,24,17,23,045,44,04,16,091,38,15,10,180,*7C
$GPGSV,3,3,11,02,05,128,32,22,05,275,17,32,02,357,30*46
$GPRMC,071321.000,A,5350.3416,N,01042.5764,E,11.97,147.36,190912,,,A*57
$GPGGA,071322.000,5350.3385,N,01042.5801,E,1,07,1.3,7.3,M,45.5,M,,0000*59
$GPGSA,A,3,09,27,04,14,12,25,17,,,,,,2.3,1.3,1.9*36
$GPRMC,071322.000,A,5350.3385,N,01042.5801,E,13.52,144.53,190912,,,A*5E
$GPGGA,071323.000,5350.3353,N,01042.5846,E,1,07,1.3,6.9,M,45.5,M,,0000*5B
$GPGSA,A,3,09,27,04,14,12,25,17,,,,,,2.3,1.3,1.9*36
$GPRMC,071323.000,A,5350.3353,N,01042.5846,E,15.18,141.22,190912,,,A*5C
$GPGGA,071324.000,5350.3317,N,01042.5895,E,1,07,1.3,6.6,M,45.5,M,,0000*5D
$GPGSA,A,3,09,27,04,14,12,25,17,,,,,,2.3,1.3,1.9*36
$GPRMC,071324.000,A,5350.3317,N,01042.5895,E,16.51,140.94,190912,,,A*57
$GPGGA,071325.000,5350.3280,N,01042.5947,E,1,07,1.3,6.5,M,45.5,M,,0000*5E
$GPGSA,A,3,09,27,04,14,12,25,17,,,,,,2.3,1.3,1.9*36
$GPRMC,071325.000,A,5350.3280,N,01042.5947,E,17.41,141.93,190912,,,A*51
$GPGGA,071326.000,5350.3238,N,01042.5998,E,1,07,1.3,6.4,M,45.5,M,,0000*5D
$GPGSA,A,3,09,27,04,14,12,25,17,,,,,,2.3,1.3,1.9*36
$GPGSV,3,1,11,12,69,250,30,09,62,130,36,27,52,129,38,14,36,304,25*7A
$GPGSV,3,2,11,25,28,252,24,17,23,045,44,04,16,091,36,15,10,180,*72
$GPGSV,3,3,11,02,05,128,24,22,05,275,17,32,02,357,20*40
$GPRMC,071326.000,A,5350.3238,N,01042.5998,E,18.44,144.54,190912,,,A*57
$GPGGA,071327.000,5350.3193,N,01042.6049,E,1,07,1.3,6.4,M,45.5,M,,0000*58
$GPGSA,A,3,09,27,04,14,12,25,17,,,,,,2.3,1.3,1.9*36
$GPRMC,071327.000,A,5350.3193,N,01042.6049,E,19.40,147.54,190912,,,A*54
$GPGGA,071328.000,5350.3145,N,01042.6101,E,1,07,1.3,6.3,M,45.5,M,,0000*56
$GPGSA,A,3,09,27,04,14,12,25,17,,,,,,2.3,1.3,1.9*36
$GPRMC,071328.000,A,5350.3145,N,01042.6101,E,20.39,147.54,190912,,,A*59
$GPGGA,071329.000,5350.3096,N,01042.6155,E,1,07,1.3,6.1,M,45.5,M,,0000*5B
$GPGSA,A,3,09,27,04,14,12,25,17,,,,,,2.3,1.3,1.9*36
$GPRMC,071329.000,A,5350.3096,N,01042.6155,E,20.92,148.07,190912,,,A*5E
$GPGGA,071330.000,5350.3046,N,01042.6209,E,1,07,1.3,6.0,M,45.5,M,,0000*55
$GPGSA,A,3,09,27,04,14,12,25,17,,,,,,2.3,1.3,1.9*36
$GPRMC,071330.000,A,5350.3046,N,01042.6209,E,21.37,148.58,190912,,,A*55
$GPGGA,071331.000,5350.2994,N,01042.6264,E,1,07,1.3,5.9,M,45.5,M,,0000*52
$GPGSA,A,3,09,27,04,14,12,25,17,,,,,,2.3,1.3,1.9*36
$GPGSV,3,1,11,12,69,250,22,09,62,130,38,27,52,129,38,14,36,304,20*72
$GPGSV,3,2,11,25,28,252,21,17,23,045,44,04,16,091,33,15,10,180,*72
$GPGSV,3,3,11,02,05,128,34,22,05,275,17,32,02,357,19*4B
$GPRMC,071331.000,A,5350.2994,N,01042.6264,E,21.90,148.65,190912,,,A*5B
$GPGGA,071332.000,5350.2939,N,01042.6319,E,1,07,1.3,5.5,M,45.5,M,,0000*51
$GPGSA,A,3,09,27,04,14,12,25,17,,,,,,2.3,1.3,1.9*36
$GPRMC,071332.000,A,5350.2939,N,01042.6319,E,22.59,149.61,190912,,,A*57
$GPGGA,071333.000,5350.2883,N,01042.6374,E,1,06,1.3,5.0,M,45.5,M,,0000*5F
$GPGSA,A,3,09,27,04,14,25,17,,,,,,,2.6,1.3,2.2*38
$GPRMC,071333.000,A,5350.2883,N,01042.6374,E,23.13,150.79,190912,,,A*53
$GPGGA,071334.000,5350.2825,N,01042.6434,E,1,06,1.3,4.6,M,45.5,M,,0000*50
$GPGSA,A,3,09,27,04,14,25,17,,,,,,,2.6,1.3,2.2*38
$GPRMC,071334.000,A,5350.2825,N,01042.6434,E,24.24,148.85,190912,,,A*52
$GPGGA,071335.000,5350.2767,N,01042.6497,E,1,07,1.3,4.5,M,45.5,M,,0000*53
$GPGSA,A,3,09,27,04,14,12,25,17,,,,,,2.3,1.3,1.9*36
$GPRMC,071335.000,A,5350.2767,N,01042.6497,E,24.54,148.06,190912,,,A*5F
$GPGGA,071336.000,5350.2709,N,01042.6561,E,1,07,1.3,4.4,M,45.5,M,,0000*51
$GPGSA,A,3,09,27,04,14,12,25,17,,,,,,2.3,1.3,1.9*36
$GPGSV,3,1,11,12,69,250,24,09,62,130,38,27,52,129,39,14,36,304,19*7F
$GPGSV,3,2,11,25,28,252,21,17,23,045,43,04,16,091,36,15,10,180,*70
$GPGSV,3,3,11,02,05,128,31,22,05,275,16,32,02,357,19*4F
$GPRMC,071336.000,A,5350.2709,N,01042.6561,E,24.65,148.08,190912,,,A*50
$GPGGA,071337.000,5350.2652,N,01042.6622,E,1,08,1.0,4.2,M,45.5,M,,0000*51
$GPGSA,A,3,09,27,04,14,12,15,25,17,,,,,1.7,1.0,1.4*3B
$GPRMC,071337.000,A,5350.2652,N,01042.6622,E,23.91,148.58,190912,,,A*53
$GPGGA,071338.000,5350.2595,N,01042.6684,E,1,08,1.0,4.0,M,45.5,M,,0000*58
$GPGSA,A,3,09,27,04,14,12,15,25,17,,,,,1.7,1.0,1.4*3B
$GPRMC,071338.000,A,5350.2595,N,01042.6684,E,23.96,148.28,190912,,,A*58
$GPGGA,071339.000,5350.2538,N,01042.6746,E,1,08,1.0,3.8,M,45.5,M,,0000*5E
$GPGSA,A,3,09,27,04,14,12,15,25,17,,,,,1.7,1.0,1.4*3B
$GPRMC,071339.000,A,5350.2538,N,01042.6746,E,23.92,148.23,190912,,,A*5E
$GPGGA,071340.000,5350.2481,N,01042.6807,E,1,07,1.3,3.7,M,45.5,M,,0000*5A
$GPGSA,A,3,09,27,04,14,12,25,17,,,,,,2.3,1.3,1.9*36
$GPRMC,071340.000,A,5350.2481,N,01042.6807,E,23.77,148.07,190912,,,A*54
$GPGGA,071341.000,5350.2426,N,01042.6867,E,1,08,1.0,3.6,M,45.5,M,,0000*5D
$GPGSA,A,3,09,27,04,14,12,15,25,17,,,,,1.7,1.0,1.4*3B
$GPGSV,3,1,11,12,69,251,29,09,62,130,41,27,52,129,40,14,36,304,24*7D
$GPGSV,3,2,11,25,28,252,22,17,23,045,40,04,16,091,32,15,10,180,21*77
$GPGSV,3,3,11,02,05,128,27,22,05,275,14,32,02,357,18*4B
$GPRMC,071341.000,A,5350.2426,N,01042.6867,E,23.48,148.43,190912,,,A*52
$GPGGA,071342.000,5350.2369,N,01042.6927,E,1,08,1.0,3.4,M,45.5,M,,0000*55
$GPGSA,A,3,09,27,04,14,12,15,25,17,,,,,1.7,1.0,1.4*3B
$GPRMC,071342.000,A,5350.2369,N,01042.6927,E,23.63,148.59,190912,,,A*5A
$GPGGA,071343.000,5350.2310,N,01042.6991,E,1,08,1.0,3.2,M,45.5,M,,0000*51
$GPGSA,A,3,09,27,04,14,12,15,25,17,,,,,1.7,1.0,1.4*3B
$GPRMC,071343.000,A,5350.2310,N,01042.6991,E,24.85,148.27,190912,,,A*5E
$GPGGA,071344.000,5350.2249,N,01042.7058,E,1,08,1.0,3.0,M,45.5,M,,0000*54
$GPGSA,A,3,09,27,04,14,12,15,25,17,,,,,1.7,1.0,1.4*3B
$GPRMC,071344.000,A,5350.2249,N,01042.7058,E,25.94,147.76,190912,,,A*53
$GPGGA,071345.000,5350.2186,N,01042.7128,E,1,08,1.0,2.9,M,45.5,M,,0000*5B
$GPGSA,A,3,09,27,04,14,12,15,25,17,,,,,1.7,1.0,1.4*3B
$GPRMC,071345.000,A,5350.2186,N,01042.7128,E,26.90,147.22,190912,,,A*52
$GPGGA,071346.000,5350.2122,N,01042.7202,E,1,08,1.0,2.8,M,45.5,M,,0000*5C
$GPGSA,A,3,09,27,04,14,12,15,25,17,,,,,1.7,1.0,1.4*3B
$GPGSV,3,1,11,12,69,251,26,09,62,130,41,27,52,129,41,14,36,304,21*76
$GPGSV,3,2,11,25,29,252,26,17,23,045,40,04,16,091,34,15,10,180,20*75
$GPGSV,3,3,11,02,05,128,26,22,05,275,14,32,02,357,17*45
$GPRMC,071346.000,A,5350.2122,N,01042.7202,E,27.50,146.59,190912,,,A*54
$GPGGA,071347.000,5350.2058,N,01042.7275,E,1,08,1.0,2.9,M,45.5,M,,0000*50
$GPGSA,A,3,09,27,04,14,12,15,25,17,,,,,1.7,1.0,1.4*3B
$GPRMC,071347.000,A,5350.2058,N,01042.7275,E,27.77,146.47,190912,,,A*53
$GPGGA,071348.000,5350.1993,N,01042.7353,E,1,08,1.0,3.0,M,45.5,M,,0000*5F
$GPGSA,A,3,09,27,04,14,12,15,25,17,,,,,1.7,1.0,1.4*3B
$GPRMC,071348.000,A,5350.1993,N,01042.7353,E,28.49,145.55,190912,,,A*56
$GPGGA,071349.000,5350.1928,N,01042.7432,E,1,07,1.1,3.1,M,45.5,M,,0000*51
$GPGSA,A,3,09,27,04,14,12,15,17,,,,,,1.8,1.1,1.4*32
$GPRMC,071349.000,A,5350.1928,N,01042.7432,E,28.81,144.95,190912,,,A*5E
$GPGGA,071350.000,5350.1863,N,01042.7511,E,1,06,2.2,3.0,M,45.5,M,,0000*57
$GPGSA,A,3,09,27,04,14,12,17,,,,,,,4.0,2.2,3.3*3E
$GPRMC,071350.000,A,5350.1863,N,01042.7511,E,28.83,145.15,190912,,,A*53
$GPGGA,071351.000,5350.1796,N,01042.7589,E,1,06,2.2,2.8,M,45.5,M,,0000*5B
$GPGSA,A,3,09,27,04,14,12,17,,,,,,,4.0,2.2,3.3*3E
$GPGSV,3,1,11,12,69,251,27,09,62,130,42,27,52,129,41,14,36,304,19*7F
$GPGSV,3,2,11,25,29,252,,17,23,045,43,04,16,091,42,15,10,180,*71
$GPGSV,3,3,11,02,05,128,33,22,05,275,16,32,02,357,*45
$GPRMC,071351.000,A,5350.1796,N,01042.7589,E,28.87,145.68,190912,,,A*58
$GPGGA,071352.000,5350.1730,N,01042.7666,E,1,06,2.2,2.5,M,45.5,M,,0000*5B
$GPGSA,A,3,09,27,04,14,12,17,,,,,,,4.0,2.2,3.3*3E
$GPRMC,071352.000,A,5350.1730,N,01042.7666,E,28.95,146.26,190912,,,A*5F
$GPGGA,071353.000,5350.1663,N,01042.7742,E,1,06,2.2,2.2,M,45.5,M,,0000*5D
$GPGSA,A,3,09,27,04,14,12,17,,,,,,,4.0,2.2,3.3*3E
$GPRMC,071353.000,A,5350.1663,N,01042.7742,E,28.95,146.30,190912,,,A*59
$GPGGA,071354.000,5350.1597,N,01042.7818,E,1,06,2.2,2.0,M,45.5,M,,0000*50
$GPGSA,A,3,09,27,04,14,12,17,,,,,,,4.0,2.2,3.3*3E
$GPRMC,071354.000,A,5350.1597,N,01042.7818,E,28.67,146.38,190912,,,A*53
$GPGGA,071355.000,5350.1530,N,01042.7889,E,1,06,2.2,1.6,M,45.5,M,,0000*51
$GPGSA,A,3,09,27,04,14,12,17,,,,,,,4.0,2.2,3.3*3E
$GPRMC,071355.000,A,5350.1530,N,01042.7889,E,28.04,147.88,190912,,,A*58
$GPGGA,071356.000,5350.1464,N,01042.7962,E,1,06,2.2,1.2,M,45.5,M,,0000*52
$GPGSA,A,3,09,27,04,14,12,17,,,,,,,4.0,2.2,3.3*3E
$GPGSV,3,1,11,12,69,251,24,09,62,130,42,27,52,129,41,14,36,304,21*77
$GPGSV,3,2,11,25,29,252,,17,23,045,43,04,16,091,34,15,10,180,*70
$GPGSV,3,3,11,02,05,128,14,22,05,275,15,32,02,357,*43
$GPRMC,071356.000,A,5350.1464,N,01042.7962,E,28.35,147.64,190912,,,A*5F
$GPGGA,071357.000,5350.1397,N,01042.8033,E,1,07,1.3,0.7,M,45.5,M,,0000*5D
$GPGSA,A,3,09,27,04,14,12,25,17,,,,,,2.3,1.3,1.9*36
$GPRMC,071357.000,A,5350.1397,N,01042.8033,E,28.23,148.01,190912,,,A*5C
$GPGGA,071358.000,5350.1331,N,01042.8102,E,1,07,1.3,0.2,M,45.5,M,,0000*58
$GPGSA,A,3,09,27,04,14,12,25,17,,,,,,2.3,1.3,1.9*36
$GPRMC,071358.000,A,5350.1331,N,01042.8102,E,27.89,148.66,190912,,,A*52
$GPGGA,071359.000,5350.1266,N,01042.8173,E,1,07,1.3,-0.2,M,45.5,M,,0000*71
$GPGSA,A,3,09,27,04,14,12,25,17,,,,,,2.3,1.3,1.9*36
$GPRMC,071359.000,A,5350.1266,N,01042.8173,E,27.47,147.90,190912,,,A*52
$GPGGA,071400.000,5350.1201,N,01042.8242,E,1,07,1.3,-0.6,M,45.5,M,,0000*7E
$GPGSA,A,3,09,27,04,14,12,25,17,,,,,,2.3,1.3,1.9*36
$GPRMC,071400.000,A,5350.1201,N,01042.8242,E,27.20,148.72,190912,,,A*5B
$GPGGA,071401.000,5350.1138,N,01042.8307,E,1,08,1.0,-0.9,M,45.5,M,,0000*75
$GPGSA,A,3,09,27,04,14,12,25,17,15,,,,,1.7,1.0,1.4*3B
$GPGSV,3,1,11,12,69,251,24,09,62,130,42,27,52,129,41,14,36,304,22*74
$GPGSV,3,2,11,25,29,252,23,17,23,045,33,04,16,091,25,15,10,180,20*74
$GPGSV,3,3,11,02,05,128,14,22,05,275,16,32,02,357,16*47
$GPRMC,071401.000,A,5350.1138,N,01042.8307,E,26.50,149.63,190912,,,A*54
$GPGGA,071402.000,5350.1075,N,01042.8372,E,1,08,1.0,-1.5,M,45.5,M,,0000*71
$GPGSA,A,3,09,27,04,14,12,25,17,15,,,,,1.7,1.0,1.4*3B
$GPRMC,071402.000,A,5350.1075,N,01042.8372,E,26.11,148.75,190912,,,A*5E
$GPGGA,071403.000,5350.1016,N,01042.8437,E,1,08,1.0,-2.1,M,45.5,M,,0000*74
$GPGSA,A,3,09,27,04,14,12,25,17,15,,,,,1.7,1.0,1.4*3B
$GPRMC,071403.000,A,5350.1016,N,01042.8437,E,25.03,147.95,190912,,,A*5D
$GPGGA,071404.000,5350.0956,N,01042.8505,E,1,08,1.0,-2.3,M,45.5,M,,0000*7D
$GPGSA,A,3,09,27,04,14,12,25,17,15,,,,,1.7,1.0,1.4*3B
$GPRMC,071404.000,A,5350.0956,N,01042.8505,E,25.29,146.84,190912,,,A*5F
$GPGGA,071405.000,5350.0900,N,01042.8570,E,1,08,1.0,-2.7,M,45.5,M,,0000*79
$GPGSA,A,3,09,27,04,14,12,25,17,15,,,,,1.7,1.0,1.4*3B
$GPRMC,071405.000,A,5350.0900,N,01042.8570,E,24.26,146.79,190912,,,A*53
$GPGGA,071406.000,5350.0846,N,01042.8631,E,1,08,1.0,-3.0,M,45.5,M,,0000*79
$GPGSA,A,3,09,27,04,14,12,25,17,15,,,,,1.7,1.0,1.4*3B
$GPGSV,3,1,11,12,69,251,26,09,62,130,42,27,52,129,41,14,36,304,30*75
$GPGSV,3,2,11,25,29,252,23,17,23,045,30,04,16,091,26,15,10,180,20*74
$GPGSV,3,3,11,02,05,128,15,22,05,275,16,32,02,357,15*45
$GPRMC,071406.000,A,5350.0846,N,01042.8631,E,22.53,147.60,190912,,,A*58
$GPGGA,071407.000,5350.0795,N,01042.8683,E,1,08,1.0,-3.3,M,45.5,M,,0000*73
$GPGSA,A,3,09,27,04,14,12,25,17,15,,,,,1.7,1.0,1.4*3B
$GPRMC,071407.000,A,5350.0795,N,01042.8683,E,20.77,150.11,190912,,,A*55
$GPGGA,071408.000,5350.0751,N,01042.8729,E,1,08,1.0,-3.6,M,45.5,M,,0000*70
$GPGSA,A,3,09,27,04,14,12,25,17,15,,,,,1.7,1.0,1.4*3B
$GPRMC,071408.000,A,5350.0751,N,01042.8729,E,18.20,149.83,190912,,,A*59
$GPGGA,071409.000,5350.0708,N,01042.8763,E,1,08,1.0,-3.7,M,45.5,M,,0000*72
$GPGSA,A,3,09,27,04,14,12,25,17,15,,,,,1.7,1.0,1.4*3B
$GPRMC,071409.000,A,5350.0708,N,01042.8763,E,16.25,156.34,190912,,,A*53
$GPGGA,071410.000,5350.0673,N,01042.8794,E,1,08,1.0,-3.8,M,45.5,M,,0000*70
$GPGSA,A,3,09,27,04,14,12,25,17,15,,,,,1.7,1.0,1.4*3B
$GPRMC,071410.000,A,5350.0673,N,01042.8794,E,13.87,155.28,190912,,,A*5D
$GPGGA,071411.000,5350.0644,N,01042.8823,E,1,08,1.0,-3.7,M,45.5,M,,0000*79
$GPGSA,A,3,09,27,04,14,12,25,17,15,,,,,1.7,1.0,1.4*3B
$GPGSV,3,1,11,12,69,251,34,09,61,130,41,27,52,130,41,14,36,303,28*70
$GPGSV,3,2,11,25,29,252,24,17,22,045,30,04,16,091,38,15,10,180,21*7C
$GPGSV,3,3,11,02,06,128,30,22,05,274,18,32,02,356,13*49
$GPRMC,071411.000,A,5350.0644,N,01042.8823,E,11.32,151.15,190912,,,A*5D
$GPGGA,071412.000,5350.0622,N,01042.8848,E,1,08,1.0,-3.6,M,45.5,M,,0000*76
$GPGSA,A,3,09,27,04,14,12,25,17,15,,,,,1.7,1.0,1.4*3B
$GPRMC,071412.000,A,5350.0622,N,01042.8848,E,9.23,148.28,190912,,,A*6C
$GPGGA,071413.000,5350.0606,N,01042.8867,E,1,07,1.0,-3.5,M,45.5,M,,0000*70
$GPGSA,A,3,09,27,14,12,25,17,15,,,,,,1.8,1.0,1.5*31
$GPRMC,071413.000,A,5350.0606,N,01042.8867,E,6.29,146.97,190912,,,A*69
$GPGGA,071414.000,5350.0599,N,01042.8880,E,1,06,1.2,-3.2,M,45.5,M,,0000*7F
$GPGSA,A,3,09,27,14,12,17,15,,,,,,,1.9,1.2,1.5*35
$GPRMC,071414.000,A,5350.0599,N,01042.8880,E,3.25,140.75,190912,,,A*61
$GPGGA,071415.000,5350.0596,N,01042.8889,E,1,07,1.1,-2.9,M,45.5,M,,0000*70
$GPGSA,A,3,09,27,04,14,12,17,15,,,,,,1.8,1.1,1.4*32
$GPRMC,071415.000,A,5350.0596,N,01042.8889,E,1.36,125.69,190912,,,A*68
$GPGGA,071416.000,5350.0595,N,01042.8894,E,1,08,1.0,-2.5,M,45.5,M,,0000*7E
$GPGSA,A,3,09,27,04,14,12,25,17,15,,,,,1.7,1.0,1.4*3B
$GPGSV,3,1,11,12,69,251,35,09,61,130,41,27,52,130,30,14,36,303,24*7B
$GPGSV,3,2,11,25,29,252,27,17,22,045,41,04,16,091,29,15,09,180,24*74
$GPGSV,3,3,11,02,06,128,26,22,05,274,18,32,02,356,*4C
$GPRMC,071427.000,A,5350.0593,N,01042.8928,E,0.86,143.82,190912,,,A*69
$GPGGA,071428.000,5350.0587,N,01042.8938,E,1,07,1.3,1.4,M,45.5,M,,0000*54
$GPGSA,A,3,09,27,04,14,12,25,17,,,,,,2.4,1.3,1.9*31
$GPRMC,071428.000,A,5350.0587,N,01042.8938,E,3.06,145.93,190912,,,A*6F
$GPGGA,071429.000,5350.0576,N,01042.8955,E,1,07,1.3,1.8,M,45.5,M,,0000*5C
$GPGSA,A,3,09,27,04,14,12,25,17,,,,,,2.4,1.3,1.9*31
$GPRMC,071429.000,A,5350.0576,N,01042.8955,E,5.48,140.08,190912,,,A*60
$GPGGA,071430.000,5350.0561,N,01042.8983,E,1,07,1.3,2.1,M,45.5,M,,0000*53
$GPGSA,A,3,09,27,04,14,12,25,17,,,,,,2.4,1.3,1.9*31
$GPRMC,071430.000,A,5350.0561,N,01042.8983,E,8.18,135.57,190912,,,A*65
$GPGGA,071431.000,5350.0539,N,01042.9017,E,1,07,1.3,2.4,M,45.5,M,,0000*5F
$GPGSA,A,3,09,27,04,14,12,25,17,,,,,,2.4,1.3,1.9*31
$GPGSV,3,1,11,12,69,251,30,09,61,130,31,27,52,130,31,14,36,303,27*7B
$GPGSV,3,2,11,25,29,252,25,17,22,045,41,04,16,091,37,15,09,180,*7F
$GPGSV,3,3,11,02,06,128,24,22,05,274,16,32,02,356,*40
$GPRMC,071431.000,A,5350.0539,N,01042.9017,E,10.78,138.23,190912,,,A*5D
$GPGGA,071432.000,5350.0511,N,01042.9056,E,1,07,1.3,2.7,M,45.5,M,,0000*50
$GPGSA,A,3,09,27,04,14,12,25,17,,,,,,2.4,1.3,1.9*31
$GPRMC,071432.000,A,5350.0511,N,01042.9056,E,13.23,141.66,190912,,,A*53
$GPGGA,071433.000,5350.0477,N,01042.9097,E,1,07,1.3,3.0,M,45.5,M,,0000*5B
$GPGSA,A,3,09,27,04,14,12,25,17,,,,,,2.4,1.3,1.9*31
$GPRMC,071433.000,A,5350.0477,N,01042.9097,E,15.22,145.84,190912,,,A*51
$GPGGA,071434.000,5350.0440,N,01042.9138,E,1,07,1.3,3.2,M,45.5,M,,0000*5E
$GPGSA,A,3,09,27,04,14,12,25,17,,,,,,2.4,1.3,1.9*31
$GPRMC,071434.000,A,5350.0440,N,01042.9138,E,16.28,148.90,190912,,,A*57
$GPGGA,071435.000,5350.0399,N,01042.9175,E,1,07,1.3,3.7,M,45.5,M,,0000*50
$GPGSA,A,3,09,27,04,14,12,25,17,,,,,,2.4,1.3,1.9*31
$GPRMC,071435.000,A,5350.0399,N,01042.9175,E,16.86,152.74,190912,,,A*59
$GPGGA,071436.000,5350.0355,N,01042.9219,E,1,07,1.3,4.0,M,45.5,M,,0000*5A
$GPGSA,A,3,09,27,04,14,12,25,17,,,,,,2.4,1.3,1.9*31
$GPGSV,3,1,11,12,69,251,29,09,61,130,36,27,52,130,37,14,36,303,24*71
$GPGSV,3,2,11,25,29,252,22,17,22,045,34,04,16,091,30,15,09,180,*7D
$GPGSV,3,3,11,02,06,128,30,22,05,274,15,32,02,356,*46
$GPRMC,071436.000,A,5350.0355,N,01042.9219,E,18.61,151.33,190912,,,A*54
$GPGGA,071437.000,5350.0308,N,01042.9270,E,1,07,1.3,4.2,M,45.5,M,,0000*5E
$GPGSA,A,3,09,27,04,14,12,25,17,,,,,,2.4,1.3,1.9*31
$GPRMC,071437.000,A,5350.0308,N,01042.9270,E,20.16,147.74,190912,,,A*5D
$GPGGA,071438.000,5350.0259,N,01042.9324,E,1,07,1.3,4.3,M,45.5,M,,0000*55
$GPGSA,A,3,09,27,04,14,12,25,17,,,,,,2.4,1.3,1.9*31
$GPRMC,071438.000,A,5350.0259,N,01042.9324,E,21.34,148.35,190912,,,A*5C
$GPGGA,071439.000,5350.0205,N,01042.9381,E,1,07,1.3,4.5,M,45.5,M,,0000*54
$GPGSA,A,3,09,27,04,14,12,25,17,,,,,,2.4,1.3,1.9*31
$GPRMC,071439.000,A,5350.0205,N,01042.9381,E,22.82,148.55,190912,,,A*53
$GPGGA,071440.000,5350.0149,N,01042.9438,E,1,07,1.3,4.6,M,45.5,M,,0000*57
$GPGSA,A,3,09,27,04,14,12,25,17,,,,,,2.4,1.3,1.9*31
$GPRMC,071440.000,A,5350.0149,N,01042.9438,E,23.82,149.85,190912,,,A*5E
$GPGGA,071441.000,5350.0091,N,01042.9495,E,1,08,1.0,4.7,M,45.5,M,,0000*58
$GPGSA,A,3,09,27,04,14,12,25,15,17,,,,,1.7,1.0,1.4*3B
$GPGSV,3,1,11,12,69,251,33,09,61,130,37,27,52,130,38,14,36,303,29*79
$GPGSV,3,2,11,25,29,252,25,17,22,045,41,04,16,091,31,15,09,180,14*7C
$GPGSV,3,3,11,02,06,128,15,22,05,274,21,32,02,356,*46
$GPRMC,071441.000,A,5350.0091,N,01042.9495,E,24.33,150.56,190912,,,A*57
$GPGGA,071442.000,5350.0032,N,01042.9552,E,1,08,1.0,4.9,M,45.5,M,,0000*56
$GPGSA,A,3,09,27,04,14,12,25,15,17,,,,,1.7,1.0,1.4*3B
$GPRMC,071442.000,A,5350.0032,N,01042.9552,E,24.51,151.16,190912,,,A*56
$GPGGA,071443.000,5349.9972,N,01042.9610,E,1,08,1.0,5.0,M,45.5,M,,0000*56
$GPGSA,A,3,09,27,04,14,12,25,15,17,,,,,1.7,1.0,1.4*3B
$GPRMC,071443.000,A,5349.9972,N,01042.9610,E,24.65,150.46,190912,,,A*5D
$GPGGA,071444.000,5349.9913,N,01042.9669,E,1,08,1.0,5.3,M,45.5,M,,0000*5B
$GPGSA,A,3,09,27,04,14,12,25,15,17,,,,,1.7,1.0,1.4*3B
$GPRMC,071444.000,A,5349.9913,N,01042.9669,E,24.78,150.53,190912,,,A*5B
$GPGGA,071445.000,5349.9848,N,01042.9724,E,1,08,1.0,5.3,M,45.5,M,,0000*5D
$GPGSA,A,3,09,27,04,14,12,25,15,17,,,,,1.7,1.0,1.4*3B
$GPRMC,071445.000,A,5349.9848,N,01042.9724,E,25.98,153.73,190912,,,A*53
$GPGGA,071446.000,5349.9778,N,01042.9778,E,1,08,1.0,5.2,M,45.5,M,,0000*5A
$GPGSA,A,3,09,27,04,14,12,25,15,17,,,,,1.7,1.0,1.4*3B
$GPGSV,3,1,11,12,69,251,24,09,61,130,37,27,52,130,38,14,36,303,22*74
$GPGSV,3,2,11,25,29,252,26,17,22,045,29,04,17,091,27,15,09,180,12*71
$GPGSV,3,3,11,02,06,128,,22,05,274,18,32,02,356,*48
$GPRMC,071446.000,A,5349.9778,N,01042.9778,E,27.29,156.15,190912,,,A*58
$GPGGA,071447.000,5349.9707,N,01042.9828,E,1,07,1.1,5.3,M,45.5,M,,0000*56
$GPGSA,A,3,09,27,04,14,12,15,17,,,,,,1.8,1.1,1.4*32
$GPRMC,071447.000,A,5349.9707,N,01042.9828,E,27.84,158.03,190912,,,A*55
$GPGGA,071448.000,5349.9631,N,01042.9878,E,1,07,1.1,5.6,M,45.5,M,,0000*5D
$GPGSA,A,3,09,27,04,14,12,15,17,,,,,,1.8,1.1,1.4*32
$GPRMC,071448.000,A,5349.9631,N,01042.9878,E,29.27,158.86,190912,,,A*51
$GPGGA,071449.000,5349.9554,N,01042.9933,E,1,06,2.3,6.0,M,45.5,M,,0000*57
$GPGSA,A,3,09,27,04,14,12,17,,,,,,,4.1,2.3,3.4*39
$GPRMC,071449.000,A,5349.9554,N,01042.9933,E,29.95,157.73,190912,,,A*52
$GPGGA,071450.000,5349.9479,N,01042.9981,E,1,06,2.3,6.4,M,45.5,M,,0000*5C
$GPGSA,A,3,09,27,04,14,12,17,,,,,,,4.1,2.3,3.4*39
$GPRMC,071450.000,A,5349.9479,N,01042.9981,E,28.98,159.59,190912,,,A*57
$GPGGA,071451.000,5349.9406,N,01043.0026,E,1,06,2.3,7.0,M,45.5,M,,0000*5C
$GPGSA,A,3,09,27,04,14,12,17,,,,,,,4.1,2.3,3.4*39
$GPGSV,3,1,11,12,69,251,22,09,61,130,34,27,52,130,33,14,36,303,20*78
$GPGSV,3,2,11,25,29,252,,17,22,045,22,04,17,091,20,15,09,180,*7A
$GPGSV,3,3,11,02,06,128,,22,05,274,11,32,02,356,*41
$GPRMC,071451.000,A,5349.9406,N,01043.0026,E,28.04,160.94,190912,,,A*5C
$GPGGA,071452.000,5349.9332,N,01043.0072,E,1,05,3.9,7.6,M,45.5,M,,0000*50
$GPGSA,A,3,09,27,14,12,17,,,,,,,,8.6,3.9,7.6*3B
$GPRMC,071452.000,A,5349.9332,N,01043.0072,E,28.04,159.79,190912,,,A*57
$GPGGA,071453.000,5349.9260,N,01043.0121,E,1,06,2.3,8.2,M,45.5,M,,0000*53
$GPGSA,A,3,09,27,04,14,12,17,,,,,,,4.1,2.3,3.4*39
$GPRMC,071453.000,A,5349.9260,N,01043.0121,E,28.01,158.31,190912,,,A*5F
$GPGGA,071454.000,5349.9188,N,01043.0171,E,1,07,1.3,8.7,M,45.5,M,,0000*53
$GPGSA,A,3,09,27,04,14,25,12,17,,,,,,2.4,1.3,1.9*31
$GPRMC,071454.000,A,5349.9188,N,01043.0171,E,27.97,157.26,190912,,,A*51
$GPGGA,071455.000,5349.9118,N,01043.0217,E,1,07,1.3,9.2,M,45.5,M,,0000*5C
$GPGSA,A,3,09,27,04,14,25,12,17,,,,,,2.4,1.3,1.9*31
$GPRMC,071455.000,A,5349.9118,N,01043.0217,E,26.74,158.71,190912,,,A*5B
$GPGGA,071456.000,5349.9048,N,01043.0258,E,1,07,1.3,9.9,M,45.5,M,,0000*5B
$GPGSA,A,3,09,27,04,14,25,12,17,,,,,,2.4,1.3,1.9*31
$GPGSV,3,1,11,12,69,251,21,09,61,130,35,27,52,130,36,14,36,303,20*7F
$GPGSV,3,2,11,25,29,252,20,17,22,045,21,04,17,091,18,15,09,180,*70
$GPGSV,3,3,11,02,06,128,,22,05,274,,32,02,356,*41
$GPRMC,071456.000,A,5349.9048,N,01043.0258,E,26.07,161.10,190912,,,A*5E
$GPGGA,071457.000,5349.8984,N,01043.0296,E,1,07,1.3,10.3,M,45.5,M,,0000*62
$GPGSA,A,3,09,27,04,14,25,12,17,,,,,,2.4,1.3,2.0*3B
$GPRMC,071457.000,A,5349.8984,N,01043.0296,E,24.21,160.59,190912,,,A*5F
$GPGGA,071458.000,5349.8926,N,01043.0329,E,1,07,1.3,10.6,M,45.5,M,,0000*65
$GPGSA,A,3,09,27,04,14,25,12,17,,,,,,2.4,1.3,2.0*3B
$GPRMC,071458.000,A,5349.8926,N,01043.0329,E,21.55,161.40,190912,,,A*52
$GPGGA,071459.000,5349.8874,N,01043.0359,E,1,07,1.3,10.8,M,45.5,M,,0000*6B
$GPGSA,A,3,09,27,04,14,25,12,17,,,,,,2.4,1.3,2.0*3B
$GPRMC,071459.000,A,5349.8874,N,01043.0359,E,19.08,161.33,190912,,,A*55
$GPGGA,071500.000,5349.8827,N,01043.0381,E,1,08,1.0,10.8,M,45.5,M,,0000*69
$GPGSA,A,3,09,27,04,14,25,12,15,17,,,,,1.7,1.0,1.4*3B
$GPRMC,071500.000,A,5349.8827,N,01043.0381,E,16.85,164.73,190912,,,A*50
$GPGGA,071501.000,5349.8780,N,01043.0397,E,1,08,1.0,10.9,M,45.5,M,,0000*6C
$GPGSA,A,3,09,27,04,14,25,12,15,17,,,,,1.7,1.0,1.4*3B
$GPGSV,3,1,11,12,69,251,22,09,61,130,35,27,52,130,37,14,36,303,19*77
$GPGSV,3,2,11,25,29,252,20,17,22,045,26,04,17,091,17,15,09,180,22*78
$GPGSV,3,3,11,02,06,128,,22,05,274,,32,02,356,*41
$GPRMC,071501.000,A,5349.8780,N,01043.0397,E,16.53,168.29,190912,,,A*5C
$GPGGA,071502.000,5349.8740,N,01043.0413,E,1,08,1.0,10.9,M,45.5,M,,0000*68
$GPGSA,A,3,09,27,04,14,25,12,15,17,,,,,1.7,1.0,1.4*3B
$GPRMC,071502.000,A,5349.8740,N,01043.0413,E,14.07,166.83,190912,,,A*55
$GPGGA,071503.000,5349.8710,N,01043.0426,E,1,08,1.0,10.7,M,45.5,M,,0000*64
$GPGSA,A,3,09,27,04,14,25,12,15,17,,,,,1.7,1.0,1.4*3B
$GPRMC,071503.000,A,5349.8710,N,01043.0426,E,10.52,163.96,190912,,,A*52
$GPGGA,071504.000,5349.8693,N,01043.0435,E,1,08,1.0,10.7,M,45.5,M,,0000*6B
