$GPGGA,080911.000,6410.2636,N,01940.6619,W,1,06,1.5,308.3,M,60.4,M,,0000*41
$GPGSA,A,3,09,27,22,12,17,14,,,,,,,3.4,1.5,3.1*3F
$GPRMC,080911.000,A,6410.2636,N,01940.6619,W,6.12,10.51,310812,,,A*42
$GPGGA,080912.000,6410.2653,N,01940.6612,W,1,06,1.5,308.3,M,60.4,M,,0000*4A
$GPGSA,A,3,09,27,22,12,17,14,,,,,,,3.4,1.5,3.1*3F
$GPRMC,080912.000,A,6410.2653,N,01940.6612,W,6.10,10.31,310812,,,A*4D
$GPGGA,080913.000,6410.2669,N,01940.6605,W,1,06,1.5,308.4,M,60.4,M,,0000*43
$GPGSA,A,3,09,27,22,12,17,14,,,,,,,3.4,1.5,3.1*3F
$GPRMC,080913.000,A,6410.2669,N,01940.6605,W,6.12,10.12,310812,,,A*40
$GPGGA,080914.000,6410.2686,N,01940.6599,W,1,06,1.5,308.5,M,60.4,M,,0000*42
$GPGSA,A,3,09,27,22,12,17,14,,,,,,,3.4,1.5,3.1*3F
$GPRMC,080914.000,A,6410.2686,N,01940.6599,W,6.09,9.41,310812,,,A*74
$GPGGA,080915.000,6410.2702,N,01940.6593,W,1,06,1.5,308.6,M,60.4,M,,0000*47
$GPGSA,A,3,09,27,22,12,17,14,,,,,,,3.4,1.5,3.1*3F
$GPGSV,3,1,11,12,57,174,44,14,51,283,42,09,50,105,48,27,40,103,38*7A
$GPGSV,3,2,11,22,27,249,40,17,25,039,46,25,25,208,34,01,13,340,35*70
$GPGSV,3,3,11,32,09,342,36,18,07,213,35,15,05,149,34*43
$GPRMC,080915.000,A,6410.2702,N,01940.6593,W,6.01,9.14,310812,,,A*7A
$GPGGA,080916.000,6410.2719,N,01940.6588,W,1,06,1.5,308.7,M,60.4,M,,0000*45
$GPGSA,A,3,09,27,22,12,17,14,,,,,,,3.4,1.5,3.1*3F
$GPRMC,080916.000,A,6410.2719,N,01940.6588,W,5.99,8.73,310812,,,A*7B
$GPGGA,080917.000,6410.2735,N,01940.6582,W,1,06,1.5,308.8,M,60.4,M,,0000*4F
$GPGSA,A,3,09,27,22,12,17,14,,,,,,,3.4,1.5,3.1*3F
$GPRMC,080917.000,A,6410.2735,N,01940.6582,W,6.03,8.66,310812,,,A*7A
$GPGGA,080918.000,6410.2752,N,01940.6577,W,1,06,1.5,308.9,M,60.4,M,,0000*4A
$GPGSA,A,3,09,27,22,12,17,14,,,,,,,3.4,1.5,3.1*3F
$GPRMC,080918.000,A,6410.2752,N,01940.6577,W,5.98,8.21,310812,,,A*7C
$GPGGA,080919.000,6410.2767,N,01940.6573,W,1,06,1.5,309.0,M,60.4,M,,0000*41
$GPGSA,A,3,09,27,22,12,17,14,,,,,,,3.4,1.5,3.1*3F
$GPRMC,080919.000,A,6410.2767,N,01940.6573,W,5.47,6.06,310812,,,A*76
$GPGGA,080920.000,6410.2783,N,01940.6568,W,1,06,1.5,309.1,M,60.4,M,,0000*4A
$GPGSA,A,3,09,27,22,12,17,14,,,,,,,3.4,1.5,3.1*3F
$GPGSV,3,1,11,12,57,174,35,14,51,283,30,09,50,105,37,27,40,103,29*71
$GPGSV,3,2,11,22,27,249,34,17,25,039,37,25,25,208,27,01,13,340,33*71
$GPGSV,3,3,11,32,09,342,30,18,07,213,31,15,05,149,30*45
$GPRMC,080920.000,A,6410.2783,N,01940.6568,W,5.82,7.96,310812,,,A*7D
$GPGGA,080921.000,6410.2800,N,01940.6564,W,1,06,1.5,309.3,M,60.4,M,,0000*41
$GPGSA,A,3,09,27,22,12,17,14,,,,,,,3.4,1.5,3.1*3F
$GPRMC,080921.000,A,6410.2800,N,01940.6564,W,5.99,5.74,310812,,,A*70
$GPGGA,080922.000,6410.2817,N,01940.6561,W,1,06,1.5,309.6,M,60.4,M,,0000*44
$GPGSA,A,3,09,27,22,12,17,14,,,,,,,3.4,1.5,3.1*3F
$GPRMC,080922.000,A,6410.2817,N,01940.6561,W,6.02,5.30,310812,,,A*71
$GPGGA,080923.000,6410.2833,N,01940.6558,W,1,06,1.5,310.1,M,60.4,M,,0000*46
$GPGSA,A,3,09,27,22,12,17,14,,,,,,,3.4,1.5,3.1*3F
$GPRMC,080923.000,A,6410.2833,N,01940.6558,W,5.90,5.52,310812,,,A*70
$GPGGA,080924.000,6410.2850,N,01940.6555,W,1,06,1.5,310.6,M,60.4,M,,0000*4E
$GPGSA,A,3,09,27,22,12,17,14,,,,,,,3.4,1.5,3.1*3F
$GPRMC,080924.000,A,6410.2850,N,01940.6555,W,5.80,5.20,310812,,,A*7B
$GPGGA,080925.000,6410.2867,N,01940.6554,W,1,05,3.0,311.0,M,60.4,M,,0000*49
$GPGSA,A,3,09,27,22,12,17,,,,,,,,7.0,3.0,6.3*3A
$GPGSV,3,1,11,12,57,174,23,14,51,283,15,09,50,105,32,27,40,103,20*7D
$GPGSV,3,2,11,22,27,249,39,17,25,039,35,25,25,208,27,01,13,340,35*78
$GPGSV,3,3,11,32,09,342,34,18,07,213,19,15,05,149,29*43
$GPRMC,080925.000,A,6410.2867,N,01940.6554,W,6.14,2.26,310812,,,A*70
$GPGGA,080926.000,6410.2884,N,01940.6553,W,1,05,3.0,311.5,M,60.4,M,,0000*45
$GPGSA,A,3,09,27,22,12,17,,,,,,,,7.0,3.0,6.3*3A
$GPRMC,080926.000,A,6410.2884,N,01940.6553,W,5.95,1.63,310812,,,A*71
$GPGGA,080927.000,6410.2902,N,01940.6553,W,1,05,3.0,311.9,M,60.4,M,,0000*47
$GPGSA,A,3,09,27,22,12,17,,,,,,,,7.0,3.0,6.3*3A
$GPRMC,080927.000,A,6410.2902,N,01940.6553,W,5.97,0.59,310812,,,A*75
$GPGGA,080928.000,6410.2920,N,01940.6555,W,1,06,1.5,312.5,M,60.4,M,,0000*45
$GPGSA,A,3,09,27,22,12,17,14,,,,,,,3.4,1.5,3.1*3F
$GPRMC,080928.000,A,6410.2920,N,01940.6555,W,6.04,359.01,310812,,,A*77
$GPGGA,080929.000,6410.2938,N,01940.6558,W,1,05,2.2,313.4,M,60.4,M,,0000*47
$GPGSA,A,3,09,27,22,12,14,,,,,,,,4.2,2.2,3.6*3B
$GPRMC,080929.000,A,6410.2938,N,01940.6558,W,6.18,357.56,310812,,,A*73
$GPGGA,080930.000,6410.2956,N,01940.6563,W,1,05,2.2,314.2,M,60.4,M,,0000*4E
$GPGSA,A,3,09,27,22,12,14,,,,,,,,4.2,2.2,3.6*3B
$GPGSV,3,1,11,12,57,174,18,14,51,283,26,09,50,105,24,27,40,103,30*73
$GPGSV,3,2,11,22,27,249,39,17,25,039,,25,25,208,27,01,13,340,35*7E
$GPGSV,3,3,11,32,09,342,34,18,07,213,24,15,05,149,18*4F
$GPRMC,080930.000,A,6410.2956,N,01940.6563,W,5.95,355.49,310812,,,A*71
$GPGGA,080931.000,6410.2971,N,01940.6567,W,1,06,1.5,314.6,M,60.4,M,,0000*4D
$GPGSA,A,3,09,27,22,12,17,14,,,,,,,3.4,1.5,3.1*3F
$GPRMC,080931.000,A,6410.2971,N,01940.6567,W,5.33,355.33,310812,,,A*70
$GPGGA,080932.000,6410.2987,N,01940.6569,W,1,06,1.5,314.8,M,60.4,M,,0000*47
$GPGSA,A,3,09,27,22,12,17,14,,,,,,,3.4,1.5,3.1*3F
$GPRMC,080932.000,A,6410.2987,N,01940.6569,W,5.64,356.36,310812,,,A*70
$GPGGA,080933.000,6410.3002,N,01940.6570,W,1,06,1.5,314.9,M,60.4,M,,0000*4A
$GPGSA,A,3,09,27,22,12,17,14,,,,,,,3.4,1.5,3.1*3F
$GPRMC,080933.000,A,6410.3002,N,01940.6570,W,5.30,0.02,310812,,,A*7A
$GPGGA,080934.000,6410.3016,N,01940.6567,W,1,06,1.5,315.0,M,60.4,M,,0000*46
$GPGSA,A,3,09,27,22,12,17,14,,,,,,,3.4,1.5,3.1*3F
$GPRMC,080934.000,A,6410.3016,N,01940.6567,W,4.87,5.10,310812,,,A*75
$GPGGA,080935.000,6410.3028,N,01940.6563,W,1,06,1.5,314.8,M,60.4,M,,0000*47
$GPGSA,A,3,09,27,22,12,17,14,,,,,,,3.4,1.5,3.1*3F
$GPGSV,3,1,11,12,57,174,23,14,51,283,22,09,50,105,28,27,40,103,19*78
$GPGSV,3,2,11,22,27,249,38,17,25,039,30,25,25,208,29,01,13,340,29*7F
$GPGSV,3,3,11,32,09,342,26,18,07,213,27,15,05,149,28*4C
$GPRMC,080935.000,A,6410.3028,N,01940.6563,W,4.76,8.31,310812,,,A*7D
$GPGGA,080936.000,6410.3041,N,01940.6556,W,1,06,1.5,314.1,M,60.4,M,,0000*44
$GPGSA,A,3,09,27,22,12,17,14,,,,,,,3.4,1.5,3.1*3F
$GPRMC,080936.000,A,6410.3041,N,01940.6556,W,4.76,10.88,310812,,,A*4C
$GPGGA,080937.000,6410.3053,N,01940.6548,W,1,06,1.5,313.3,M,60.4,M,,0000*4C
$GPGSA,A,3,09,27,22,12,17,14,,,,,,,3.4,1.5,3.1*3F
$GPRMC,080937.000,A,6410.3053,N,01940.6548,W,4.69,13.48,310812,,,A*40
$GPGGA,080938.000,6410.3065,N,01940.6537,W,1,06,1.5,312.4,M,60.4,M,,0000*48
$GPGSA,A,3,09,27,22,12,17,14,,,,,,,3.4,1.5,3.1*3F
$GPRMC,080938.000,A,6410.3065,N,01940.6537,W,4.97,17.60,310812,,,A*4D
$GPGGA,080939.000,6410.3077,N,01940.6524,W,1,06,1.5,311.4,M,60.4,M,,0000*4B
$GPGSA,A,3,09,27,22,12,17,14,,,,,,,3.4,1.5,3.1*3F
$GPRMC,080939.000,A,6410.3077,N,01940.6524,W,5.05,21.23,310812,,,A*45
$GPGGA,080940.000,6410.3089,N,01940.6509,W,1,06,1.5,310.4,M,60.4,M,,0000*4A
$GPGSA,A,3,09,27,22,12,17,14,,,,,,,3.4,1.5,3.1*3F
$GPGSV,3,1,11,12,57,174,33,14,51,283,23,09,50,105,19,27,40,103,26*76
$GPGSV,3,2,11,22,27,249,28,17,25,039,31,25,25,208,28,01,13,340,22*75
$GPGSV,3,3,11,32,09,342,22,18,07,213,30,15,05,149,35*42
$GPRMC,080940.000,A,6410.3089,N,01940.6509,W,5.26,23.17,310812,,,A*41
$GPGGA,080941.000,6410.3101,N,01940.6494,W,1,06,1.5,309.6,M,60.4,M,,0000*45
$GPGSA,A,3,09,27,22,12,17,14,,,,,,,3.4,1.5,3.1*3F
$GPRMC,080941.000,A,6410.3101,N,01940.6494,W,5.35,24.89,310812,,,A*46
$GPGGA,080942.000,6410.3113,N,01940.6477,W,1,06,1.5,308.8,M,60.4,M,,0000*47
$GPGSA,A,3,09,27,22,12,17,14,,,,,,,3.4,1.5,3.1*3F
$GPRMC,080942.000,A,6410.3113,N,01940.6477,W,5.39,29.66,310812,,,A*4B
$GPGGA,080943.000,6410.3125,N,01940.6459,W,1,06,1.5,308.1,M,60.4,M,,0000*46
$GPGSA,A,3,09,27,22,12,17,14,,,,,,,3.4,1.5,3.1*3F
$GPRMC,080943.000,A,6410.3125,N,01940.6459,W,5.47,30.36,310812,,,A*47
$GPGGA,080944.000,6410.3137,N,01940.6441,W,1,06,1.5,307.5,M,60.4,M,,0000*40
$GPGSA,A,3,09,27,22,12,17,14,,,,,,,3.4,1.5,3.1*3F
$GPRMC,080944.000,A,6410.3137,N,01940.6441,W,5.40,30.58,310812,,,A*45
$GPGGA,080945.000,6410.3149,N,01940.6424,W,1,06,1.5,307.0,M,60.4,M,,0000*4E
$GPGSA,A,3,09,27,22,12,17,14,,,,,,,3.4,1.5,3.1*3F
$GPGSV,3,1,11,12,58,174,32,14,51,283,32,09,50,105,20,27,39,103,21*7B
$GPGSV,3,2,11,22,27,249,30,17,25,039,31,25,25,208,24,01,13,340,25*77
$GPGSV,3,3,11,32,09,342,19,18,07,213,27,15,05,149,26*4E
$GPRMC,080945.000,A,6410.3149,N,01940.6424,W,5.34,29.48,310812,,,A*44
$GPGGA,080946.000,6410.3162,N,01940.6407,W,1,06,1.5,306.5,M,60.4,M,,0000*41
$GPGSA,A,3,09,27,22,12,17,14,,,,,,,3.4,1.5,3.1*3F
$GPRMC,080946.000,A,6410.3162,N,01940.6407,W,5.29,28.50,310812,,,A*4B
$GPGGA,080947.000,6410.3173,N,01940.6389,W,1,06,1.5,306.0,M,60.4,M,,0000*44
$GPGSA,A,3,09,27,22,12,17,14,,,,,,,3.4,1.5,3.1*3F
$GPRMC,080947.000,A,6410.3173,N,01940.6389,W,5.23,33.93,310812,,,A*44
$GPGGA,080948.000,6410.3186,N,01940.6369,W,1,06,1.5,305.5,M,60.4,M,,0000*49
$GPGSA,A,3,09,27,22,12,17,14,,,,,,,3.4,1.5,3.1*3F
$GPRMC,080948.000,A,6410.3186,N,01940.6369,W,5.72,31.98,310812,,,A*42
$GPGGA,080949.000,6410.3198,N,01940.6349,W,1,06,1.5,305.1,M,60.4,M,,0000*41
$GPGSA,A,3,09,27,22,12,17,14,,,,,,,3.4,1.5,3.1*3F
$GPRMC,080949.000,A,6410.3198,N,01940.6349,W,5.50,33.67,310812,,,A*4C
$GPGGA,080950.000,6410.3210,N,01940.6330,W,1,06,1.5,304.7,M,60.4,M,,0000*43
$GPGSA,A,3,09,27,22,12,17,14,,,,,,,3.4,1.5,3.1*3F
$GPGSV,3,1,11,12,58,174,20,14,51,283,32,09,50,105,21,27,39,103,29*71
$GPGSV,3,2,11,22,27,249,24,17,25,039,30,25,25,208,13,01,13,340,25*77
$GPGSV,3,3,11,32,09,342,20,18,07,213,15,15,05,149,24*47
$GPRMC,080950.000,A,6410.3210,N,01940.6330,W,5.48,34.31,310812,,,A*44
$GPGGA,080951.000,6410.3222,N,01940.6308,W,1,06,1.5,304.3,M,60.4,M,,0000*4C
$GPGSA,A,3,09,27,22,12,17,14,,,,,,,3.4,1.5,3.1*3F
$GPRMC,080951.000,A,6410.3222,N,01940.6308,W,5.63,37.07,310812,,,A*40
$GPGGA,080952.000,6410.3236,N,01940.6288,W,1,06,1.5,304.1,M,60.4,M,,0000*41
$GPGSA,A,3,09,27,22,12,17,14,,,,,,,3.4,1.5,3.1*3F
$GPRMC,080952.000,A,6410.3236,N,01940.6288,W,6.07,31.12,310812,,,A*4C
$GPGGA,080953.000,6410.3252,N,01940.6268,W,1,05,1.6,303.9,M,60.4,M,,0000*43
$GPGSA,A,3,09,22,12,17,14,,,,,,,,3.6,1.6,3.2*38
$GPRMC,080953.000,A,6410.3252,N,01940.6268,W,6.60,27.56,310812,,,A*47
$GPGGA,080954.000,6410.3266,N,01940.6249,W,1,05,1.6,303.8,M,60.4,M,,0000*41
$GPGSA,A,3,09,22,12,17,14,,,,,,,,3.6,1.6,3.2*38
$GPRMC,080954.000,A,6410.3266,N,01940.6249,W,6.18,27.17,310812,,,A*4E
$GPGGA,080955.000,6410.3280,N,01940.6232,W,1,06,1.5,304.0,M,60.4,M,,0000*4B
$GPGSA,A,3,09,27,22,12,17,14,,,,,,,3.4,1.5,3.1*3F
$GPGSV,3,1,11,12,58,174,40,14,51,283,41,09,50,105,43,27,39,103,42*7A
$GPGSV,3,2,11,22,27,249,24,17,25,039,39,25,25,208,34,01,13,340,35*7A
$GPGSV,3,3,11,32,09,342,36,18,07,213,25,15,05,149,26*41
$GPRMC,080955.000,A,6410.3280,N,01940.6232,W,5.61,27.77,310812,,,A*40
$GPGGA,080956.000,6410.3294,N,01940.6216,W,1,06,1.5,304.4,M,60.4,M,,0000*4F
$GPGSA,A,3,09,27,22,12,17,14,,,,,,,3.4,1.5,3.1*3F
$GPRMC,080956.000,A,6410.3294,N,01940.6216,W,5.79,25.01,310812,,,A*4A
$GPGGA,080957.000,6410.3310,N,01940.6199,W,1,06,1.5,304.7,M,60.4,M,,0000*44
$GPGSA,A,3,09,27,22,12,17,14,,,,,,,3.4,1.5,3.1*3F
$GPRMC,080957.000,A,6410.3310,N,01940.6199,W,6.23,23.83,310812,,,A*42
$GPGGA,080958.000,6410.3326,N,01940.6183,W,1,07,1.4,305.1,M,60.4,M,,0000*42
$GPGSA,A,3,09,27,22,12,01,17,14,,,,,,3.2,1.4,2.9*30
$GPRMC,080958.000,A,6410.3326,N,01940.6183,W,6.29,22.45,310812,,,A*42
$GPGGA,080959.000,6410.3343,N,01940.6168,W,1,07,1.4,305.5,M,60.4,M,,0000*41
$GPGSA,A,3,09,27,22,12,01,17,14,,,,,,3.2,1.4,2.9*30
$GPRMC,080959.000,A,6410.3343,N,01940.6168,W,6.36,21.33,310812,,,A*49
$GPGGA,081000.000,6410.3359,N,01940.6150,W,1,07,1.4,305.9,M,60.4,M,,0000*49
$GPGSA,A,3,09,27,22,12,01,17,14,,,,,,3.2,1.4,2.9*30
$GPGSV,3,1,11,12,58,174,45,14,51,283,43,09,50,105,48,27,39,103,44*70
$GPGSV,3,2,11,22,26,249,33,17,25,038,46,25,25,208,27,01,13,340,43*77
$GPGSV,3,3,11,32,09,342,42,18,06,213,25,15,05,149,36*42
$GPRMC,081000.000,A,6410.3359,N,01940.6150,W,6.38,24.70,310812,,,A*41
$GPGGA,081001.000,6410.3375,N,01940.6133,W,1,07,1.4,306.3,M,60.4,M,,0000*4A
$GPGSA,A,3,09,27,22,12,01,17,14,,,,,,3.2,1.4,2.9*30
$GPRMC,081001.000,A,6410.3375,N,01940.6133,W,6.32,24.73,310812,,,A*42
$GPGGA,081002.000,6410.3391,N,01940.6116,W,1,07,1.4,306.7,M,60.4,M,,0000*40
$GPGSA,A,3,09,27,22,12,01,17,14,,,,,,3.2,1.4,2.9*30
$GPRMC,081002.000,A,6410.3391,N,01940.6116,W,6.16,25.24,310812,,,A*49
$GPGGA,081003.000,6410.3406,N,01940.6099,W,1,07,1.4,307.2,M,60.4,M,,0000*4A
$GPGSA,A,3,09,27,22,12,01,17,14,,,,,,3.2,1.4,2.9*30
$GPRMC,081003.000,A,6410.3406,N,01940.6099,W,6.07,25.16,310812,,,A*46
$GPGGA,081004.000,6410.3423,N,01940.6082,W,1,07,1.4,307.6,M,60.4,M,,0000*44
$GPGSA,A,3,09,27,22,12,01,17,14,,,,,,3.2,1.4,2.9*30
$GPRMC,081004.000,A,6410.3423,N,01940.6082,W,6.45,25.16,310812,,,A*4A
$GPGGA,081005.000,6410.3440,N,01940.6063,W,1,07,1.4,308.0,M,60.4,M,,0000*46
$GPGSA,A,3,09,27,22,12,01,17,14,,,,,,3.2,1.4,2.9*30
$GPGSV,3,1,11,12,58,174,47,14,51,283,43,09,50,105,48,27,39,103,45*73
$GPGSV,3,2,11,22,26,249,38,17,25,038,45,25,25,208,35,01,13,340,43*7C
$GPGSV,3,3,11,32,09,342,42,18,06,213,30,15,05,149,35*45
$GPRMC,081005.000,A,6410.3440,N,01940.6063,W,6.79,26.06,310812,,,A*4C
$GPGGA,081006.000,6410.3457,N,01940.6043,W,1,07,1.4,308.4,M,60.4,M,,0000*45
$GPGSA,A,3,09,27,22,12,01,17,14,,,,,,3.2,1.4,2.9*30
$GPRMC,081006.000,A,6410.3457,N,01940.6043,W,6.94,26.35,310812,,,A*48
$GPGGA,081007.000,6410.3475,N,01940.6023,W,1,07,1.4,308.8,M,60.4,M,,0000*4E
$GPGSA,A,3,09,27,22,12,01,17,14,,,,,,3.2,1.4,2.9*30
$GPRMC,081007.000,A,6410.3475,N,01940.6023,W,6.99,26.45,310812,,,A*45
$GPGGA,081008.000,6410.3493,N,01940.6002,W,1,07,1.4,309.2,M,60.4,M,,0000*41
$GPGSA,A,3,09,27,22,12,01,17,14,,,,,,3.2,1.4,2.9*30
$GPRMC,081008.000,A,6410.3493,N,01940.6002,W,7.11,26.97,310812,,,A*4F
$GPGGA,081009.000,6410.3511,N,01940.5981,W,1,07,1.4,309.6,M,60.4,M,,0000*4E
$GPGSA,A,3,09,27,22,12,01,17,14,,,,,,3.2,1.4,2.9*30
$GPRMC,081009.000,A,6410.3511,N,01940.5981,W,7.24,27.61,310812,,,A*4A
$GPGGA,081010.000,6410.3530,N,01940.5958,W,1,07,1.4,310.0,M,60.4,M,,0000*4F
$GPGSA,A,3,09,27,22,12,01,17,14,,,,,,3.2,1.4,2.9*30
$GPGSV,3,1,11,12,58,174,47,14,51,283,43,09,50,105,49,27,39,103,45*72
$GPGSV,3,2,11,22,26,249,37,17,25,038,43,25,25,208,32,01,13,340,42*73
$GPGSV,3,3,11,32,09,342,42,18,06,213,37,15,05,149,26*40
$GPRMC,081010.000,A,6410.3530,N,01940.5958,W,7.67,27.74,310812,,,A*46
$GPGGA,081011.000,6410.3548,N,01940.5937,W,1,07,1.4,310.3,M,60.4,M,,0000*4B
$GPGSA,A,3,09,27,22,12,01,17,14,,,,,,3.2,1.4,2.9*30
$GPRMC,081011.000,A,6410.3548,N,01940.5937,W,7.29,27.87,310812,,,A*47
$GPGGA,081012.000,6410.3568,N,01940.5913,W,1,07,1.4,310.7,M,60.4,M,,0000*48
$GPGSA,A,3,09,27,22,12,01,17,14,,,,,,3.2,1.4,2.9*30
$GPRMC,081012.000,A,6410.3568,N,01940.5913,W,8.05,28.21,310812,,,A*42
$GPGGA,081013.000,6410.3590,N,01940.5885,W,1,07,1.4,311.0,M,60.4,M,,0000*46
$GPGSA,A,3,09,27,22,12,01,17,14,,,,,,3.2,1.4,2.9*30
$GPRMC,081013.000,A,6410.3590,N,01940.5885,W,9.13,28.53,310812,,,A*49
$GPGGA,081014.000,6410.3614,N,01940.5856,W,1,07,1.4,311.3,M,60.4,M,,0000*43
$GPGSA,A,3,09,27,22,12,01,17,14,,,,,,3.2,1.4,2.9*30
$GPRMC,081014.000,A,6410.3614,N,01940.5856,W,9.99,28.20,310812,,,A*49
$GPGGA,081015.000,6410.3640,N,01940.5825,W,1,07,1.4,311.5,M,60.4,M,,0000*41
$GPGSA,A,3,09,27,22,12,01,17,14,,,,,,3.2,1.4,2.9*30
$GPGSV,3,1,11,12,58,174,47,14,51,283,43,09,50,105,48,27,39,103,45*73
$GPGSV,3,2,11,22,26,249,38,17,25,038,39,25,25,208,38,01,13,340,38*76
$GPGSV,3,3,11,32,09,342,42,18,06,213,29,15,05,149,23*4A
$GPRMC,081015.000,A,6410.3640,N,01940.5825,W,10.42,27.75,310812,,,A*7C
$GPGGA,081016.000,6410.3666,N,01940.5793,W,1,07,1.4,311.8,M,60.4,M,,0000*49
$GPGSA,A,3,09,27,22,12,01,17,14,,,,,,3.2,1.4,2.9*30
$GPRMC,081016.000,A,6410.3666,N,01940.5793,W,10.60,28.25,310812,,,A*73
$GPGGA,081017.000,6410.3692,N,01940.5762,W,1,07,1.4,312.1,M,60.4,M,,0000*47
$GPGSA,A,3,09,27,22,12,01,17,14,,,,,,3.2,1.4,2.9*30
$GPRMC,081017.000,A,6410.3692,N,01940.5762,W,10.56,28.09,310812,,,A*7C
$GPGGA,081018.000,6410.3717,N,01940.5731,W,1,07,1.4,312.3,M,60.4,M,,0000*40
$GPGSA,A,3,09,27,22,12,01,17,14,,,,,,3.2,1.4,2.9*30
$GPRMC,081018.000,A,6410.3717,N,01940.5731,W,10.41,28.11,310812,,,A*76
$GPGGA,081019.000,6410.3742,N,01940.5700,W,1,07,1.4,312.6,M,60.4,M,,0000*46
$GPGSA,A,3,09,27,22,12,01,17,14,,,,,,3.2,1.4,2.9*30
$GPRMC,081019.000,A,6410.3742,N,01940.5700,W,10.24,28.61,310812,,,A*71
$GPGGA,081020.000,6410.3767,N,01940.5670,W,1,07,1.4,312.8,M,60.4,M,,0000*43
$GPGSA,A,3,09,27,22,12,01,17,14,,,,,,3.2,1.4,2.9*30
$GPGSV,3,1,11,12,58,174,47,14,51,283,44,09,50,105,48,27,39,103,45*74
$GPGSV,3,2,11,22,26,248,38,25,25,208,37,17,25,038,39,01,13,340,40*77
$GPGSV,3,3,11,32,09,342,42,18,06,213,33,15,05,149,24*46
$GPRMC,081020.000,A,6410.3767,N,01940.5670,W,10.12,28.39,310812,,,A*72
$GPGGA,081021.000,6410.3792,N,01940.5640,W,1,07,1.4,313.0,M,60.4,M,,0000*42
$GPGSA,A,3,09,27,22,12,01,17,14,,,,,,3.2,1.4,2.9*30
$GPRMC,081021.000,A,6410.3792,N,01940.5640,W,10.11,27.73,310812,,,A*78
$GPGGA,081022.000,6410.3817,N,01940.5610,W,1,07,1.4,313.2,M,60.4,M,,0000*44
$GPGSA,A,3,09,27,22,12,01,17,14,,,,,,3.2,1.4,2.9*30
$GPRMC,081022.000,A,6410.3817,N,01940.5610,W,10.20,27.35,310812,,,A*7C
$GPGGA,081023.000,6410.3843,N,01940.5580,W,1,07,1.4,313.4,M,60.4,M,,0000*48
$GPGSA,A,3,09,27,22,12,01,17,14,,,,,,3.2,1.4,2.9*30
$GPRMC,081023.000,A,6410.3843,N,01940.5580,W,10.41,27.05,310812,,,A*72
$GPGGA,081024.000,6410.3869,N,01940.5550,W,1,07,1.4,313.5,M,60.4,M,,0000*4B
$GPGSA,A,3,09,27,22,12,01,17,14,,,,,,3.2,1.4,2.9*30
$GPRMC,081024.000,A,6410.3869,N,01940.5550,W,10.60,26.96,310812,,,A*78
$GPGGA,081025.000,6410.3895,N,01940.5519,W,1,07,1.4,313.7,M,60.4,M,,0000*46
$GPGSA,A,3,09,27,22,12,01,17,14,,,,,,3.2,1.4,2.9*30
$GPGSV,3,1,11,12,58,174,48,14,51,283,44,09,50,105,47,27,39,103,45*74
$GPGSV,3,2,11,22,26,248,38,25,25,208,37,17,25,038,40,01,13,340,40*79
$GPGSV,3,3,11,32,09,342,42,18,06,213,24,15,05,149,24*40
$GPRMC,081025.000,A,6410.3895,N,01940.5519,W,10.71,27.59,310812,,,A*75
$GPGGA,081026.000,6410.3921,N,01940.5487,W,1,07,1.4,313.8,M,60.4,M,,0000*42
$GPGSA,A,3,09,27,22,12,01,17,14,,,,,,3.2,1.4,2.9*30
$GPRMC,081026.000,A,6410.3921,N,01940.5487,W,10.61,27.86,310812,,,A*7D
$GPGGA,081027.000,6410.3947,N,01940.5457,W,1,07,1.4,313.9,M,60.4,M,,0000*4F
$GPGSA,A,3,09,27,22,12,01,17,14,,,,,,3.2,1.4,2.9*30
$GPRMC,081027.000,A,6410.3947,N,01940.5457,W,10.54,27.31,310812,,,A*7B
$GPGGA,081028.000,6410.3974,N,01940.5425,W,1,08,1.0,314.1,M,60.4,M,,0000*41
$GPGSA,A,3,09,27,22,12,01,17,14,25,,,,,2.4,1.0,2.1*3C
$GPRMC,081028.000,A,6410.3974,N,01940.5425,W,10.72,28.16,310812,,,A*7F
$GPGGA,081029.000,6410.4000,N,01940.5390,W,1,08,1.0,314.3,M,60.4,M,,0000*46
$GPGSA,A,3,09,27,22,12,01,17,14,25,,,,,2.4,1.0,2.1*3C
$GPRMC,081029.000,A,6410.4000,N,01940.5390,W,10.91,30.28,310812,,,A*73
$GPGGA,081030.000,6410.4026,N,01940.5354,W,1,08,1.0,314.6,M,60.4,M,,0000*47
$GPGSA,A,3,09,27,22,12,01,17,14,25,,,,,2.4,1.0,2.1*3C
$GPGSV,3,1,11,12,58,174,48,14,51,283,44,09,50,105,48,27,39,103,45*7B
$GPGSV,3,2,11,22,26,248,38,25,25,208,37,17,25,038,36,01,13,340,40*78
$GPGSV,3,3,11,32,09,342,41,18,06,213,35,15,05,149,27*40
$GPRMC,081030.000,A,6410.4026,N,01940.5354,W,11.14,30.56,310812,,,A*72
$GPGGA,081031.000,6410.4054,N,01940.5319,W,1,08,1.0,314.9,M,60.4,M,,0000*45
$GPGSA,A,3,09,27,22,12,01,17,14,25,,,,,2.4,1.0,2.1*3C
$GPRMC,081031.000,A,6410.4054,N,01940.5319,W,11.27,29.47,310812,,,A*77
$GPGGA,081032.000,6410.4080,N,01940.5282,W,1,08,1.0,315.2,M,60.4,M,,0000*46
$GPGSA,A,3,09,27,22,12,01,17,14,25,,,,,2.4,1.0,2.1*3C
$GPRMC,081032.000,A,6410.4080,N,01940.5282,W,11.23,31.69,310812,,,A*7F
$GPGGA,081033.000,6410.4107,N,01940.5245,W,1,08,1.0,315.5,M,60.4,M,,0000*45
$GPGSA,A,3,09,27,22,12,01,17,14,25,,,,,2.4,1.0,2.1*3C
$GPRMC,081033.000,A,6410.4107,N,01940.5245,W,11.05,31.13,310812,,,A*72
$GPGGA,081034.000,6410.4133,N,01940.5211,W,1,08,1.0,315.8,M,60.4,M,,0000*49
$GPGSA,A,3,09,27,22,12,01,17,14,25,,,,,2.4,1.0,2.1*3C
$GPRMC,081034.000,A,6410.4133,N,01940.5211,W,10.75,30.22,310812,,,A*76
$GPGGA,081035.000,6410.4159,N,01940.5179,W,1,08,1.0,316.2,M,60.4,M,,0000*40
$GPGSA,A,3,09,27,22,12,01,17,14,25,,,,,2.4,1.0,2.1*3C
$GPGSV,3,1,11,12,58,174,47,14,51,283,44,09,50,105,47,27,39,103,45*7B
$GPGSV,3,2,11,22,26,248,38,25,25,208,35,17,25,038,37,01,13,340,40*7B
$GPGSV,3,3,11,32,09,342,41,18,06,213,23,15,05,149,27*47
$GPRMC,081035.000,A,6410.4159,N,01940.5179,W,10.57,28.84,310812,,,A*73
$GPGGA,081036.000,6410.4185,N,01940.5148,W,1,08,1.0,316.6,M,60.4,M,,0000*44
$GPGSA,A,3,09,27,22,12,01,17,14,25,,,,,2.4,1.0,2.1*3C
$GPRMC,081036.000,A,6410.4185,N,01940.5148,W,10.54,27.58,310812,,,A*7E
$GPGGA,081037.000,6410.4211,N,01940.5118,W,1,08,1.0,317.0,M,60.4,M,,0000*49
$GPGSA,A,3,09,27,22,12,01,17,14,25,,,,,2.4,1.0,2.1*3C
$GPRMC,081037.000,A,6410.4211,N,01940.5118,W,10.64,25.75,310812,,,A*7A
$GPGGA,081038.000,6410.4239,N,01940.5089,W,1,08,1.0,317.3,M,60.4,M,,0000*46
$GPGSA,A,3,09,27,22,12,01,17,14,25,,,,,2.4,1.0,2.1*3C
$GPRMC,081038.000,A,6410.4239,N,01940.5089,W,10.87,24.58,310812,,,A*75
$GPGGA,081039.000,6410.4267,N,01940.5061,W,1,08,1.0,317.6,M,60.4,M,,0000*4F
$GPGSA,A,3,09,27,22,12,01,17,14,25,,,,,2.4,1.0,2.1*3C
$GPRMC,081039.000,A,6410.4267,N,01940.5061,W,11.00,23.63,310812,,,A*78
$GPGGA,081040.000,6410.4295,N,01940.5034,W,1,08,1.0,317.9,M,60.4,M,,0000*43
$GPGSA,A,3,09,27,22,12,01,17,14,25,,,,,2.4,1.0,2.1*3C
$GPGSV,3,1,11,12,58,174,48,14,51,283,44,09,50,105,46,27,39,103,44*74
$GPGSV,3,2,11,22,26,248,39,25,25,208,28,17,25,038,44,01,13,340,40*72
$GPGSV,3,3,11,32,09,342,37,18,06,213,19,15,05,149,40*4E
$GPRMC,081040.000,A,6410.4295,N,01940.5034,W,11.08,22.56,310812,,,A*74
$GPGGA,081041.000,6410.4324,N,01940.5007,W,1,08,1.0,318.2,M,60.4,M,,0000*4D
$GPGSA,A,3,09,27,22,12,01,17,14,25,,,,,2.4,1.0,2.1*3C
$GPRMC,081041.000,A,6410.4324,N,01940.5007,W,11.20,22.28,310812,,,A*7D
$GPGGA,081042.000,6410.4353,N,01940.4979,W,1,08,1.0,318.4,M,60.4,M,,0000*49
$GPGSA,A,3,09,27,22,12,01,17,14,25,,,,,2.4,1.0,2.1*3C
$GPRMC,081042.000,A,6410.4353,N,01940.4979,W,11.16,22.76,310812,,,A*71
$GPGGA,081043.000,6410.4381,N,01940.4951,W,1,08,1.0,318.7,M,60.4,M,,0000*4E
$GPGSA,A,3,09,27,22,12,01,17,14,25,,,,,2.4,1.0,2.1*3C
$GPRMC,081043.000,A,6410.4381,N,01940.4951,W,11.12,23.72,310812,,,A*74
$GPGGA,081044.000,6410.4409,N,01940.4922,W,1,08,1.0,318.9,M,60.4,M,,0000*44
$GPGSA,A,3,09,27,22,12,01,17,14,25,,,,,2.4,1.0,2.1*3C
$GPRMC,081044.000,A,6410.4409,N,01940.4922,W,11.05,24.94,310812,,,A*79
$GPGGA,081045.000,6410.4436,N,01940.4892,W,1,08,1.0,319.2,M,60.4,M,,0000*49
$GPGSA,A,3,09,27,22,12,01,17,14,25,,,,,2.4,1.0,2.1*3C
$GPGSV,3,1,11,12,58,174,49,14,51,282,43,09,49,105,47,27,39,103,44*7A
$GPGSV,3,2,11,22,26,248,39,25,25,208,36,17,25,038,44,01,13,340,41*7C
$GPGSV,3,3,11,32,09,342,42,18,06,213,27,15,05,149,26*41
$GPRMC,081045.000,A,6410.4436,N,01940.4892,W,10.90,25.75,310812,,,A*7D
$GPGGA,081046.000,6410.4463,N,01940.4861,W,1,08,1.0,319.4,M,60.4,M,,0000*40
$GPGSA,A,3,09,27,22,12,01,17,14,25,,,,,2.4,1.0,2.1*3C
$GPRMC,081046.000,A,6410.4463,N,01940.4861,W,10.74,26.89,310812,,,A*78
$GPGGA,081047.000,6410.4488,N,01940.4829,W,1,08,1.0,319.6,M,60.4,M,,0000*4A
$GPGSA,A,3,09,27,22,12,01,17,14,25,,,,,2.4,1.0,2.1*3C
$GPRMC,081047.000,A,6410.4488,N,01940.4829,W,10.49,28.78,310812,,,A*7E
$GPGGA,081048.000,6410.4513,N,01940.4796,W,1,08,1.0,319.8,M,60.4,M,,0000*43
$GPGSA,A,3,09,27,22,12,01,17,14,25,,,,,2.4,1.0,2.1*3C
$GPRMC,081048.000,A,6410.4513,N,01940.4796,W,10.39,30.37,310812,,,A*7C
$GPGGA,081049.000,6410.4538,N,01940.4762,W,1,08,1.0,320.0,M,60.4,M,,0000*42
$GPGSA,A,3,09,27,22,12,01,17,14,25,,,,,2.4,1.0,2.1*3C
$GPRMC,081049.000,A,6410.4538,N,01940.4762,W,10.33,30.93,310812,,,A*7B
$GPGGA,081050.000,6410.4563,N,01940.4728,W,1,08,1.0,320.2,M,60.4,M,,0000*48
$GPGSA,A,3,09,27,22,12,01,17,14,25,,,,,2.4,1.0,2.1*3C
$GPGSV,3,1,11,12,58,174,48,14,51,282,44,09,49,105,47,27,39,103,45*7D
$GPGSV,3,2,11,22,26,248,39,25,25,208,35,17,25,038,36,01,13,340,38*74
$GPGSV,3,3,11,32,09,342,41,18,06,213,33,15,05,149,35*45
$GPRMC,081050.000,A,6410.4563,N,01940.4728,W,10.46,30.62,310812,,,A*7F
$GPGGA,081051.000,6410.4588,N,01940.4695,W,1,08,1.0,320.4,M,60.4,M,,0000*4D
$GPGSA,A,3,09,27,22,12,01,17,14,25,,,,,2.4,1.0,2.1*3C
$GPRMC,081051.000,A,6410.4588,N,01940.4695,W,10.62,29.88,310812,,,A*76
$GPGGA,081052.000,6410.4614,N,01940.4662,W,1,08,1.0,320.5,M,60.4,M,,0000*41
$GPGSA,A,3,09,27,22,12,01,17,14,25,,,,,2.4,1.0,2.1*3C
$GPRMC,081052.000,A,6410.4614,N,01940.4662,W,10.66,29.27,310812,,,A*7A
$GPGGA,081053.000,6410.4640,N,01940.4629,W,1,08,1.0,320.5,M,60.4,M,,0000*4E
$GPGSA,A,3,09,27,22,12,01,17,14,25,,,,,2.4,1.0,2.1*3C
$GPRMC,081053.000,A,6410.4640,N,01940.4629,W,10.69,29.14,310812,,,A*7A
$GPGGA,081054.000,6410.4666,N,01940.4597,W,1,08,1.0,320.5,M,60.4,M,,0000*4B
$GPGSA,A,3,09,27,22,12,01,17,14,25,,,,,2.4,1.0,2.1*3C
$GPRMC,081054.000,A,6410.4666,N,01940.4597,W,10.64,28.68,310812,,,A*78
$GPGGA,081055.000,6410.4692,N,01940.4565,W,1,08,1.0,320.5,M,60.4,M,,0000*4C
$GPGSA,A,3,09,27,22,12,01,17,14,25,,,,,2.4,1.0,2.1*3C
$GPGSV,3,1,11,12,58,174,48,14,51,282,44,09,49,105,47,27,39,103,45*7D
$GPGSV,3,2,11,22,26,248,39,25,25,208,36,17,25,038,34,01,13,340,38*75
$GPGSV,3,3,11,32,09,342,41,18,06,213,30,15,05,149,26*44
$GPRMC,081055.000,A,6410.4692,N,01940.4565,W,10.62,28.26,310812,,,A*73
$GPGGA,081056.000,6410.4717,N,01940.4534,W,1,07,1.1,320.5,M,60.4,M,,0000*49
$GPGSA,A,3,09,27,22,12,01,14,25,,,,,,2.4,1.1,2.2*38
$GPRMC,081056.000,A,6410.4717,N,01940.4534,W,10.33,28.38,310812,,,A*73
$GPGGA,081057.000,6410.4742,N,01940.4504,W,1,07,1.1,320.5,M,60.4,M,,0000*4B
$GPGSA,A,3,09,27,22,12,01,14,25,,,,,,2.4,1.1,2.2*38
$GPRMC,081057.000,A,6410.4742,N,01940.4504,W,10.13,27.25,310812,,,A*70
$GPGGA,081058.000,6410.4767,N,01940.4475,W,1,07,1.1,320.5,M,60.4,M,,0000*44
$GPGSA,A,3,09,27,22,12,01,14,25,,,,,,2.4,1.1,2.2*38
$GPRMC,081058.000,A,6410.4767,N,01940.4475,W,10.25,26.26,310812,,,A*78
$GPGGA,081059.000,6410.4793,N,01940.4448,W,1,07,1.1,320.5,M,60.4,M,,0000*40
$GPGSA,A,3,09,27,22,12,01,14,25,,,,,,2.4,1.1,2.2*38
$GPRMC,081059.000,A,6410.4793,N,01940.4448,W,10.39,24.97,310812,,,A*79
$GPGGA,081100.000,6410.4820,N,01940.4420,W,1,07,1.1,320.6,M,60.4,M,,0000*47
$GPGSA,A,3,09,27,22,12,01,14,25,,,,,,2.4,1.1,2.2*38
$GPGSV,3,1,11,12,58,174,49,14,51,282,44,09,49,105,48,27,39,103,44*72
$GPGSV,3,2,11,22,26,248,37,25,25,208,34,17,25,038,,01,13,340,38*7E
$GPGSV,3,3,11,32,09,342,37,18,06,213,37,15,05,149,29*4D
$GPRMC,081100.000,A,6410.4820,N,01940.4420,W,10.51,24.20,310812,,,A*7F
$GPGGA,081101.000,6410.4846,N,01940.4393,W,1,08,1.0,320.7,M,60.4,M,,0000*46
$GPGSA,A,3,09,27,22,12,01,17,14,25,,,,,2.4,1.0,2.1*3C
$GPRMC,081101.000,A,6410.4846,N,01940.4393,W,10.52,24.07,310812,,,A*77
$GPGGA,081102.000,6410.4873,N,01940.4366,W,1,08,1.0,320.9,M,60.4,M,,0000*47
$GPGSA,A,3,09,27,22,12,01,17,14,25,,,,,2.4,1.0,2.1*3C
$GPRMC,081102.000,A,6410.4873,N,01940.4366,W,10.59,23.55,310812,,,A*73
$GPGGA,081103.000,6410.4901,N,01940.4339,W,1,08,1.0,321.0,M,60.4,M,,0000*40
$GPGSA,A,3,09,27,22,12,01,17,14,25,,,,,2.4,1.0,2.1*3C
$GPRMC,081103.000,A,6410.4901,N,01940.4339,W,10.70,23.10,310812,,,A*76
$GPGGA,081104.000,6410.4928,N,01940.4313,W,1,08,1.0,321.1,M,60.4,M,,0000*45
$GPGSA,A,3,09,27,22,12,01,17,14,25,,,,,2.4,1.0,2.1*3C
$GPRMC,081104.000,A,6410.4928,N,01940.4313,W,10.87,22.62,310812,,,A*7E
$GPGGA,081105.000,6410.4957,N,01940.4287,W,1,08,1.0,321.1,M,60.4,M,,0000*40
$GPGSA,A,3,09,27,22,12,01,17,14,25,,,,,2.4,1.0,2.1*3C
$GPGSV,3,1,11,12,58,174,50,14,51,282,43,09,49,105,48,27,39,103,43*7A
$GPGSV,3,2,11,22,26,248,38,25,25,208,21,17,25,038,36,01,13,340,39*71
$GPGSV,3,3,11,32,09,342,37,18,06,213,27,15,05,149,27*42
$GPRMC,081105.000,A,6410.4957,N,01940.4287,W,11.04,21.95,310812,,,A*7A
$GPGGA,081106.000,6410.4985,N,01940.4260,W,1,08,1.0,321.2,M,60.4,M,,0000*46
$GPGSA,A,3,09,27,22,12,01,17,14,25,,,,,2.4,1.0,2.1*3C
$GPRMC,081106.000,A,6410.4985,N,01940.4260,W,11.16,22.37,310812,,,A*77
$GPGGA,081107.000,6410.5014,N,01940.4232,W,1,08,1.0,321.2,M,60.4,M,,0000*40
$GPGSA,A,3,09,27,22,12,01,17,14,25,,,,,2.4,1.0,2.1*3C
$GPRMC,081107.000,A,6410.5014,N,01940.4232,W,11.22,23.07,310812,,,A*74
$GPGGA,081108.000,6410.5042,N,01940.4205,W,1,08,1.0,321.2,M,60.4,M,,0000*48
$GPGSA,A,3,09,27,22,12,01,17,14,25,,,,,2.4,1.0,2.1*3C
$GPRMC,081108.000,A,6410.5042,N,01940.4205,W,11.28,22.08,310812,,,A*78
$GPGGA,081109.000,6410.5072,N,01940.4179,W,1,08,1.0,321.2,M,60.4,M,,0000*42
$GPGSA,A,3,09,27,22,12,01,17,14,25,,,,,2.4,1.0,2.1*3C
$GPRMC,081109.000,A,6410.5072,N,01940.4179,W,11.35,20.85,310812,,,A*79
$GPGGA,081110.000,6410.5102,N,01940.4155,W,1,08,1.0,321.1,M,60.4,M,,0000*41
$GPGSA,A,3,09,27,22,12,01,17,14,25,,,,,2.4,1.0,2.1*3C
$GPGSV,3,1,11,12,58,174,49,14,51,282,43,09,49,105,48,27,39,103,43*72
$GPGSV,3,2,11,22,26,248,39,25,25,208,25,17,25,038,45,01,13,340,36*7F
$GPGSV,3,3,11,32,09,342,,18,06,213,33,15,05,149,27*43
$GPRMC,081110.000,A,6410.5102,N,01940.4155,W,11.43,19.15,310812,,,A*7B
$GPGGA,081111.000,6410.5131,N,01940.4133,W,1,08,1.0,321.1,M,60.4,M,,0000*40
$GPGSA,A,3,09,27,22,12,01,17,14,25,,,,,2.4,1.0,2.1*3C
$GPRMC,081111.000,A,6410.5131,N,01940.4133,W,11.36,18.46,310812,,,A*7F
$GPGGA,081112.000,6410.5160,N,01940.4110,W,1,08,1.0,321.0,M,60.4,M,,0000*47
$GPGSA,A,3,09,27,22,12,01,17,14,25,,,,,2.4,1.0,2.1*3C
$GPRMC,081112.000,A,6410.5160,N,01940.4110,W,11.15,18.85,310812,,,A*77
$GPGGA,081113.000,6410.5189,N,01940.4087,W,1,08,1.0,321.1,M,60.4,M,,0000*4F
$GPGSA,A,3,09,27,22,12,01,17,14,25,,,,,2.4,1.0,2.1*3C
$GPRMC,081113.000,A,6410.5189,N,01940.4087,W,11.02,18.93,310812,,,A*7F
$GPGGA,081114.000,6410.5218,N,01940.4066,W,1,08,1.0,321.1,M,60.4,M,,0000*4C
$GPGSA,A,3,09,27,22,12,01,17,14,25,,,,,2.4,1.0,2.1*3C
$GPRMC,081114.000,A,6410.5218,N,01940.4066,W,11.10,17.69,310812,,,A*75
$GPGGA,081115.000,6410.5248,N,01940.4046,W,1,08,1.0,321.2,M,60.4,M,,0000*49
$GPGSA,A,3,09,27,22,12,01,17,14,25,,,,,2.4,1.0,2.1*3C
$GPGSV,3,1,11,12,58,173,49,14,51,282,43,09,49,105,48,27,39,103,43*75
$GPGSV,3,2,11,22,26,248,39,25,26,208,37,17,25,038,46,01,13,340,32*78
$GPGSV,3,3,11,32,10,342,39,18,06,213,34,15,04,149,38*49
$GPRMC,081115.000,A,6410.5248,N,01940.4046,W,11.17,15.84,310812,,,A*75
$GPGGA,081116.000,6410.5278,N,01940.4029,W,1,08,1.0,321.4,M,60.4,M,,0000*46
$GPGSA,A,3,09,27,22,12,01,17,14,25,,,,,2.4,1.0,2.1*3C
$GPRMC,081116.000,A,6410.5278,N,01940.4029,W,11.19,14.25,310812,,,A*78
$GPGGA,081117.000,6410.5308,N,01940.4013,W,1,08,1.0,321.7,M,60.4,M,,0000*4B
$GPGSA,A,3,09,27,22,12,01,17,14,25,,,,,2.4,1.0,2.1*3C
$GPRMC,081117.000,A,6410.5308,N,01940.4013,W,11.23,12.91,310812,,,A*76
$GPGGA,081118.000,6410.5339,N,01940.4000,W,1,08,1.0,322.0,M,60.4,M,,0000*40
$GPGSA,A,3,09,27,22,12,01,17,14,25,,,,,2.4,1.0,2.1*3C
$GPRMC,081118.000,A,6410.5339,N,01940.4000,W,11.29,9.89,310812,,,A*40
$GPGGA,081119.000,6410.5370,N,01940.3990,W,1,08,1.0,322.3,M,60.4,M,,0000*48
$GPGSA,A,3,09,27,22,12,01,17,14,25,,,,,2.4,1.0,2.1*3C
$GPRMC,081119.000,A,6410.5370,N,01940.3990,W,11.58,8.45,310812,,,A*4C
$GPGGA,081120.000,6410.5403,N,01940.3981,W,1,08,1.0,322.7,M,60.4,M,,0000*45
$GPGSA,A,3,09,27,22,12,01,17,14,25,,,,,2.4,1.0,2.1*3C
$GPGSV,3,1,11,12,58,173,49,14,51,282,43,09,49,105,47,27,39,103,42*7B
$GPGSV,3,2,11,22,26,248,45,25,26,208,36,17,25,038,45,01,13,340,38*7B
$GPGSV,3,3,11,32,10,342,32,18,06,213,36,15,04,149,29*40
$GPRMC,081120.000,A,6410.5403,N,01940.3981,W,12.05,6.49,310812,,,A*4C
$GPGGA,081121.000,6410.5436,N,01940.3974,W,1,08,1.0,323.1,M,60.4,M,,0000*4F
$GPGSA,A,3,09,27,22,12,01,17,14,25,,,,,2.4,1.0,2.1*3C
$GPRMC,081121.000,A,6410.5436,N,01940.3974,W,12.06,4.82,310812,,,A*47
$GPGGA,081122.000,6410.5469,N,01940.3967,W,1,08,1.0,323.6,M,60.4,M,,0000*43
$GPGSA,A,3,09,27,22,12,01,17,14,25,,,,,2.4,1.0,2.1*3C
$GPRMC,081122.000,A,6410.5469,N,01940.3967,W,11.92,5.12,310812,,,A*4A
$GPGGA,081123.000,6410.5501,N,01940.3960,W,1,08,1.0,324.1,M,60.4,M,,0000*4A
$GPGSA,A,3,09,27,22,12,01,17,14,25,,,,,2.4,1.0,2.1*3C
$GPRMC,081123.000,A,6410.5501,N,01940.3960,W,11.68,5.88,310812,,,A*45
$GPGGA,081124.000,6410.5532,N,01940.3955,W,1,08,1.0,324.6,M,60.4,M,,0000*4C
$GPGSA,A,3,09,27,22,12,01,17,14,25,,,,,2.4,1.0,2.1*3C
$GPRMC,081124.000,A,6410.5532,N,01940.3955,W,11.17,4.15,310812,,,A*49
$GPGGA,081125.000,6410.5561,N,01940.3952,W,1,08,1.0,325.2,M,60.4,M,,0000*49
$GPGSA,A,3,09,27,22,12,01,17,14,25,,,,,2.4,1.0,2.1*3C
$GPGSV,3,1,11,12,58,173,48,14,51,282,44,09,49,105,47,27,39,103,42*7D
$GPGSV,3,2,11,22,26,248,46,25,26,208,37,17,25,038,45,01,13,340,35*74
$GPGSV,3,3,11,32,10,342,32,18,06,213,36,15,04,149,31*49
$GPRMC,081125.000,A,6410.5561,N,01940.3952,W,10.62,2.52,310812,,,A*4F
$GPGGA,081126.000,6410.5590,N,01940.3949,W,1,08,1.0,325.7,M,60.4,M,,0000*4B
$GPGSA,A,3,09,27,22,12,01,17,14,25,,,,,2.4,1.0,2.1*3C
$GPRMC,081126.000,A,6410.5590,N,01940.3949,W,10.24,2.59,310812,,,A*41
$GPGGA,081127.000,6410.5618,N,01940.3944,W,1,08,1.0,326.1,M,60.4,M,,0000*41
$GPGSA,A,3,09,27,22,12,01,17,14,25,,,,,2.4,1.0,2.1*3C
$GPRMC,081127.000,A,6410.5618,N,01940.3944,W,10.11,4.65,310812,,,A*41
$GPGGA,081128.000,6410.5645,N,01940.3936,W,1,08,1.0,326.5,M,60.4,M,,0000*47
$GPGSA,A,3,09,27,22,12,01,17,14,25,,,,,2.4,1.0,2.1*3C
$GPRMC,081128.000,A,6410.5645,N,01940.3936,W,10.04,6.99,310812,,,A*46
$GPGGA,081129.000,6410.5673,N,01940.3928,W,1,08,1.0,326.8,M,60.4,M,,0000*41
$GPGSA,A,3,09,27,22,12,01,17,14,25,,,,,2.4,1.0,2.1*3C
$GPRMC,081129.000,A,6410.5673,N,01940.3928,W,10.13,7.82,310812,,,A*40
$GPGGA,081130.000,6410.5701,N,01940.3919,W,1,08,1.0,327.0,M,60.4,M,,0000*46
$GPGSA,A,3,09,27,22,12,01,17,14,25,,,,,2.4,1.0,2.1*3C
$GPGSV,3,1,11,12,58,173,48,14,51,282,43,09,49,105,45,27,39,103,43*79
$GPGSV,3,2,11,22,26,248,46,25,26,208,36,17,25,038,45,01,13,340,34*74
$GPGSV,3,3,11,32,10,342,33,18,06,213,37,15,04,149,31*49
$GPRMC,081130.000,A,6410.5701,N,01940.3919,W,10.09,8.57,310812,,,A*42
$GPGGA,081131.000,6410.5728,N,01940.3910,W,1,08,1.0,327.3,M,60.4,M,,0000*46
$GPGSA,A,3,09,27,22,12,01,17,14,25,,,,,2.4,1.0,2.1*3C
$GPRMC,081131.000,A,6410.5728,N,01940.3910,W,9.86,7.87,310812,,,A*7C
$GPGGA,081132.000,6410.5755,N,01940.3905,W,1,08,1.0,327.6,M,60.4,M,,0000*4E
$GPGSA,A,3,09,27,22,12,01,17,14,25,,,,,2.4,1.0,2.1*3C
$GPRMC,081132.000,A,6410.5755,N,01940.3905,W,9.81,5.20,310812,,,A*79
$GPGGA,081133.000,6410.5782,N,01940.3899,W,1,08,1.0,327.9,M,60.4,M,,0000*4E
$GPGSA,A,3,09,27,22,12,01,17,14,25,,,,,2.4,1.0,2.1*3C
$GPRMC,081133.000,A,6410.5782,N,01940.3899,W,9.84,5.29,310812,,,A*7A
$GPGGA,081134.000,6410.5809,N,01940.3891,W,1,08,1.0,328.2,M,60.4,M,,0000*49
$GPGSA,A,3,09,27,22,12,01,17,14,25,,,,,2.4,1.0,2.1*3C
$GPRMC,081134.000,A,6410.5809,N,01940.3891,W,9.93,7.85,310812,,,A*7B
$GPGGA,081135.000,6410.5837,N,01940.3882,W,1,08,1.0,328.4,M,60.4,M,,0000*41
$GPGSA,A,3,09,27,22,12,01,17,14,25,,,,,2.4,1.0,2.1*3C
$GPGSV,3,1,11,12,58,173,47,14,51,282,43,09,49,105,45,27,39,103,43*76
$GPGSV,3,2,11,22,26,248,46,25,26,208,37,17,25,038,45,01,13,340,35*74
$GPGSV,3,3,11,32,10,342,36,18,06,213,33,15,04,149,32*4B
$GPRMC,081135.000,A,6410.5837,N,01940.3882,W,10.19,8.56,310812,,,A*4E
$GPGGA,081136.000,6410.5866,N,01940.3870,W,1,08,1.0,328.7,M,60.4,M,,0000*48
$GPGSA,A,3,09,27,22,12,01,17,14,25,,,,,2.4,1.0,2.1*3C
$GPRMC,081136.000,A,6410.5866,N,01940.3870,W,10.46,11.08,310812,,,A*7D
$GPGGA,081137.000,6410.5894,N,01940.3856,W,1,08,1.0,329.0,M,60.4,M,,0000*46
$GPGSA,A,3,09,27,22,12,01,17,14,25,,,,,2.4,1.0,2.1*3C
$GPRMC,081137.000,A,6410.5894,N,01940.3856,W,10.36,12.21,310812,,,A*7A
$GPGGA,081138.000,6410.5920,N,01940.3844,W,1,08,1.0,329.4,M,60.4,M,,0000*40
$GPGSA,A,3,09,27,22,12,01,17,14,25,,,,,2.4,1.0,2.1*3C
$GPRMC,081138.000,A,6410.5920,N,01940.3844,W,9.82,12.11,310812,,,A*4C
$GPGGA,081139.000,6410.5946,N,01940.3834,W,1,08,1.0,330.0,M,60.4,M,,0000*4A
$GPGSA,A,3,09,27,22,12,01,17,14,25,,,,,2.4,1.0,2.1*3C
$GPRMC,081139.000,A,6410.5946,N,01940.3834,W,9.20,9.51,310812,,,A*7C
$GPGGA,081140.000,6410.5969,N,01940.3826,W,1,08,1.0,330.5,M,60.4,M,,0000*4F
$GPGSA,A,3,09,27,22,12,01,17,14,25,,,,,2.4,1.0,2.1*3C
$GPGSV,3,1,11,12,58,173,47,14,51,282,43,09,49,105,47,27,39,103,43*74
$GPGSV,3,2,11,22,26,248,45,25,26,208,36,17,25,038,44,01,13,340,39*7B
$GPGSV,3,3,11,32,10,342,36,18,06,213,36,15,04,149,34*48
$GPRMC,081140.000,A,6410.5969,N,01940.3826,W,8.67,9.15,310812,,,A*7E
$GPGGA,081141.000,6410.5993,N,01940.3818,W,1,08,1.0,330.9,M,60.4,M,,0000*4A
$GPGSA,A,3,09,27,22,12,01,17,14,25,,,,,2.4,1.0,2.1*3C
$GPRMC,081141.000,A,6410.5993,N,01940.3818,W,8.44,8.90,310812,,,A*7A
$GPGGA,081142.000,6410.6017,N,01940.3810,W,1,08,1.0,331.3,M,60.4,M,,0000*4C
$GPGSA,A,3,09,27,22,12,01,17,14,25,,,,,2.4,1.0,2.1*3C
$GPRMC,081142.000,A,6410.6017,N,01940.3810,W,8.84,8.09,310812,,,A*7B
$GPGGA,081143.000,6410.6043,N,01940.3799,W,1,08,1.0,331.5,M,60.4,M,,0000*44
$GPGSA,A,3,09,27,22,12,01,17,14,25,,,,,2.4,1.0,2.1*3C
$GPRMC,081143.000,A,6410.6043,N,01940.3799,W,9.55,10.86,310812,,,A*46
$GPGGA,081144.000,6410.6071,N,01940.3788,W,1,08,1.0,331.7,M,60.4,M,,0000*40
$GPGSA,A,3,09,27,22,12,01,17,14,25,,,,,2.4,1.0,2.1*3C
$GPRMC,081144.000,A,6410.6071,N,01940.3788,W,10.20,10.46,310812,,,A*76
$GPGGA,081145.000,6410.6100,N,01940.3778,W,1,08,1.0,331.8,M,60.4,M,,0000*46
$GPGSA,A,3,09,27,22,12,01,17,14,25,,,,,2.4,1.0,2.1*3C
$GPGSV,3,1,11,12,58,173,47,14,51,282,43,09,49,105,44,27,38,103,42*77
$GPGSV,3,2,11,22,26,248,43,25,26,208,32,17,25,038,45,01,13,339,32*7D
$GPGSV,3,3,11,32,10,342,36,18,06,213,34,15,04,149,32*4C
$GPRMC,081145.000,A,6410.6100,N,01940.3778,W,10.68,9.00,310812,,,A*49
$GPGGA,081146.000,6410.6129,N,01940.3769,W,1,08,1.0,331.9,M,60.4,M,,0000*4F
$GPGSA,A,3,09,27,22,12,01,17,14,25,,,,,2.4,1.0,2.1*3C
$GPRMC,081146.000,A,6410.6129,N,01940.3769,W,10.88,7.18,310812,,,A*48
$GPGGA,081147.000,6410.6159,N,01940.3762,W,1,08,1.0,332.0,M,60.4,M,,0000*48
$GPGSA,A,3,09,27,22,12,01,17,14,25,,,,,2.4,1.0,2.1*3C
$GPRMC,081147.000,A,6410.6159,N,01940.3762,W,10.92,6.22,310812,,,A*46
$GPGGA,081148.000,6410.6189,N,01940.3755,W,1,08,1.0,332.1,M,60.4,M,,0000*4F
$GPGSA,A,3,09,27,22,12,01,17,14,25,,,,,2.4,1.0,2.1*3C
$GPRMC,081148.000,A,6410.6189,N,01940.3755,W,10.83,6.27,310812,,,A*45
$GPGGA,081149.000,6410.6218,N,01940.3749,W,1,08,1.0,332.3,M,60.4,M,,0000*4A
$GPGSA,A,3,09,27,22,12,01,17,14,25,,,,,2.4,1.0,2.1*3C
$GPRMC,081149.000,A,6410.6218,N,01940.3749,W,10.60,5.31,310812,,,A*4B
$GPGGA,081150.000,6410.6247,N,01940.3744,W,1,08,1.0,332.6,M,60.4,M,,0000*40
$GPGSA,A,3,09,27,22,12,01,17,14,25,,,,,2.4,1.0,2.1*3C
$GPGSV,3,1,11,12,59,173,47,14,52,282,43,09,49,105,44,27,38,103,43*74
$GPGSV,3,2,11,22,26,248,45,25,26,208,36,17,25,038,45,01,13,339,37*7A
$GPGSV,3,3,11,32,10,342,36,18,06,213,39,15,04,149,34*47
$GPRMC,081150.000,A,6410.6247,N,01940.3744,W,10.31,4.03,310812,,,A*40
$GPGGA,081151.000,6410.6274,N,01940.3741,W,1,08,1.0,332.9,M,60.4,M,,0000*4B
$GPGSA,A,3,09,27,22,12,01,17,14,25,,,,,2.4,1.0,2.1*3C
$GPRMC,081151.000,A,6410.6274,N,01940.3741,W,9.93,3.05,310812,,,A*75
$GPGGA,081152.000,6410.6301,N,01940.3741,W,1,09,1.0,333.3,M,60.4,M,,0000*41
$GPGSA,A,3,09,27,22,12,01,17,14,32,25,,,,2.3,1.0,2.0*3B
$GPRMC,081152.000,A,6410.6301,N,01940.3741,W,9.57,0.09,310812,,,A*72
$GPGGA,081153.000,6410.6327,N,01940.3744,W,1,09,1.0,333.7,M,60.4,M,,0000*45
$GPGSA,A,3,09,27,22,12,01,17,14,32,25,,,,2.3,1.0,2.0*3B
$GPRMC,081153.000,A,6410.6327,N,01940.3744,W,9.48,357.09,310812,,,A*7D
$GPGGA,081154.000,6410.6353,N,01940.3753,W,1,09,1.0,334.1,M,60.4,M,,0000*46
$GPGSA,A,3,09,27,22,12,01,17,14,32,25,,,,2.3,1.0,2.0*3B
$GPRMC,081154.000,A,6410.6353,N,01940.3753,W,9.57,351.98,310812,,,A*7F
$GPGGA,081155.000,6410.6380,N,01940.3762,W,1,09,1.0,334.5,M,60.4,M,,0000*4F
$GPGSA,A,3,09,27,22,12,01,17,14,32,25,,,,2.3,1.0,2.0*3B
$GPGSV,3,1,11,12,59,173,49,14,52,282,44,09,49,105,45,27,38,103,43*7C
$GPGSV,3,2,11,22,26,248,45,25,26,208,34,17,25,038,46,01,13,339,34*78
$GPGSV,3,3,11,32,10,342,35,18,06,213,38,15,04,149,26*46
$GPRMC,081155.000,A,6410.6380,N,01940.3762,W,9.79,351.24,310812,,,A*79
$GPGGA,081156.000,6410.6407,N,01940.3770,W,1,09,1.0,334.8,M,60.4,M,,0000*4A
$GPGSA,A,3,09,27,22,12,01,17,14,32,25,,,,2.3,1.0,2.0*3B
$GPRMC,081156.000,A,6410.6407,N,01940.3770,W,9.78,352.74,310812,,,A*76
$GPGGA,081157.000,6410.6434,N,01940.3780,W,1,09,1.0,335.2,M,60.4,M,,0000*4F
$GPGSA,A,3,09,27,22,12,01,17,14,32,25,,,,2.3,1.0,2.0*3B
$GPRMC,081157.000,A,6410.6434,N,01940.3780,W,9.82,350.33,310812,,,A*7C
$GPGGA,081158.000,6410.6461,N,01940.3792,W,1,09,1.0,335.5,M,60.4,M,,0000*44
$GPGSA,A,3,09,27,22,12,01,17,14,32,25,,,,2.3,1.0,2.0*3B
$GPRMC,081158.000,A,6410.6461,N,01940.3792,W,10.09,349.10,310812,,,A*42
$GPGGA,081159.000,6410.6489,N,01940.3803,W,1,09,1.0,335.8,M,60.4,M,,0000*49
$GPGSA,A,3,09,27,22,12,01,17,14,32,25,,,,2.3,1.0,2.0*3B
$GPRMC,081159.000,A,6410.6489,N,01940.3803,W,10.32,350.46,310812,,,A*41
$GPGGA,081200.000,6410.6518,N,01940.3811,W,1,09,1.0,336.1,M,60.4,M,,0000*46
$GPGSA,A,3,09,27,22,12,01,17,14,32,25,,,,2.3,1.0,2.0*3B
$GPGSV,3,1,11,12,59,173,49,14,52,282,44,09,49,105,47,27,38,103,41*7C
$GPGSV,3,2,11,22,26,248,44,25,26,208,34,17,25,038,45,01,13,339,40*79
$GPGSV,3,3,11,32,10,342,33,18,06,213,41,15,04,149,30*49
$GPRMC,081200.000,A,6410.6518,N,01940.3811,W,10.47,353.37,310812,,,A*43
$GPGGA,081201.000,6410.6547,N,01940.3816,W,1,09,1.0,336.4,M,60.4,M,,0000*4F
$GPGSA,A,3,09,27,22,12,01,17,14,32,25,,,,2.3,1.0,2.0*3B
$GPRMC,081201.000,A,6410.6547,N,01940.3816,W,10.48,356.19,310812,,,A*49
$GPGGA,081202.000,6410.6576,N,01940.3819,W,1,09,1.0,336.7,M,60.4,M,,0000*42
$GPGSA,A,3,09,27,22,12,01,17,14,32,25,,,,2.3,1.0,2.0*3B
$GPRMC,081202.000,A,6410.6576,N,01940.3819,W,10.29,357.11,310812,,,A*49
$GPGGA,081203.000,6410.6604,N,01940.3822,W,1,09,1.0,337.0,M,60.4,M,,0000*4B
$GPGSA,A,3,09,27,22,12,01,17,14,32,25,,,,2.3,1.0,2.0*3B
$GPRMC,081203.000,A,6410.6604,N,01940.3822,W,10.15,358.24,310812,,,A*40
$GPGGA,081204.000,6410.6632,N,01940.3821,W,1,09,1.0,337.2,M,60.4,M,,0000*48
$GPGSA,A,3,09,27,22,12,01,17,14,32,25,,,,2.3,1.0,2.0*3B
$GPRMC,081204.000,A,6410.6632,N,01940.3821,W,10.06,1.36,310812,,,A*4F
$GPGGA,081205.000,6410.6659,N,01940.3817,W,1,09,1.0,337.5,M,60.4,M,,0000*46
$GPGSA,A,3,09,27,22,12,01,17,14,32,25,,,,2.3,1.0,2.0*3B
$GPGSV,3,1,11,12,59,173,49,14,52,282,44,09,49,105,47,27,38,103,43*7E
$GPGSV,3,2,11,22,26,248,45,25,26,208,34,17,25,038,47,01,13,339,38*75
$GPGSV,3,3,11,32,10,342,36,18,06,213,42,15,04,149,32*4D
$GPRMC,081205.000,A,6410.6659,N,01940.3817,W,10.02,3.55,310812,,,A*45
$GPGGA,081206.000,6410.6687,N,01940.3813,W,1,09,1.0,337.7,M,60.4,M,,0000*40
$GPGSA,A,3,09,27,22,12,01,17,14,32,25,,,,2.3,1.0,2.0*3B
$GPRMC,081206.000,A,6410.6687,N,01940.3813,W,10.02,4.06,310812,,,A*40
$GPGGA,081207.000,6410.6715,N,01940.3809,W,1,09,1.0,338.0,M,60.4,M,,0000*48
$GPGSA,A,3,09,27,22,12,01,17,14,32,25,,,,2.3,1.0,2.0*3B
$GPRMC,081207.000,A,6410.6715,N,01940.3809,W,10.02,4.54,310812,,,A*47
$GPGGA,081208.000,6410.6742,N,01940.3804,W,1,09,1.0,338.3,M,60.4,M,,0000*4B
$GPGSA,A,3,09,27,22,12,01,17,14,32,25,,,,2.3,1.0,2.0*3B
$GPRMC,081208.000,A,6410.6742,N,01940.3804,W,9.99,4.47,310812,,,A*7F
$GPGGA,081209.000,6410.6770,N,01940.3803,W,1,09,1.0,338.6,M,60.4,M,,0000*49
$GPGSA,A,3,09,27,22,12,01,17,14,32,25,,,,2.3,1.0,2.0*3B
$GPRMC,081209.000,A,6410.6770,N,01940.3803,W,9.95,1.98,310812,,,A*73
$GPGGA,081210.000,6410.6797,N,01940.3803,W,1,09,1.0,338.9,M,60.4,M,,0000*47
$GPGSA,A,3,09,27,22,12,01,17,14,32,25,,,,2.3,1.0,2.0*3B
$GPGSV,3,1,11,12,59,173,48,14,52,282,45,09,49,105,42,27,38,103,44*7C
$GPGSV,3,2,11,22,26,248,46,25,26,208,35,17,25,038,46,01,13,339,38*76
$GPGSV,3,3,11,32,10,342,37,18,06,213,38,15,04,149,31*42
$GPRMC,081210.000,A,6410.6797,N,01940.3803,W,10.02,0.18,310812,,,A*4D
$GPGGA,081211.000,6410.6825,N,01940.3804,W,1,09,1.0,339.2,M,60.4,M,,0000*4D
$GPGSA,A,3,09,27,22,12,01,17,14,32,25,,,,2.3,1.0,2.0*3B
$GPRMC,081211.000,A,6410.6825,N,01940.3804,W,10.08,358.77,310812,,,A*40
$GPGGA,081212.000,6410.6854,N,01940.3807,W,1,09,1.0,339.5,M,60.4,M,,0000*4C
$GPGSA,A,3,09,27,22,12,01,17,14,32,25,,,,2.3,1.0,2.0*3B
$GPRMC,081212.000,A,6410.6854,N,01940.3807,W,10.19,358.31,310812,,,A*44
$GPGGA,081213.000,6410.6882,N,01940.3809,W,1,09,1.0,339.8,M,60.4,M,,0000*45
$GPGSA,A,3,09,27,22,12,01,17,14,32,25,,,,2.3,1.0,2.0*3B
$GPRMC,081213.000,A,6410.6882,N,01940.3809,W,10.25,358.40,310812,,,A*49
$GPGGA,081214.000,6410.6910,N,01940.3813,W,1,09,1.0,340.1,M,60.4,M,,0000*44
$GPGSA,A,3,09,27,22,12,01,17,14,32,25,,,,2.3,1.0,2.0*3B
$GPRMC,081214.000,A,6410.6910,N,01940.3813,W,10.18,356.41,310812,,,A*4E
$GPGGA,081215.000,6410.6938,N,01940.3817,W,1,09,1.0,340.4,M,60.4,M,,0000*4E
$GPGSA,A,3,09,27,22,12,01,17,14,32,25,,,,2.3,1.0,2.0*3B
$GPGSV,3,1,11,12,59,173,48,14,52,282,46,09,49,105,44,27,38,103,44*79
$GPGSV,3,2,11,25,26,208,35,22,26,248,45,17,25,038,48,01,13,339,38*7B
$GPGSV,3,3,11,32,10,342,38,18,06,213,40,15,04,149,24*46
$GPRMC,081215.000,A,6410.6938,N,01940.3817,W,10.10,356.26,310812,,,A*48
$GPGGA,081216.000,6410.6966,N,01940.3821,W,1,09,1.0,340.7,M,60.4,M,,0000*40
$GPGSA,A,3,09,27,22,12,01,17,14,32,25,,,,2.3,1.0,2.0*3B
$GPRMC,081216.000,A,6410.6966,N,01940.3821,W,9.98,356.91,310812,,,A*71
$GPGGA,081217.000,6410.6993,N,01940.3825,W,1,09,1.0,341.0,M,60.4,M,,0000*49
$GPGSA,A,3,09,27,22,12,01,17,14,32,25,,,,2.3,1.0,2.0*3B
$GPRMC,081217.000,A,6410.6993,N,01940.3825,W,9.99,356.95,310812,,,A*7B
$GPGGA,081218.000,6410.7021,N,01940.3828,W,1,09,1.0,341.3,M,60.4,M,,0000*49
$GPGSA,A,3,09,27,22,12,01,17,14,32,25,,,,2.3,1.0,2.0*3B
$GPRMC,081218.000,A,6410.7021,N,01940.3828,W,10.09,357.52,310812,,,A*43
$GPGGA,081219.000,6410.7049,N,01940.3830,W,1,09,1.0,341.6,M,60.4,M,,0000*4A
$GPGSA,A,3,09,27,22,12,01,17,14,32,25,,,,2.3,1.0,2.0*3B
$GPRMC,081219.000,A,6410.7049,N,01940.3830,W,10.16,358.38,310812,,,A*48
$GPGGA,081220.000,6410.7078,N,01940.3832,W,1,09,1.0,341.9,M,60.4,M,,0000*4F
$GPGSA,A,3,09,27,22,12,01,17,14,32,25,,,,2.3,1.0,2.0*3B
$GPGSV,3,1,11,12,59,173,49,14,52,282,45,09,49,105,45,27,38,103,44*7A
$GPGSV,3,2,11,25,26,208,35,22,26,248,45,17,25,038,49,01,13,339,38*7A
$GPGSV,3,3,11,32,10,342,38,18,06,213,40,15,04,149,27*45
$GPRMC,081220.000,A,6410.7078,N,01940.3832,W,10.19,358.48,310812,,,A*4A
$GPGGA,081221.000,6410.7106,N,01940.3834,W,1,09,1.0,342.2,M,60.4,M,,0000*48
$GPGSA,A,3,09,27,22,12,01,17,14,32,25,,,,2.3,1.0,2.0*3B
$GPRMC,081221.000,A,6410.7106,N,01940.3834,W,10.23,358.26,310812,,,A*44
$GPGGA,081222.000,6410.7134,N,01940.3836,W,1,09,1.0,342.5,M,60.4,M,,0000*4F
$GPGSA,A,3,09,27,22,12,01,17,14,32,25,,,,2.3,1.0,2.0*3B
$GPRMC,081222.000,A,6410.7134,N,01940.3836,W,10.21,358.88,310812,,,A*42
$GPGGA,081223.000,6410.7162,N,01940.3837,W,1,09,1.0,342.8,M,60.4,M,,0000*41
$GPGSA,A,3,09,27,22,12,01,17,14,32,25,,,,2.3,1.0,2.0*3B
$GPRMC,081223.000,A,6410.7162,N,01940.3837,W,10.14,359.30,310812,,,A*45
$GPGGA,081224.000,6410.7191,N,01940.3838,W,1,09,1.0,343.2,M,60.4,M,,0000*4E
$GPGSA,A,3,09,27,22,12,01,17,14,32,25,,,,2.3,1.0,2.0*3B
$GPRMC,081224.000,A,6410.7191,N,01940.3838,W,10.19,359.39,310812,,,A*45
$GPGGA,081225.000,6410.7219,N,01940.3839,W,1,09,1.0,343.5,M,60.4,M,,0000*4A
$GPGSA,A,3,09,27,22,12,01,17,14,32,25,,,,2.3,1.0,2.0*3B
$GPGSV,3,1,11,12,59,173,49,14,52,282,45,09,49,105,45,27,38,103,44*7A
$GPGSV,3,2,11,25,26,208,35,22,26,248,45,17,25,038,49,01,13,339,38*7A
$GPGSV,3,3,11,32,10,342,38,18,06,213,41,15,04,149,25*46
$GPRMC,081225.000,A,6410.7219,N,01940.3839,W,10.28,359.25,310812,,,A*49
$GPGGA,081226.000,6410.7248,N,01940.3840,W,1,09,1.0,343.7,M,60.4,M,,0000*41
$GPGSA,A,3,09,27,22,12,01,17,14,32,25,,,,2.3,1.0,2.0*3B
$GPRMC,081226.000,A,6410.7248,N,01940.3840,W,10.43,359.42,310812,,,A*4C
$GPGGA,081227.000,6410.7277,N,01940.3841,W,1,09,1.0,344.0,M,60.4,M,,0000*4D
$GPGSA,A,3,09,27,22,12,01,17,14,32,25,,,,2.3,1.0,2.0*3B
$GPRMC,081227.000,A,6410.7277,N,01940.3841,W,10.64,358.95,310812,,,A*4E
$GPGGA,081228.000,6410.7308,N,01940.3843,W,1,09,1.0,344.2,M,60.4,M,,0000*4B
$GPGSA,A,3,09,27,22,12,01,17,14,32,25,,,,2.3,1.0,2.0*3B
$GPRMC,081228.000,A,6410.7308,N,01940.3843,W,10.97,358.96,310812,,,A*45
$GPGGA,081229.000,6410.7339,N,01940.3843,W,1,09,1.0,344.3,M,60.4,M,,0000*49
$GPGSA,A,3,09,27,22,12,01,17,14,32,25,,,,2.3,1.0,2.0*3B
$GPRMC,081229.000,A,6410.7339,N,01940.3843,W,11.34,359.85,310812,,,A*4D
$GPGGA,081230.000,6410.7371,N,01940.3844,W,1,09,1.0,344.4,M,60.4,M,,0000*4D
$GPGSA,A,3,09,27,22,12,01,17,14,32,25,,,,2.3,1.0,2.0*3B
$GPGSV,3,1,11,12,59,173,48,14,52,282,45,09,49,105,45,27,38,103,44*7B
$GPGSV,3,2,11,25,26,208,35,22,26,248,46,17,25,038,50,01,13,339,37*7E
$GPGSV,3,3,11,32,10,342,33,18,06,213,29,15,04,149,25*43
$GPRMC,081230.000,A,6410.7371,N,01940.3844,W,11.59,359.63,310812,,,A*4D
$GPGGA,081231.000,6410.7404,N,01940.3846,W,1,09,1.0,344.5,M,60.4,M,,0000*4A
$GPGSA,A,3,09,27,22,12,01,17,14,32,25,,,,2.3,1.0,2.0*3B
$GPRMC,081231.000,A,6410.7404,N,01940.3846,W,11.78,358.99,310812,,,A*4C
$GPGGA,081232.000,6410.7437,N,01940.3847,W,1,09,1.0,344.6,M,60.4,M,,0000*4B
$GPGSA,A,3,09,27,22,12,01,17,14,32,25,,,,2.3,1.0,2.0*3B
$GPRMC,081232.000,A,6410.7437,N,01940.3847,W,12.24,359.43,310812,,,A*42
$GPGGA,081233.000,6410.7472,N,01940.3847,W,1,09,1.0,344.8,M,60.4,M,,0000*45
$GPGSA,A,3,09,27,22,12,01,17,14,32,25,,,,2.3,1.0,2.0*3B
$GPRMC,081233.000,A,6410.7472,N,01940.3847,W,12.62,0.09,310812,,,A*41
$GPGGA,081234.000,6410.7507,N,01940.3847,W,1,09,1.0,344.9,M,60.4,M,,0000*40
$GPGSA,A,3,09,27,22,12,01,17,14,32,25,,,,2.3,1.0,2.0*3B
$GPRMC,081234.000,A,6410.7507,N,01940.3847,W,12.66,0.31,310812,,,A*4A
$GPGGA,081235.000,6410.7542,N,01940.3847,W,1,09,1.0,345.0,M,60.4,M,,0000*48
$GPGSA,A,3,09,27,22,12,01,17,14,32,25,,,,2.3,1.0,2.0*3B
$GPGSV,3,1,11,12,59,173,48,14,52,282,45,09,49,105,45,27,38,103,44*7B
$GPGSV,3,2,11,25,26,208,35,22,26,248,46,17,25,038,50,01,13,339,37*7E
$GPGSV,3,3,11,32,10,342,33,18,06,213,33,15,04,149,25*48
$GPRMC,081235.000,A,6410.7542,N,01940.3847,W,12.62,0.25,310812,,,A*4B
$GPGGA,081236.000,6410.7577,N,01940.3847,W,1,09,1.0,345.1,M,60.4,M,,0000*4C
$GPGSA,A,3,09,27,22,12,01,17,14,32,25,,,,2.3,1.0,2.0*3B
$GPRMC,081236.000,A,6410.7577,N,01940.3847,W,12.60,359.97,310812,,,A*4A
$GPGGA,081237.000,6410.7612,N,01940.3847,W,1,09,1.0,345.2,M,60.4,M,,0000*4E
$GPGSA,A,3,09,27,22,12,01,17,14,32,25,,,,2.3,1.0,2.0*3B
$GPRMC,081237.000,A,6410.7612,N,01940.3847,W,12.64,0.16,310812,,,A*49
$GPGGA,081238.000,6410.7646,N,01940.3846,W,1,09,1.0,345.3,M,60.4,M,,0000*40
$GPGSA,A,3,09,27,22,12,01,17,14,32,25,,,,2.3,1.0,2.0*3B
$GPRMC,081238.000,A,6410.7646,N,01940.3846,W,12.63,0.96,310812,,,A*49
$GPGGA,081239.000,6410.7681,N,01940.3843,W,1,09,1.0,345.4,M,60.4,M,,0000*48
$GPGSA,A,3,09,27,22,12,01,17,14,32,25,,,,2.3,1.0,2.0*3B
$GPRMC,081239.000,A,6410.7681,N,01940.3843,W,12.54,2.38,310812,,,A*44
$GPGGA,081240.000,6410.7715,N,01940.3837,W,1,09,1.0,345.6,M,60.4,M,,0000*4B
$GPGSA,A,3,09,27,22,12,01,17,14,32,25,,,,2.3,1.0,2.0*3B
$GPGSV,3,1,11,12,59,173,47,14,52,282,44,09,49,105,45,27,38,103,44*75
$GPGSV,3,2,11,25,26,208,34,22,26,248,46,17,25,038,49,01,13,339,37*77
$GPGSV,3,3,11,32,10,342,34,18,06,213,34,15,04,149,26*4B
$GPRMC,081240.000,A,6410.7715,N,01940.3837,W,12.40,4.66,310812,,,A*4D
$GPGGA,081241.000,6410.7749,N,01940.3829,W,1,09,1.0,345.7,M,60.4,M,,0000*4D
$GPGSA,A,3,09,27,22,12,01,17,14,32,25,,,,2.3,1.0,2.0*3B
$GPRMC,081241.000,A,6410.7749,N,01940.3829,W,12.19,6.79,310812,,,A*4A
$GPGGA,081242.000,6410.7782,N,01940.3817,W,1,09,1.0,345.9,M,60.4,M,,0000*4A
$GPGSA,A,3,09,27,22,12,01,17,14,32,25,,,,2.3,1.0,2.0*3B
$GPRMC,081242.000,A,6410.7782,N,01940.3817,W,12.03,9.22,310812,,,A*49
$GPGGA,081243.000,6410.7814,N,01940.3803,W,1,09,1.0,346.1,M,60.4,M,,0000*45
$GPGSA,A,3,09,27,22,12,01,17,14,32,25,,,,2.3,1.0,2.0*3B
$GPRMC,081243.000,A,6410.7814,N,01940.3803,W,11.89,11.25,310812,,,A*72
$GPGGA,081244.000,6410.7846,N,01940.3786,W,1,09,1.0,346.3,M,60.4,M,,0000*45
$GPGSA,A,3,09,27,22,12,01,17,14,32,25,,,,2.3,1.0,2.0*3B
$GPRMC,081244.000,A,6410.7846,N,01940.3786,W,11.74,13.46,310812,,,A*75
$GPGGA,081245.000,6410.7877,N,01940.3766,W,1,09,1.0,346.6,M,60.4,M,,0000*4D
$GPGSA,A,3,09,27,22,12,01,17,14,32,25,,,,2.3,1.0,2.0*3B
$GPGSV,3,1,11,12,59,173,47,14,52,282,42,09,49,105,46,27,38,103,43*77
$GPGSV,3,2,11,25,26,208,34,22,26,248,38,17,25,038,48,01,13,339,32*7A
$GPGSV,3,3,11,32,10,342,38,18,06,213,34,15,04,149,36*46
$GPRMC,081245.000,A,6410.7877,N,01940.3766,W,11.64,16.04,310812,,,A*7A
$GPGGA,081246.000,6410.7907,N,01940.3744,W,1,09,1.0,346.9,M,60.4,M,,0000*47
$GPGSA,A,3,09,27,22,12,01,17,14,32,25,,,,2.3,1.0,2.0*3B
$GPRMC,081246.000,A,6410.7907,N,01940.3744,W,11.60,18.26,310812,,,A*75
$GPGGA,081247.000,6410.7938,N,01940.3721,W,1,09,1.0,347.1,M,60.4,M,,0000*40
$GPGSA,A,3,09,27,22,12,01,17,14,32,25,,,,2.3,1.0,2.0*3B
$GPRMC,081247.000,A,6410.7938,N,01940.3721,W,11.56,19.11,310812,,,A*7B
$GPGGA,081248.000,6410.7968,N,01940.3698,W,1,09,1.0,347.3,M,60.4,M,,0000*4B
$GPGSA,A,3,09,27,22,12,01,17,14,32,25,,,,2.3,1.0,2.0*3B
$GPRMC,081248.000,A,6410.7968,N,01940.3698,W,11.56,18.43,310812,,,A*74
$GPGGA,081249.000,6410.7999,N,01940.3675,W,1,09,1.0,347.5,M,60.4,M,,0000*41
$GPGSA,A,3,09,27,22,12,01,17,14,32,25,,,,2.3,1.0,2.0*3B
$GPRMC,081249.000,A,6410.7999,N,01940.3675,W,11.65,18.82,310812,,,A*75
$GPGGA,081250.000,6410.8029,N,01940.3649,W,1,09,1.0,347.7,M,60.4,M,,0000*49
$GPGSA,A,3,09,27,22,12,01,17,14,32,25,,,,2.3,1.0,2.0*3B
$GPGSV,3,1,11,12,59,173,48,14,52,281,42,09,48,105,47,27,38,103,44*7C
$GPGSV,3,2,11,25,26,208,35,22,26,248,39,17,25,037,46,01,13,339,32*7B
$GPGSV,3,3,11,32,10,341,35,18,05,213,35,15,04,149,36*4A
$GPRMC,081250.000,A,6410.8029,N,01940.3649,W,11.76,20.66,310812,,,A*7C
$GPGGA,081251.000,6410.8059,N,01940.3621,W,1,09,1.0,347.9,M,60.4,M,,0000*4F
$GPGSA,A,3,09,27,22,12,01,17,14,32,25,,,,2.3,1.0,2.0*3B
$GPRMC,081251.000,A,6410.8059,N,01940.3621,W,11.80,22.24,310812,,,A*79
$GPGGA,081252.000,6410.8090,N,01940.3593,W,1,09,1.0,348.0,M,60.4,M,,0000*45
$GPGSA,A,3,09,27,22,12,01,17,14,32,25,,,,2.3,1.0,2.0*3B
$GPRMC,081252.000,A,6410.8090,N,01940.3593,W,11.78,22.54,310812,,,A*75
$GPGGA,081253.000,6410.8119,N,01940.3565,W,1,09,1.0,348.2,M,60.4,M,,0000*4F
$GPGSA,A,3,09,27,22,12,01,17,14,32,25,,,,2.3,1.0,2.0*3B
$GPRMC,081253.000,A,6410.8119,N,01940.3565,W,11.69,22.60,310812,,,A*7A
$GPGGA,081254.000,6410.8149,N,01940.3537,W,1,09,1.0,348.3,M,60.4,M,,0000*4B
$GPGSA,A,3,09,27,22,12,01,17,14,32,25,,,,2.3,1.0,2.0*3B
$GPRMC,081254.000,A,6410.8149,N,01940.3537,W,11.57,23.27,310812,,,A*70
$GPGGA,081255.000,6410.8178,N,01940.3509,W,1,08,1.1,348.5,M,60.4,M,,0000*43
$GPGSA,A,3,09,27,22,12,01,14,32,25,,,,,2.3,1.1,2.0*3C
$GPGSV,3,1,11,12,59,173,50,14,52,281,43,09,48,105,48,27,38,103,44*7B
$GPGSV,3,2,11,25,26,208,31,22,26,248,40,17,25,037,30,01,13,339,37*75
$GPGSV,3,3,11,32,10,341,30,18,05,213,32,15,04,149,28*47
$GPRMC,081255.000,A,6410.8178,N,01940.3509,W,11.35,23.24,310812,,,A*79
$GPGGA,081256.000,6410.8207,N,01940.3481,W,1,08,1.1,348.7,M,60.4,M,,0000*48
$GPGSA,A,3,09,27,22,12,01,14,32,25,,,,,2.3,1.1,2.0*3C
$GPRMC,081256.000,A,6410.8207,N,01940.3481,W,11.21,22.84,310812,,,A*7E
$GPGGA,081257.000,6410.8235,N,01940.3454,W,1,09,1.0,349.0,M,60.4,M,,0000*46
$GPGSA,A,3,09,27,22,12,01,17,14,32,25,,,,2.3,1.0,2.0*3B
$GPRMC,081257.000,A,6410.8235,N,01940.3454,W,11.05,22.79,310812,,,A*72
$GPGGA,081258.000,6410.8264,N,01940.3428,W,1,09,1.0,349.2,M,60.4,M,,0000*44
$GPGSA,A,3,09,27,22,12,01,17,14,32,25,,,,2.3,1.0,2.0*3B
$GPRMC,081258.000,A,6410.8264,N,01940.3428,W,11.15,22.03,310812,,,A*7E
$GPGGA,081259.000,6410.8292,N,01940.3402,W,1,09,1.0,349.5,M,60.4,M,,0000*43
$GPGSA,A,3,09,27,22,12,01,17,14,32,25,,,,2.3,1.0,2.0*3B
$GPRMC,081259.000,A,6410.8292,N,01940.3402,W,11.18,21.45,310812,,,A*72
$GPGGA,081300.000,6410.8321,N,01940.3376,W,1,09,1.0,349.7,M,60.4,M,,0000*41
$GPGSA,A,3,09,27,22,12,01,17,14,32,25,,,,2.3,1.0,2.0*3B
$GPGSV,3,1,11,12,59,173,50,14,52,281,43,09,48,105,47,27,38,103,44*74
$GPGSV,3,2,11,25,26,208,32,22,26,248,40,17,25,037,37,01,13,339,37*71
$GPGSV,3,3,11,32,10,341,35,18,05,213,28,15,04,149,33*43
$GPRMC,081300.000,A,6410.8321,N,01940.3376,W,11.20,21.60,310812,,,A*7E
$GPGGA,081301.000,6410.8351,N,01940.3351,W,1,09,1.0,350.0,M,60.4,M,,0000*4D
$GPGSA,A,3,09,27,22,12,01,17,14,32,25,,,,2.3,1.0,2.0*3B
$GPRMC,081301.000,A,6410.8351,N,01940.3351,W,11.30,20.69,310812,,,A*74
$GPGGA,081302.000,6410.8381,N,01940.3329,W,1,09,1.0,350.3,M,60.4,M,,0000*4F
$GPGSA,A,3,09,27,22,12,01,17,14,32,25,,,,2.3,1.0,2.0*3B
$GPRMC,081302.000,A,6410.8381,N,01940.3329,W,11.47,17.73,310812,,,A*7A
$GPGGA,081303.000,6410.8411,N,01940.3310,W,1,09,1.0,350.5,M,60.4,M,,0000*4C
$GPGSA,A,3,09,27,22,12,01,17,14,32,25,,,,2.3,1.0,2.0*3B
$GPRMC,081303.000,A,6410.8411,N,01940.3310,W,11.44,14.96,310812,,,A*74
$GPGGA,081304.000,6410.8442,N,01940.3294,W,1,08,1.0,350.8,M,60.4,M,,0000*4C
$GPGSA,A,3,09,27,22,12,17,14,32,25,,,,,2.3,1.0,2.1*3B
$GPRMC,081304.000,A,6410.8442,N,01940.3294,W,11.34,13.41,310812,,,A*72
$GPGGA,081305.000,6410.8472,N,01940.3280,W,1,08,1.0,351.1,M,60.4,M,,0000*43
$GPGSA,A,3,09,27,22,12,17,14,32,25,,,,,2.3,1.0,2.1*3B
$GPGSV,3,1,11,12,59,173,50,14,52,281,43,09,48,105,47,27,38,103,44*74
$GPGSV,3,2,11,25,26,208,39,22,26,248,40,17,25,037,45,01,13,339,*7B
$GPGSV,3,3,11,32,10,341,36,18,05,213,28,15,04,149,40*44
$GPRMC,081305.000,A,6410.8472,N,01940.3280,W,11.19,10.53,310812,,,A*7A
$GPGGA,081306.000,6410.8503,N,01940.3270,W,1,09,1.0,351.4,M,60.4,M,,0000*4C
$GPGSA,A,3,09,27,22,12,01,17,14,32,25,,,,2.3,1.0,2.0*3B
$GPRMC,081306.000,A,6410.8503,N,01940.3270,W,11.07,8.31,310812,,,A*43
$GPGGA,081307.000,6410.8532,N,01940.3263,W,1,09,1.0,351.8,M,60.4,M,,0000*41
$GPGSA,A,3,09,27,22,12,01,17,14,32,25,,,,2.3,1.0,2.0*3B
$GPRMC,081307.000,A,6410.8532,N,01940.3263,W,10.77,5.64,310812,,,A*49
$GPGGA,081308.000,6410.8561,N,01940.3262,W,1,09,1.0,352.1,M,60.4,M,,0000*43
$GPGSA,A,3,09,27,22,12,01,17,14,32,25,,,,2.3,1.0,2.0*3B
$GPRMC,081308.000,A,6410.8561,N,01940.3262,W,10.45,0.74,310812,,,A*44
$GPGGA,081309.000,6410.8590,N,01940.3264,W,1,09,1.0,352.5,M,60.4,M,,0000*4E
$GPGSA,A,3,09,27,22,12,01,17,14,32,25,,,,2.3,1.0,2.0*3B
$GPRMC,081309.000,A,6410.8590,N,01940.3264,W,10.21,357.30,310812,,,A*4E
$GPGGA,081310.000,6410.8618,N,01940.3269,W,1,09,1.0,352.8,M,60.4,M,,0000*45
$GPGSA,A,3,09,27,22,12,01,17,14,32,25,,,,2.3,1.0,2.0*3B
$GPGSV,3,1,11,12,59,173,49,14,52,281,45,09,48,105,46,27,38,103,44*7B
$GPGSV,3,2,11,25,26,208,39,22,26,248,46,17,25,037,47,01,13,339,36*7A
$GPGSV,3,3,11,32,10,341,37,18,05,213,42,15,04,149,32*4C
$GPRMC,081310.000,A,6410.8618,N,01940.3269,W,10.16,355.23,310812,,,A*4C
$GPGGA,081311.000,6410.8646,N,01940.3273,W,1,09,1.0,353.1,M,60.4,M,,0000*4C
$GPGSA,A,3,09,27,22,12,01,17,14,32,25,,,,2.3,1.0,2.0*3B
$GPRMC,081311.000,A,6410.8646,N,01940.3273,W,10.10,356.54,310812,,,A*48
$GPGGA,081312.000,6410.8674,N,01940.3274,W,1,09,1.0,353.4,M,60.4,M,,0000*4C
$GPGSA,A,3,09,27,22,12,01,17,14,32,25,,,,2.3,1.0,2.0*3B
$GPRMC,081312.000,A,6410.8674,N,01940.3274,W,10.07,358.56,310812,,,A*47
$GPGGA,081313.000,6410.8702,N,01940.3274,W,1,09,1.0,353.6,M,60.4,M,,0000*4F
$GPGSA,A,3,09,27,22,12,01,17,14,32,25,,,,2.3,1.0,2.0*3B
$GPRMC,081313.000,A,6410.8702,N,01940.3274,W,10.31,0.29,310812,,,A*45
$GPGGA,081314.000,6410.8732,N,01940.3273,W,1,09,1.0,353.7,M,60.4,M,,0000*4D
$GPGSA,A,3,09,27,22,12,01,17,14,32,25,,,,2.3,1.0,2.0*3B
$GPRMC,081314.000,A,6410.8732,N,01940.3273,W,10.80,0.60,310812,,,A*41
$GPGGA,081315.000,6410.8763,N,01940.3272,W,1,09,1.0,353.6,M,60.4,M,,0000*48
$GPGSA,A,3,09,27,22,12,01,17,14,32,25,,,,2.3,1.0,2.0*3B
$GPGSV,3,1,11,12,59,173,48,14,52,281,44,09,48,105,46,27,38,103,44*7B
$GPGSV,3,2,11,25,26,208,31,22,26,248,46,17,25,037,49,01,13,339,37*7D
$GPGSV,3,3,11,32,10,341,38,18,05,213,35,15,04,149,29*49
$GPRMC,081315.000,A,6410.8763,N,01940.3272,W,11.36,0.32,310812,,,A*4E
$GPGGA,081316.000,6410.8795,N,01940.3272,W,1,09,1.0,353.4,M,60.4,M,,0000*40
$GPGSA,A,3,09,27,22,12,01,17,14,32,25,,,,2.3,1.0,2.0*3B
$GPRMC,081316.000,A,6410.8795,N,01940.3272,W,11.64,0.19,310812,,,A*4A
$GPGGA,081317.000,6410.8827,N,01940.3272,W,1,09,1.0,353.2,M,60.4,M,,0000*41
$GPGSA,A,3,09,27,22,12,01,17,14,32,25,,,,2.3,1.0,2.0*3B
$GPRMC,081317.000,A,6410.8827,N,01940.3272,W,11.46,359.60,310812,,,A*4C
$GPGGA,081318.000,6410.8858,N,01940.3275,W,1,09,1.0,353.1,M,60.4,M,,0000*42
$GPGSA,A,3,09,27,22,12,01,17,14,32,25,,,,2.3,1.0,2.0*3B
