$GPGGA,162747.000,6331.5552,N,01930.6961,W,1,11,0.8,34.2,M,60.3,M,,0000*74
$GPGSA,A,3,16,07,06,22,08,19,03,18,11,15,26,,1.6,0.8,1.4*34
$GPGSV,3,1,12,19,70,238,27,03,66,137,28,06,53,117,29,18,33,066,37*76
$GPGSV,3,2,12,08,32,306,24,22,31,117,28,07,28,259,30,16,24,158,28*79
$GPGSV,3,3,12,11,21,228,32,26,15,345,24,15,14,023,20,21,11,056,*76
$GPRMC,162747.000,A,6331.5552,N,01930.6961,W,18.92,304.51,310812,,,A*46
$GPGGA,162748.000,6331.5582,N,01930.7061,W,1,11,0.8,34.1,M,60.3,M,,0000*7D
$GPGSA,A,3,16,07,06,22,08,19,03,18,11,15,26,,1.6,0.8,1.4*34
$GPRMC,162748.000,A,6331.5582,N,01930.7061,W,19.33,304.42,310812,,,A*44
$GPGGA,162749.000,6331.5613,N,01930.7159,W,1,12,0.8,34.0,M,60.3,M,,0000*7F
$GPGSA,A,3,16,07,06,22,08,19,21,03,18,11,15,26,1.5,0.8,1.3*33
$GPRMC,162749.000,A,6331.5613,N,01930.7159,W,19.26,305.24,310812,,,A*41
$GPGGA,162750.000,6331.5645,N,01930.7253,W,1,12,0.8,34.0,M,60.3,M,,0000*7D
$GPGSA,A,3,16,07,06,22,08,19,21,03,18,11,15,26,1.5,0.8,1.3*33
$GPRMC,162750.000,A,6331.5645,N,01930.7253,W,18.86,307.25,310812,,,A*4B
$GPGGA,162751.000,6331.5679,N,01930.7335,W,1,12,0.8,34.0,M,60.3,M,,0000*72
$GPGSA,A,3,16,07,06,22,08,19,21,03,18,11,15,26,1.5,0.8,1.3*33
$GPRMC,162751.000,A,6331.5679,N,01930.7335,W,17.84,313.14,310812,,,A*4E
$GPGGA,162752.000,6331.5717,N,01930.7399,W,1,12,0.8,34.1,M,60.3,M,,0000*7F
$GPGSA,A,3,16,07,06,22,08,19,21,03,18,11,15,26,1.5,0.8,1.3*33
$GPGSV,3,1,12,19,70,238,27,03,66,137,34,06,53,117,36,18,33,066,42*77
$GPGSV,3,2,12,08,32,306,32,22,31,117,31,07,28,259,31,16,24,158,27*78
$GPGSV,3,3,12,11,21,228,32,26,15,345,34,15,14,023,27,21,11,056,24*76
$GPRMC,162752.000,A,6331.5717,N,01930.7399,W,17.19,324.19,310812,,,A*4F
$GPGGA,162753.000,6331.5760,N,01930.7436,W,1,12,0.8,34.1,M,60.3,M,,0000*7C
$GPGSA,A,3,16,07,06,22,08,19,21,03,18,11,15,26,1.5,0.8,1.3*33
$GPRMC,162753.000,A,6331.5760,N,01930.7436,W,16.51,340.10,310812,,,A*4A
$GPGGA,162754.000,6331.5805,N,01930.7447,W,1,12,0.8,34.0,M,60.3,M,,0000*70
$GPGSA,A,3,16,07,06,22,08,19,21,03,18,11,15,26,1.5,0.8,1.3*33
$GPRMC,162754.000,A,6331.5805,N,01930.7447,W,16.19,355.29,310812,,,A*45
$GPGGA,162755.000,6331.5850,N,01930.7439,W,1,12,0.8,34.0,M,60.3,M,,0000*78
$GPGSA,A,3,16,07,06,22,08,19,21,03,18,11,15,26,1.5,0.8,1.3*33
$GPRMC,162755.000,A,6331.5850,N,01930.7439,W,16.51,5.99,310812,,,A*4C
$GPGGA,162756.000,6331.5895,N,01930.7419,W,1,12,0.8,34.1,M,60.3,M,,0000*71
$GPGSA,A,3,16,07,06,22,08,19,21,03,18,11,15,26,1.5,0.8,1.3*33
$GPRMC,162756.000,A,6331.5895,N,01930.7419,W,16.71,12.54,310812,,,A*71
$GPGGA,162757.000,6331.5940,N,01930.7395,W,1,11,0.8,34.1,M,60.3,M,,0000*79
$GPGSA,A,3,16,07,06,22,08,19,21,03,11,15,26,,1.6,0.8,1.4*3E
$GPGSV,3,1,12,19,70,238,20,03,66,137,24,06,53,117,42,18,33,066,19*7C
$GPGSV,3,2,12,08,32,306,32,22,31,117,41,07,28,259,37,16,24,158,26*78
$GPGSV,3,3,12,11,21,228,27,26,15,345,32,15,14,023,35,21,11,056,23*70
$GPRMC,162757.000,A,6331.5940,N,01930.7395,W,16.86,15.03,310812,,,A*77
$GPGGA,162758.000,6331.5985,N,01930.7370,W,1,11,0.8,34.3,M,60.3,M,,0000*76
$GPGSA,A,3,16,07,06,22,08,19,21,03,11,15,26,,1.6,0.8,1.4*3E
$GPRMC,162758.000,A,6331.5985,N,01930.7370,W,16.87,14.79,310812,,,A*77
$GPGGA,162759.000,6331.6030,N,01930.7348,W,1,12,0.8,34.3,M,60.3,M,,0000*7B
$GPGSA,A,3,16,07,06,22,08,19,21,03,18,11,15,26,1.5,0.8,1.3*33
$GPRMC,162759.000,A,6331.6030,N,01930.7348,W,16.98,13.10,310812,,,A*7F
$GPGGA,162800.000,6331.6075,N,01930.7328,W,1,12,0.8,34.4,M,60.3,M,,0000*78
$GPGSA,A,3,16,07,06,22,08,19,21,03,18,11,15,26,1.5,0.8,1.3*33
$GPRMC,162800.000,A,6331.6075,N,01930.7328,W,16.76,11.80,310812,,,A*70
$GPGGA,162801.000,6331.6121,N,01930.7308,W,1,12,0.8,34.5,M,60.3,M,,0000*7A
$GPGSA,A,3,16,07,06,22,08,19,21,03,18,11,15,26,1.5,0.8,1.3*33
$GPRMC,162801.000,A,6331.6121,N,01930.7308,W,16.86,11.24,310812,,,A*72
$GPGGA,162802.000,6331.6166,N,01930.7292,W,1,12,0.8,34.5,M,60.3,M,,0000*78
$GPGSA,A,3,16,07,06,22,08,19,21,03,18,11,15,26,1.5,0.8,1.3*33
$GPGSV,3,1,12,19,70,238,19,03,66,137,26,06,53,117,42,18,33,066,30*7F
$GPGSV,3,2,12,08,32,306,33,22,31,117,40,07,28,259,28,16,24,158,30*71
$GPGSV,3,3,12,11,21,228,27,26,15,345,33,15,14,023,28,21,11,056,23*7D
$GPRMC,162802.000,A,6331.6166,N,01930.7292,W,16.81,9.23,310812,,,A*49
$GPGGA,162803.000,6331.6212,N,01930.7279,W,1,11,0.8,34.5,M,60.3,M,,0000*7F
$GPGSA,A,3,16,07,06,22,08,19,21,03,11,15,26,,1.6,0.8,1.4*3E
$GPRMC,162803.000,A,6331.6212,N,01930.7279,W,16.88,7.12,310812,,,A*48
$GPGGA,162804.000,6331.6257,N,01930.7268,W,1,11,0.8,34.5,M,60.3,M,,0000*79
$GPGSA,A,3,16,07,06,22,08,19,21,03,11,15,26,,1.6,0.8,1.4*3E
$GPRMC,162804.000,A,6331.6257,N,01930.7268,W,16.66,6.09,310812,,,A*45
$GPGGA,162805.000,6331.6302,N,01930.7258,W,1,12,0.8,34.5,M,60.3,M,,0000*79
$GPGSA,A,3,16,07,06,22,08,19,21,03,18,11,15,26,1.5,0.8,1.3*33
$GPRMC,162805.000,A,6331.6302,N,01930.7258,W,16.28,5.18,310812,,,A*4F
$GPGGA,162806.000,6331.6345,N,01930.7251,W,1,12,0.8,34.6,M,60.3,M,,0000*73
$GPGSA,A,3,16,07,06,22,08,19,21,03,18,11,15,26,1.5,0.8,1.3*33
$GPRMC,162806.000,A,6331.6345,N,01930.7251,W,15.69,3.63,310812,,,A*4A
$GPGGA,162807.000,6331.6387,N,01930.7247,W,1,12,0.8,34.7,M,60.3,M,,0000*7A
$GPGSA,A,3,16,07,06,22,08,19,21,03,18,11,15,26,1.5,0.8,1.3*33
$GPGSV,3,1,12,19,70,238,31,03,66,137,30,06,53,117,43,18,33,066,35*76
$GPGSV,3,2,12,08,32,306,28,22,31,117,44,07,28,259,36,16,24,158,23*72
$GPGSV,3,3,12,11,21,228,28,26,15,345,34,15,14,023,31,21,11,056,30*7F
$GPRMC,162807.000,A,6331.6387,N,01930.7247,W,15.12,1.83,310812,,,A*42
$GPGGA,162808.000,6331.6426,N,01930.7246,W,1,12,0.8,34.8,M,60.3,M,,0000*77
$GPGSA,A,3,16,07,06,22,08,19,21,03,18,11,15,26,1.5,0.8,1.3*33
$GPRMC,162808.000,A,6331.6426,N,01930.7246,W,14.23,359.78,310812,,,A*49
$GPGGA,162809.000,6331.6460,N,01930.7248,W,1,12,0.8,34.8,M,60.3,M,,0000*7A
$GPGSA,A,3,16,07,06,22,08,19,21,03,18,11,15,26,1.5,0.8,1.3*33
$GPRMC,162809.000,A,6331.6460,N,01930.7248,W,12.24,357.56,310812,,,A*47
$GPGGA,162810.000,6331.6488,N,01930.7253,W,1,12,0.8,34.9,M,60.3,M,,0000*7F
$GPGSA,A,3,16,07,06,22,08,19,21,03,18,11,15,26,1.5,0.8,1.3*33
$GPRMC,162810.000,A,6331.6488,N,01930.7253,W,9.99,354.53,310812,,,A*79
$GPGGA,162811.000,6331.6508,N,01930.7259,W,1,12,0.8,35.0,M,60.3,M,,0000*75
$GPGSA,A,3,16,07,06,22,08,19,21,03,18,11,15,26,1.5,0.8,1.3*33
$GPRMC,162811.000,A,6331.6508,N,01930.7259,W,7.45,351.27,310812,,,A*72
$GPGGA,162812.000,6331.6525,N,01930.7267,W,1,12,0.8,35.0,M,60.3,M,,0000*74
$GPGSA,A,3,16,07,06,22,08,19,21,03,18,11,15,26,1.5,0.8,1.3*33
$GPGSV,3,1,12,19,70,238,32,03,66,137,31,06,53,117,35,18,33,066,37*77
$GPGSV,3,2,12,08,32,306,34,22,31,117,34,07,28,259,33,16,24,158,31*7E
$GPGSV,3,3,12,11,21,228,31,26,15,345,29,15,14,023,35,21,11,056,21*7F
$GPRMC,162812.000,A,6331.6525,N,01930.7267,W,6.13,346.13,310812,,,A*70
$GPGGA,162813.000,6331.6541,N,01930.7273,W,1,12,0.8,35.0,M,60.3,M,,0000*72
$GPGSA,A,3,16,07,06,22,08,19,21,03,18,11,15,26,1.5,0.8,1.3*33
$GPRMC,162813.000,A,6331.6541,N,01930.7273,W,5.72,348.06,310812,,,A*78
$GPGGA,162814.000,6331.6556,N,01930.7279,W,1,11,0.8,34.9,M,60.3,M,,0000*72
$GPGSA,A,3,16,07,06,22,08,19,21,18,11,15,26,,1.7,0.8,1.5*34
$GPRMC,162814.000,A,6331.6556,N,01930.7279,W,5.70,348.49,310812,,,A*7A
$GPGGA,162815.000,6331.6571,N,01930.7289,W,1,12,0.8,34.8,M,60.3,M,,0000*7B
$GPGSA,A,3,16,07,06,22,08,19,21,03,18,11,15,26,1.5,0.8,1.3*33
$GPRMC,162815.000,A,6331.6571,N,01930.7289,W,5.80,340.95,310812,,,A*77
$GPGGA,162816.000,6331.6585,N,01930.7305,W,1,12,0.8,34.5,M,60.3,M,,0000*7B
$GPGSA,A,3,16,07,06,22,08,19,21,03,18,11,15,26,1.5,0.8,1.3*33
$GPRMC,162816.000,A,6331.6585,N,01930.7305,W,5.86,332.35,310812,,,A*73
$GPGGA,162817.000,6331.6598,N,01930.7327,W,1,12,0.8,34.2,M,60.3,M,,0000*71
$GPGSA,A,3,16,07,06,22,08,19,21,03,18,11,15,26,1.5,0.8,1.3*33
$GPGSV,3,1,12,19,70,238,30,03,66,137,33,06,53,117,35,18,33,066,38*78
$GPGSV,3,2,12,08,32,306,29,22,31,117,33,07,28,259,32,16,24,158,29*7D
$GPGSV,3,3,12,11,21,228,35,26,15,345,31,15,14,023,31,21,11,056,26*71
$GPRMC,162817.000,A,6331.6598,N,01930.7327,W,6.08,319.84,310812,,,A*78
$GPGGA,162818.000,6331.6609,N,01930.7355,W,1,12,0.8,33.8,M,60.3,M,,0000*7D
$GPGSA,A,3,16,07,06,22,08,19,21,03,18,11,15,26,1.5,0.8,1.3*33
$GPRMC,162818.000,A,6331.6609,N,01930.7355,W,6.37,312.01,310812,,,A*73
$GPGGA,162819.000,6331.6620,N,01930.7386,W,1,12,0.8,33.4,M,60.3,M,,0000*75
$GPGSA,A,3,16,07,06,22,08,19,21,03,18,11,15,26,1.5,0.8,1.3*33
$GPRMC,162819.000,A,6331.6620,N,01930.7386,W,6.63,307.27,310812,,,A*76
$GPGGA,162820.000,6331.6631,N,01930.7421,W,1,11,0.8,32.9,M,60.3,M,,0000*7A
$GPGSA,A,3,16,07,06,22,08,19,21,03,18,11,15,,1.6,0.8,1.4*33
$GPRMC,162820.000,A,6331.6631,N,01930.7421,W,6.95,304.09,310812,,,A*70
$GPGGA,162821.000,6331.6642,N,01930.7456,W,1,11,0.8,32.4,M,60.3,M,,0000*72
$GPGSA,A,3,16,07,06,22,08,19,21,03,18,11,15,,1.6,0.8,1.4*33
$GPRMC,162821.000,A,6331.6642,N,01930.7456,W,7.19,303.76,310812,,,A*7F
$GPGGA,162822.000,6331.6652,N,01930.7493,W,1,11,0.8,32.0,M,60.3,M,,0000*7D
$GPGSA,A,3,16,07,06,22,08,19,21,03,18,11,15,,1.6,0.8,1.4*33
$GPGSV,3,1,12,19,70,238,37,03,66,137,34,06,53,117,35,18,33,066,38*78
$GPGSV,3,2,12,08,32,306,27,22,31,117,32,07,28,259,37,16,24,158,30*7F
$GPGSV,3,3,12,11,21,228,25,26,15,345,,15,14,023,28,21,11,056,21*7D
$GPRMC,162822.000,A,6331.6652,N,01930.7493,W,7.32,303.24,310812,,,A*7A
$GPGGA,162823.000,6331.6663,N,01930.7531,W,1,11,0.8,31.6,M,60.3,M,,0000*72
$GPGSA,A,3,16,07,06,22,08,19,21,03,18,11,15,,1.6,0.8,1.4*33
$GPRMC,162823.000,A,6331.6663,N,01930.7531,W,7.53,302.44,310812,,,A*70
$GPGGA,162824.000,6331.6674,N,01930.7570,W,1,11,0.8,31.2,M,60.3,M,,0000*72
$GPGSA,A,3,16,07,06,22,08,19,21,03,18,11,15,,1.6,0.8,1.4*33
$GPRMC,162824.000,A,6331.6674,N,01930.7570,W,7.62,302.20,310812,,,A*74
$GPGGA,162825.000,6331.6685,N,01930.7609,W,1,12,0.8,30.9,M,60.3,M,,0000*79
$GPGSA,A,3,16,07,06,22,08,19,21,03,18,11,15,26,1.5,0.8,1.3*33
$GPRMC,162825.000,A,6331.6685,N,01930.7609,W,7.72,302.76,310812,,,A*74
$GPGGA,162826.000,6331.6696,N,01930.7648,W,1,11,0.8,30.6,M,60.3,M,,0000*71
$GPGSA,A,3,16,07,06,22,08,19,21,03,18,11,26,,1.6,0.8,1.4*33
$GPRMC,162826.000,A,6331.6696,N,01930.7648,W,7.45,302.09,310812,,,A*7C
$GPGGA,162827.000,6331.6706,N,01930.7684,W,1,11,0.8,30.3,M,60.3,M,,0000*7D
$GPGSA,A,3,16,07,06,22,08,19,21,03,18,11,26,,1.6,0.8,1.4*33
$GPGSV,3,1,12,19,70,238,37,03,66,137,35,06,53,117,35,18,33,066,39*78
$GPGSV,3,2,12,08,32,306,32,22,31,117,27,07,28,259,37,16,24,158,27*79
$GPGSV,3,3,12,11,21,228,25,26,15,345,21,15,14,023,,21,11,056,26*73
$GPRMC,162827.000,A,6331.6706,N,01930.7684,W,7.08,302.44,310812,,,A*75
$GPGGA,162828.000,6331.6717,N,01930.7717,W,1,12,0.8,30.0,M,60.3,M,,0000*79
$GPGSA,A,3,16,07,06,22,08,19,21,03,18,11,15,26,1.5,0.8,1.3*33
$GPRMC,162828.000,A,6331.6717,N,01930.7717,W,6.97,307.57,310812,,,A*71
$GPGGA,162829.000,6331.6729,N,01930.7749,W,1,12,0.8,29.8,M,60.3,M,,0000*7E
$GPGSA,A,3,16,07,06,22,08,19,21,03,18,11,15,26,1.5,0.8,1.3*33
$GPRMC,162829.000,A,6331.6729,N,01930.7749,W,6.90,312.32,310812,,,A*76
$GPGGA,162830.000,6331.6743,N,01930.7777,W,1,12,0.8,29.6,M,60.3,M,,0000*79
$GPGSA,A,3,16,07,06,22,08,19,21,03,18,11,15,26,1.5,0.8,1.3*33
$GPRMC,162830.000,A,6331.6743,N,01930.7777,W,6.89,317.95,310812,,,A*7F
$GPGGA,162831.000,6331.6757,N,01930.7804,W,1,12,0.8,29.5,M,60.3,M,,0000*75
$GPGSA,A,3,16,07,06,22,08,19,21,03,18,11,15,26,1.5,0.8,1.3*33
$GPRMC,162831.000,A,6331.6757,N,01930.7804,W,6.93,320.92,310812,,,A*78
$GPGGA,162832.000,6331.6772,N,01930.7828,W,1,12,0.8,29.3,M,60.3,M,,0000*79
$GPGSA,A,3,16,07,06,22,08,19,21,03,18,11,15,26,1.5,0.8,1.3*33
$GPGSV,3,1,12,19,70,238,28,03,66,137,33,06,53,117,35,18,33,066,39*70
$GPGSV,3,2,12,08,32,306,31,22,31,117,26,07,28,259,33,16,24,158,26*7E
$GPGSV,3,3,12,11,21,228,28,26,15,345,34,15,14,023,30,21,11,056,24*7B
$GPRMC,162832.000,A,6331.6772,N,01930.7828,W,6.79,325.42,310812,,,A*7E
$GPGGA,162833.000,6331.6787,N,01930.7849,W,1,12,0.8,29.2,M,60.3,M,,0000*74
$GPGSA,A,3,16,07,06,22,08,19,21,03,18,11,15,26,1.5,0.8,1.3*33
$GPRMC,162833.000,A,6331.6787,N,01930.7849,W,6.65,328.15,310812,,,A*70
$GPGGA,162834.000,6331.6804,N,01930.7869,W,1,11,0.9,29.1,M,60.3,M,,0000*74
$GPGSA,A,3,07,06,22,08,19,21,03,18,11,15,26,,1.8,0.9,1.5*3E
$GPRMC,162834.000,A,6331.6804,N,01930.7869,W,6.98,333.14,310812,,,A*78
$GPGGA,162835.000,6331.6823,N,01930.7888,W,1,12,0.8,29.0,M,60.3,M,,0000*7C
$GPGSA,A,3,16,07,06,22,08,19,21,03,18,11,15,26,1.5,0.8,1.3*33
$GPRMC,162835.000,A,6331.6823,N,01930.7888,W,7.63,335.02,310812,,,A*77
$GPGGA,162836.000,6331.6843,N,01930.7907,W,1,12,0.8,29.0,M,60.3,M,,0000*7F
$GPGSA,A,3,16,07,06,22,08,19,21,03,18,11,15,26,1.5,0.8,1.3*33
$GPRMC,162836.000,A,6331.6843,N,01930.7907,W,7.91,338.26,310812,,,A*72
$GPGGA,162837.000,6331.6863,N,01930.7922,W,1,12,0.8,29.1,M,60.3,M,,0000*7A
$GPGSA,A,3,16,07,06,22,08,19,21,03,18,11,15,26,1.5,0.8,1.3*33
$GPGSV,3,1,12,19,70,238,28,03,66,137,33,06,53,117,35,18,33,066,34*7D
$GPGSV,3,2,12,08,32,306,32,22,31,117,38,07,28,259,34,16,24,158,28*7B
$GPGSV,3,3,12,11,21,228,38,26,15,345,31,15,14,023,27,21,11,056,24*79
$GPRMC,162837.000,A,6331.6863,N,01930.7922,W,8.08,341.65,310812,,,A*70
$GPGGA,162838.000,6331.6885,N,01930.7936,W,1,12,0.8,29.2,M,60.3,M,,0000*7B
$GPGSA,A,3,16,07,06,22,08,19,21,03,18,11,15,26,1.5,0.8,1.3*33
$GPRMC,162838.000,A,6331.6885,N,01930.7936,W,8.22,344.46,310812,,,A*7E
$GPGGA,162839.000,6331.6907,N,01930.7947,W,1,12,0.8,29.3,M,60.3,M,,0000*76
$GPGSA,A,3,16,07,06,22,08,19,21,03,18,11,15,26,1.5,0.8,1.3*33
$GPRMC,162839.000,A,6331.6907,N,01930.7947,W,8.17,348.21,310812,,,A*79
$GPGGA,162840.000,6331.6928,N,01930.7954,W,1,12,0.8,29.5,M,60.3,M,,0000*71
$GPGSA,A,3,16,07,06,22,08,19,21,03,18,11,15,26,1.5,0.8,1.3*33
$GPRMC,162840.000,A,6331.6928,N,01930.7954,W,8.03,351.98,310812,,,A*77
$GPGGA,162841.000,6331.6950,N,01930.7958,W,1,12,0.8,29.7,M,60.3,M,,0000*71
$GPGSA,A,3,16,07,06,22,08,19,21,03,18,11,15,26,1.5,0.8,1.3*33
$GPRMC,162841.000,A,6331.6950,N,01930.7958,W,7.95,355.84,310812,,,A*7C
$GPGGA,162842.000,6331.6971,N,01930.7958,W,1,11,0.9,29.8,M,60.3,M,,0000*7C
$GPGSA,A,3,16,07,06,22,08,19,21,03,18,15,26,,1.7,0.9,1.5*36
$GPGSV,3,1,12,19,70,238,35,03,66,137,28,06,53,117,40,18,33,066,30*7D
$GPGSV,3,2,12,08,32,306,32,22,31,117,39,07,28,259,34,16,24,158,27*75
$GPGSV,3,3,12,11,21,228,,26,15,345,30,15,14,023,37,21,11,056,26*70
$GPRMC,162842.000,A,6331.6971,N,01930.7958,W,7.88,0.57,310812,,,A*7D
$GPGGA,162843.000,6331.6992,N,01930.7954,W,1,12,0.8,30.0,M,60.3,M,,0000*7E
$GPGSA,A,3,16,07,06,22,08,19,21,03,18,11,15,26,1.5,0.8,1.3*33
$GPRMC,162843.000,A,6331.6992,N,01930.7954,W,7.67,5.50,310812,,,A*7E
$GPGGA,162844.000,6331.7012,N,01930.7947,W,1,12,0.8,30.2,M,60.3,M,,0000*79
$GPGSA,A,3,16,07,06,22,08,19,21,03,18,11,15,26,1.5,0.8,1.3*33
$GPRMC,162844.000,A,6331.7012,N,01930.7947,W,7.45,8.52,310812,,,A*74
$GPGGA,162845.000,6331.7032,N,01930.7938,W,1,11,0.8,30.3,M,60.3,M,,0000*70
$GPGSA,A,3,16,07,06,22,08,19,03,18,11,15,26,,1.6,0.8,1.4*34
$GPRMC,162845.000,A,6331.7032,N,01930.7938,W,7.26,11.44,310812,,,A*45
$GPGGA,162846.000,6331.7050,N,01930.7929,W,1,11,0.8,30.5,M,60.3,M,,0000*71
$GPGSA,A,3,16,07,06,22,08,19,03,18,11,15,26,,1.6,0.8,1.4*34
$GPRMC,162846.000,A,6331.7050,N,01930.7929,W,7.00,12.86,310812,,,A*4B
$GPGGA,162847.000,6331.7066,N,01930.7920,W,1,12,0.8,30.6,M,60.3,M,,0000*7C
$GPGSA,A,3,16,07,06,22,08,19,21,03,18,11,15,26,1.5,0.8,1.3*33
$GPGSV,3,1,12,19,70,238,25,03,66,137,29,06,53,117,43,18,33,066,35*7B
$GPGSV,3,2,12,08,32,306,36,22,31,117,40,07,28,259,34,16,24,158,31*78
$GPGSV,3,3,12,11,21,228,25,26,15,345,33,15,14,023,36,21,11,056,26*75
$GPRMC,162847.000,A,6331.7066,N,01930.7920,W,6.09,14.15,310812,,,A*42
$GPGGA,162848.000,6331.7078,N,01930.7913,W,1,12,0.8,30.7,M,60.3,M,,0000*7D
$GPGSA,A,3,16,07,06,22,08,19,21,03,18,11,15,26,1.5,0.8,1.3*33
$GPRMC,162848.000,A,6331.7078,N,01930.7913,W,4.34,15.35,310812,,,A*4D
$GPGGA,162849.000,6331.7087,N,01930.7906,W,1,12,0.8,30.8,M,60.3,M,,0000*77
$GPGSA,A,3,16,07,06,22,08,19,21,03,18,11,15,26,1.5,0.8,1.3*33
$GPRMC,162849.000,A,6331.7087,N,01930.7906,W,3.40,18.84,310812,,,A*4B
$GPGGA,162850.000,6331.7095,N,01930.7898,W,1,12,0.8,31.0,M,60.3,M,,0000*73
$GPGSA,A,3,16,07,06,22,08,19,21,03,18,11,15,26,1.5,0.8,1.3*33
$GPRMC,162850.000,A,6331.7095,N,01930.7898,W,3.27,22.29,310812,,,A*49
$GPGGA,162851.000,6331.7102,N,01930.7892,W,1,12,0.8,31.1,M,60.3,M,,0000*76
$GPGSA,A,3,16,07,06,22,08,19,21,03,18,11,15,26,1.5,0.8,1.3*33
$GPRMC,162851.000,A,6331.7102,N,01930.7892,W,2.92,21.86,310812,,,A*44
$GPGGA,162852.000,6331.7111,N,01930.7884,W,1,12,0.8,31.3,M,60.3,M,,0000*72
$GPGSA,A,3,16,07,06,22,08,19,21,03,18,11,15,26,1.5,0.8,1.3*33
$GPGSV,3,1,12,19,70,238,33,03,66,137,22,06,53,117,38,18,33,066,34*7A
$GPGSV,3,2,12,08,32,306,32,22,31,117,37,07,28,259,34,16,24,158,28*74
$GPGSV,3,3,12,11,21,228,32,26,15,345,30,15,14,023,31,21,11,056,27*76
$GPRMC,162852.000,A,6331.7111,N,01930.7884,W,3.21,21.43,310812,,,A*42
$GPGGA,162853.000,6331.7119,N,01930.7877,W,1,12,0.8,31.4,M,60.3,M,,0000*70
$GPGSA,A,3,16,07,06,22,08,19,21,03,18,11,15,26,1.5,0.8,1.3*33
$GPRMC,162853.000,A,6331.7119,N,01930.7877,W,3.36,19.79,310812,,,A*43
$GPGGA,162854.000,6331.7128,N,01930.7871,W,1,12,0.8,31.6,M,60.3,M,,0000*71
$GPGSA,A,3,16,07,06,22,08,19,21,03,18,11,15,26,1.5,0.8,1.3*33
$GPRMC,162854.000,A,6331.7128,N,01930.7871,W,3.34,18.40,310812,,,A*49
$GPGGA,162855.000,6331.7137,N,01930.7865,W,1,12,0.8,31.7,M,60.3,M,,0000*7A
$GPGSA,A,3,16,07,06,22,08,19,21,03,18,11,15,26,1.5,0.8,1.3*33
$GPRMC,162855.000,A,6331.7137,N,01930.7865,W,3.52,15.75,310812,,,A*48
$GPGGA,162856.000,6331.7146,N,01930.7859,W,1,12,0.8,31.8,M,60.3,M,,0000*7F
$GPGSA,A,3,16,07,06,22,08,19,21,03,18,11,15,26,1.5,0.8,1.3*33
$GPRMC,162856.000,A,6331.7146,N,01930.7859,W,3.48,16.40,310812,,,A*4C
$GPGGA,162857.000,6331.7155,N,01930.7853,W,1,11,0.8,31.9,M,60.3,M,,0000*74
$GPGSA,A,3,16,07,06,22,08,19,03,18,11,15,26,,1.6,0.8,1.4*34
$GPGSV,3,1,12,19,70,238,33,03,66,137,30,06,53,117,39,18,33,066,34*78
$GPGSV,3,2,12,08,32,306,38,22,31,117,36,07,28,259,37,16,24,158,20*74
$GPGSV,3,3,12,11,21,228,25,26,15,345,35,15,14,023,32,21,11,056,19*7B
$GPRMC,162857.000,A,6331.7155,N,01930.7853,W,3.53,15.67,310812,,,A*49
$GPGGA,162858.000,6331.7165,N,01930.7846,W,1,11,0.8,32.0,M,60.3,M,,0000*76
$GPGSA,A,3,16,07,06,22,08,19,03,18,11,15,26,,1.6,0.8,1.4*34
$GPRMC,162858.000,A,6331.7165,N,01930.7846,W,3.73,17.17,310812,,,A*46
$GPGGA,162859.000,6331.7176,N,01930.7838,W,1,12,0.8,32.1,M,60.3,M,,0000*7E
$GPGSA,A,3,16,07,06,22,08,19,21,03,18,11,15,26,1.5,0.8,1.3*33
$GPRMC,162859.000,A,6331.7176,N,01930.7838,W,4.14,16.88,310812,,,A*4D
$GPGGA,162900.000,6331.7188,N,01930.7830,W,1,12,0.8,32.2,M,60.3,M,,0000*79
$GPGSA,A,3,16,07,06,22,08,19,21,03,18,11,15,26,1.5,0.8,1.3*33
$GPRMC,162900.000,A,6331.7188,N,01930.7830,W,4.72,16.35,310812,,,A*4F
$GPGGA,162901.000,6331.7202,N,01930.7822,W,1,12,0.8,32.4,M,60.3,M,,0000*7C
$GPGSA,A,3,16,07,06,22,08,19,21,03,18,11,15,26,1.5,0.8,1.3*33
$GPRMC,162901.000,A,6331.7202,N,01930.7822,W,5.33,14.23,310812,,,A*4D
$GPGGA,162902.000,6331.7217,N,01930.7812,W,1,12,0.8,32.5,M,60.3,M,,0000*79
$GPGSA,A,3,16,07,06,22,08,19,21,03,18,11,15,26,1.5,0.8,1.3*33
$GPGSV,3,1,12,19,70,238,34,03,66,137,34,06,53,117,38,18,33,066,35*7B
$GPGSV,3,2,12,08,32,306,38,22,31,117,26,07,28,259,29,16,24,158,24*7E
$GPGSV,3,3,12,11,21,228,32,26,15,345,34,15,14,023,33,21,11,056,22*75
$GPRMC,162902.000,A,6331.7217,N,01930.7812,W,5.93,14.53,310812,,,A*44
$GPGGA,162903.000,6331.7234,N,01930.7802,W,1,12,0.8,32.7,M,60.3,M,,0000*7A
$GPGSA,A,3,16,07,06,22,08,19,21,03,18,11,15,26,1.5,0.8,1.3*33
$GPRMC,162903.000,A,6331.7234,N,01930.7802,W,6.33,14.28,310812,,,A*40
$GPGGA,162904.000,6331.7251,N,01930.7794,W,1,12,0.8,32.8,M,60.3,M,,0000*71
$GPGSA,A,3,16,07,06,22,08,19,21,03,18,11,15,26,1.5,0.8,1.3*33
$GPRMC,162904.000,A,6331.7251,N,01930.7794,W,6.42,11.50,310812,,,A*48
$GPGGA,162905.000,6331.7268,N,01930.7788,W,1,12,0.8,32.9,M,60.3,M,,0000*76
$GPGSA,A,3,16,07,06,22,08,19,21,03,18,11,15,26,1.5,0.8,1.3*33
$GPRMC,162905.000,A,6331.7268,N,01930.7788,W,6.43,9.19,310812,,,A*7B
$GPGGA,162906.000,6331.7285,N,01930.7783,W,1,12,0.8,33.0,M,60.3,M,,0000*75
$GPGSA,A,3,16,07,06,22,08,19,21,03,18,11,15,26,1.5,0.8,1.3*33
$GPRMC,162906.000,A,6331.7285,N,01930.7783,W,6.52,6.91,310812,,,A*7F
$GPGGA,162907.000,6331.7302,N,01930.7780,W,1,12,0.8,33.2,M,60.3,M,,0000*7B
$GPGSA,A,3,16,07,06,22,08,19,21,03,18,11,15,26,1.5,0.8,1.3*33
$GPGSV,3,1,12,19,70,238,34,03,66,137,33,06,53,117,39,18,33,066,35*7D
$GPGSV,3,2,12,08,32,306,34,22,31,117,36,07,28,259,38,16,24,158,19*7D
$GPGSV,3,3,12,11,21,228,32,26,15,345,35,15,14,023,29,21,11,056,24*79
$GPRMC,162907.000,A,6331.7302,N,01930.7780,W,6.39,4.81,310812,,,A*7D
$GPGGA,162908.000,6331.7319,N,01930.7777,W,1,12,0.8,33.4,M,60.3,M,,0000*70
$GPGSA,A,3,16,07,06,22,08,19,21,03,18,11,15,26,1.5,0.8,1.3*33
$GPRMC,162908.000,A,6331.7319,N,01930.7777,W,6.19,3.63,310812,,,A*79
$GPGGA,162909.000,6331.7335,N,01930.7776,W,1,12,0.8,33.5,M,60.3,M,,0000*7F
$GPGSA,A,3,16,07,06,22,08,19,21,03,18,11,15,26,1.5,0.8,1.3*33
$GPRMC,162909.000,A,6331.7335,N,01930.7776,W,6.08,2.88,310812,,,A*73
$GPGGA,162910.000,6331.7352,N,01930.7775,W,1,12,0.8,33.6,M,60.3,M,,0000*76
$GPGSA,A,3,16,07,06,22,08,19,21,03,18,11,15,26,1.5,0.8,1.3*33
$GPRMC,162910.000,A,6331.7352,N,01930.7775,W,6.13,1.40,310812,,,A*74
$GPGGA,162911.000,6331.7369,N,01930.7776,W,1,12,0.8,33.7,M,60.3,M,,0000*7D
$GPGSA,A,3,16,07,06,22,08,19,21,03,18,11,15,26,1.5,0.8,1.3*33
$GPRMC,162911.000,A,6331.7369,N,01930.7776,W,6.16,358.26,310812,,,A*74
$GPGGA,162912.000,6331.7385,N,01930.7778,W,1,12,0.8,33.8,M,60.3,M,,0000*7D
$GPGSA,A,3,16,07,06,22,08,19,21,03,18,11,15,26,1.5,0.8,1.3*33
$GPGSV,3,1,12,19,70,238,34,03,66,137,35,06,53,117,40,18,33,066,29*78
$GPGSV,3,2,12,08,32,306,34,22,31,117,38,07,28,259,31,16,24,158,29*79
$GPGSV,3,3,12,11,21,228,29,26,15,345,35,15,14,023,36,21,11,056,16*7C
$GPRMC,162912.000,A,6331.7385,N,01930.7778,W,6.07,356.72,310812,,,A*74
$GPGGA,162913.000,6331.7402,N,01930.7781,W,1,12,0.8,33.9,M,60.3,M,,0000*73
$GPGSA,A,3,16,07,06,22,08,19,21,03,18,11,15,26,1.5,0.8,1.3*33
$GPRMC,162913.000,A,6331.7402,N,01930.7781,W,6.01,355.66,310812,,,A*7B
$GPGGA,162914.000,6331.7418,N,01930.7784,W,1,12,0.8,33.9,M,60.3,M,,0000*7A
$GPGSA,A,3,16,07,06,22,08,19,21,03,18,11,15,26,1.5,0.8,1.3*33
$GPRMC,162914.000,A,6331.7418,N,01930.7784,W,5.96,355.26,310812,,,A*7B
$GPGGA,162915.000,6331.7434,N,01930.7787,W,1,12,0.8,33.8,M,60.3,M,,0000*77
$GPGSA,A,3,16,07,06,22,08,19,21,03,18,11,15,26,1.5,0.8,1.3*33
$GPRMC,162915.000,A,6331.7434,N,01930.7787,W,5.92,354.14,310812,,,A*73
$GPGGA,162916.000,6331.7450,N,01930.7792,W,1,12,0.8,33.7,M,60.3,M,,0000*7D
$GPGSA,A,3,16,07,06,22,08,19,21,03,18,11,15,26,1.5,0.8,1.3*33
$GPRMC,162916.000,A,6331.7450,N,01930.7792,W,5.91,353.45,310812,,,A*76
$GPGGA,162917.000,6331.7466,N,01930.7797,W,1,12,0.8,33.5,M,60.3,M,,0000*7E
$GPGSA,A,3,16,07,06,22,08,19,21,03,18,11,15,26,1.5,0.8,1.3*33
$GPGSV,3,1,12,19,70,238,30,03,66,137,36,06,53,117,39,18,33,066,35*7C
$GPGSV,3,2,12,08,32,306,36,22,31,117,27,07,28,259,33,16,24,158,31*7E
$GPGSV,3,3,12,11,21,228,26,26,15,345,24,15,14,023,36,21,11,056,20*76
$GPRMC,162917.000,A,6331.7466,N,01930.7797,W,6.01,351.66,310812,,,A*7E
$GPGGA,162918.000,6331.7482,N,01930.7803,W,1,12,0.8,33.3,M,60.3,M,,0000*7F
$GPGSA,A,3,16,07,06,22,08,19,21,03,18,11,15,26,1.5,0.8,1.3*33
$GPRMC,162918.000,A,6331.7482,N,01930.7803,W,5.96,350.79,310812,,,A*7B
$GPGGA,162919.000,6331.7497,N,01930.7810,W,1,12,0.8,33.1,M,60.3,M,,0000*7A
$GPGSA,A,3,16,07,06,22,08,19,21,03,18,11,15,26,1.5,0.8,1.3*33
$GPRMC,162919.000,A,6331.7497,N,01930.7810,W,5.90,350.42,310812,,,A*72
$GPGGA,162920.000,6331.7512,N,01930.7815,W,1,12,0.8,32.8,M,60.3,M,,0000*71
$GPGSA,A,3,16,07,06,22,08,19,21,03,18,11,15,26,1.5,0.8,1.3*33
$GPRMC,162920.000,A,6331.7512,N,01930.7815,W,5.71,351.53,310812,,,A*7F
$GPGGA,162921.000,6331.7527,N,01930.7818,W,1,12,0.8,32.5,M,60.3,M,,0000*76
$GPGSA,A,3,16,07,06,22,08,19,21,03,18,11,15,26,1.5,0.8,1.3*33
$GPRMC,162921.000,A,6331.7527,N,01930.7818,W,5.49,354.95,310812,,,A*71
$GPGGA,162922.000,6331.7541,N,01930.7818,W,1,12,0.8,32.2,M,60.3,M,,0000*72
$GPGSA,A,3,16,07,06,22,08,19,21,03,18,11,15,26,1.5,0.8,1.3*33
$GPGSV,3,1,12,19,70,238,36,03,66,137,31,06,53,117,38,18,33,066,29*71
$GPGSV,3,2,12,08,32,306,31,22,31,117,34,07,28,259,32,16,24,158,30*7B
$GPGSV,3,3,12,11,21,228,33,26,15,345,34,15,14,023,35,21,11,056,24*74
$GPRMC,162922.000,A,6331.7541,N,01930.7818,W,5.40,358.93,310812,,,A*71
$GPGGA,162923.000,6331.7555,N,01930.7818,W,1,12,0.8,31.9,M,60.3,M,,0000*7E
$GPGSA,A,3,16,07,06,22,08,19,21,03,18,11,15,26,1.5,0.8,1.3*33
$GPRMC,162923.000,A,6331.7555,N,01930.7818,W,5.34,0.08,310812,,,A*7A
$GPGGA,162924.000,6331.7570,N,01930.7817,W,1,12,0.8,31.7,M,60.3,M,,0000*7F
$GPGSA,A,3,16,07,06,22,08,19,21,03,18,11,15,26,1.5,0.8,1.3*33
$GPRMC,162924.000,A,6331.7570,N,01930.7817,W,5.38,1.35,310812,,,A*76
$GPGGA,162925.000,6331.7584,N,01930.7816,W,1,12,0.8,31.5,M,60.3,M,,0000*76
$GPGSA,A,3,16,07,06,22,08,19,21,03,18,11,15,26,1.5,0.8,1.3*33
$GPRMC,162925.000,A,6331.7584,N,01930.7816,W,5.36,1.69,310812,,,A*7A
$GPGGA,162926.000,6331.7598,N,01930.7816,W,1,12,0.8,31.3,M,60.3,M,,0000*7E
$GPGSA,A,3,16,07,06,22,08,19,21,03,18,11,15,26,1.5,0.8,1.3*33
$GPRMC,162926.000,A,6331.7598,N,01930.7816,W,5.12,0.21,310812,,,A*7F
$GPGGA,162927.000,6331.7611,N,01930.7816,W,1,12,0.8,31.2,M,60.3,M,,0000*7C
$GPGSA,A,3,16,07,06,22,08,19,21,03,18,11,15,26,1.5,0.8,1.3*33
$GPGSV,3,1,12,19,70,238,29,03,66,137,32,06,53,117,40,18,33,066,35*7E
$GPGSV,3,2,12,08,32,306,28,22,31,117,43,07,28,259,35,16,24,158,28*7D
$GPGSV,3,3,12,11,21,228,32,26,15,345,31,15,14,023,30,21,11,056,24*75
$GPRMC,162927.000,A,6331.7611,N,01930.7816,W,4.95,0.72,310812,,,A*74
$GPGGA,162928.000,6331.7623,N,01930.7816,W,1,12,0.8,31.1,M,60.3,M,,0000*71
$GPGSA,A,3,16,07,06,22,08,19,21,03,18,11,15,26,1.5,0.8,1.3*33
$GPRMC,162928.000,A,6331.7623,N,01930.7816,W,4.48,0.94,310812,,,A*72
$GPGGA,162929.000,6331.7635,N,01930.7814,W,1,12,0.8,31.0,M,60.3,M,,0000*74
$GPGSA,A,3,16,07,06,22,08,19,21,03,18,11,15,26,1.5,0.8,1.3*33
$GPRMC,162929.000,A,6331.7635,N,01930.7814,W,4.24,3.80,310812,,,A*7A
$GPGGA,162930.000,6331.7645,N,01930.7812,W,1,11,0.8,30.9,M,60.3,M,,0000*76
$GPGSA,A,3,16,07,06,22,08,19,21,03,18,11,26,,1.6,0.8,1.4*33
$GPRMC,162930.000,A,6331.7645,N,01930.7812,W,3.88,6.93,310812,,,A*75
$GPGGA,162931.000,6331.7654,N,01930.7809,W,1,12,0.8,30.9,M,60.3,M,,0000*7E
$GPGSA,A,3,16,07,06,22,08,19,21,03,18,11,15,26,1.5,0.8,1.3*33
$GPRMC,162931.000,A,6331.7654,N,01930.7809,W,3.36,8.59,310812,,,A*73
$GPGGA,162932.000,6331.7662,N,01930.7807,W,1,12,0.8,30.8,M,60.3,M,,0000*77
$GPGSA,A,3,16,07,06,22,08,19,21,03,18,11,15,26,1.5,0.8,1.3*33
$GPGSV,3,1,12,19,70,238,29,03,66,137,32,06,53,117,41,18,33,066,29*72
$GPGSV,3,2,12,08,32,306,35,22,31,117,42,07,28,259,31,16,24,158,26*7A
$GPGSV,3,3,12,11,21,228,26,26,15,345,37,15,14,023,15,21,11,056,17*71
$GPRMC,162932.000,A,6331.7662,N,01930.7807,W,2.94,7.93,310812,,,A*7B
$GPGGA,162933.000,6331.7668,N,01930.7805,W,1,12,0.8,30.7,M,60.3,M,,0000*71
$GPGSA,A,3,16,07,06,22,08,19,21,03,18,11,15,26,1.5,0.8,1.3*33
$GPRMC,162933.000,A,6331.7668,N,01930.7805,W,2.36,6.31,310812,,,A*73
$GPGGA,162934.000,6331.7674,N,01930.7803,W,1,12,0.8,30.7,M,60.3,M,,0000*7D
$GPGSA,A,3,16,07,06,22,08,19,21,03,18,11,15,26,1.5,0.8,1.3*33
$GPRMC,162934.000,A,6331.7674,N,01930.7803,W,2.29,7.11,310812,,,A*72
$GPGGA,162935.000,6331.7680,N,01930.7803,W,1,12,0.8,30.7,M,60.3,M,,0000*77
$GPGSA,A,3,16,07,06,22,08,19,21,03,18,11,15,26,1.5,0.8,1.3*33
$GPRMC,162935.000,A,6331.7680,N,01930.7803,W,2.23,0.19,310812,,,A*7D
$GPGGA,162936.000,6331.7687,N,01930.7803,W,1,11,0.8,30.8,M,60.3,M,,0000*7F
$GPGSA,A,3,16,07,06,22,08,19,03,18,11,15,26,,1.6,0.8,1.4*34
$GPRMC,162936.000,A,6331.7687,N,01930.7803,W,2.38,359.56,310812,,,A*77
$GPGGA,162937.000,6331.7694,N,01930.7804,W,1,11,0.8,30.9,M,60.3,M,,0000*7A
$GPGSA,A,3,16,07,06,22,08,19,03,18,11,15,26,,1.6,0.8,1.4*34
$GPGSV,3,1,12,19,71,236,27,03,65,136,34,06,52,117,41,18,33,065,39*74
$GPGSV,3,2,12,08,33,305,24,22,32,115,42,07,27,258,31,11,23,228,33*77
$GPGSV,3,3,12,16,23,158,23,26,14,344,31,15,14,022,21,21,10,056,*72
$GPRMC,162937.000,A,6331.7694,N,01930.7804,W,2.52,355.47,310812,,,A*73
$GPGGA,162938.000,6331.7702,N,01930.7804,W,1,11,0.8,31.1,M,60.3,M,,0000*72
$GPGSA,A,3,16,07,06,22,08,19,03,18,11,15,26,,1.6,0.8,1.4*34
$GPRMC,162938.000,A,6331.7702,N,01930.7804,W,2.97,358.65,310812,,,A*76
$GPGGA,162939.000,6331.7708,N,01930.7803,W,1,11,0.8,31.2,M,60.3,M,,0000*7D
$GPGSA,A,3,16,07,06,22,08,19,03,18,11,15,26,,1.6,0.8,1.4*34
$GPRMC,162939.000,A,6331.7708,N,01930.7803,W,2.46,2.10,310812,,,A*78
$GPGGA,162940.000,6331.7714,N,01930.7802,W,1,11,0.8,31.4,M,60.3,M,,0000*79
$GPGSA,A,3,16,07,06,22,08,19,03,18,11,15,26,,1.6,0.8,1.4*34
$GPRMC,162940.000,A,6331.7714,N,01930.7802,W,1.96,3.87,310812,,,A*7B
$GPGGA,162941.000,6331.7716,N,01930.7802,W,1,11,0.8,31.6,M,60.3,M,,0000*78
$GPGSA,A,3,16,07,06,22,08,19,03,18,11,15,26,,1.6,0.8,1.4*34
