$GPGGA,113249.000,4440.1516,N,01007.6023,E,1,04,1.7,11097.4,M,48.0,M,,0000*52
$GPGSA,A,3,31,29,25,30,,,,,,,,,8.0,1.7,7.8*3E
$GPRMC,113249.000,A,4440.1516,N,01007.6023,E,401.48,162.05,190912,,,A*6F
$GPGGA,113250.000,4440.0459,N,01007.6512,E,1,03,2.2,11098.7,M,48.0,M,,0000*5B
$GPGSA,A,2,31,29,25,,,,,,,,,,2.4,2.2,1.0*3A
$GPRMC,113250.000,A,4440.0459,N,01007.6512,E,400.69,161.89,190912,,,A*6E
$GPGGA,113251.000,4439.9403,N,01007.7002,E,1,03,2.2,11100.2,M,48.0,M,,0000*52
$GPGSA,A,2,31,29,25,,,,,,,,,,2.4,2.2,1.0*3A
$GPGSV,3,1,11,21,57,172,12,29,54,056,25,31,50,236,24,30,44,306,19*7B
$GPGSV,3,2,11,25,39,121,27,16,16,304,17,05,15,057,21,06,08,261,22*78
$GPGSV,3,3,11,12,03,121,20,23,02,315,15,18,00,157,*43
$GPRMC,113251.000,A,4439.9403,N,01007.7002,E,400.55,161.84,190912,,,A*60
$GPGGA,113252.000,4439.8341,N,01007.7494,E,1,03,2.2,11102.0,M,48.0,M,,0000*5A
$GPGSA,A,2,31,29,25,,,,,,,,,,2.4,2.2,1.0*3A
$GPRMC,113252.000,A,4439.8341,N,01007.7494,E,402.21,161.86,190912,,,A*6B
$GPGGA,113253.000,4439.7280,N,01007.7985,E,0,00,,11103.6,M,48.0,M,,0000*7E
$GPGSA,A,1,,,,,,,,,,,,,,,*1E
$GPRMC,113304.000,A,4438.5592,N,01008.3371,E,404.37,161.99,190912,,,A*65
$GPGGA,113305.000,4438.4503,N,01008.3854,E,1,04,1.7,11114.4,M,48.0,M,,0000*5D
$GPGSA,A,3,31,29,25,30,,,,,,,,,8.1,1.7,7.9*3E
$GPRMC,113305.000,A,4438.4503,N,01008.3854,E,406.40,162.25,190912,,,A*67
$GPGGA,113306.000,4438.3418,N,01008.4339,E,1,03,2.2,11115.1,M,48.0,M,,0000*50
$GPGSA,A,2,31,29,25,,,,,,,,,,2.4,2.2,1.0*3A
$GPGSV,3,1,11,21,57,172,20,29,54,056,21,31,50,236,16,30,44,306,11*77
$GPGSV,3,2,11,25,39,121,17,16,16,304,23,05,15,057,17,06,08,261,22*79
$GPGSV,3,3,11,12,03,121,,23,02,315,21,18,00,157,*46
$GPRMC,113306.000,A,4438.3418,N,01008.4339,E,405.76,162.21,190912,,,A*6D
$GPGGA,113307.000,4438.2331,N,01008.4825,E,1,03,2.2,11116.2,M,48.0,M,,0000*5A
$GPGSA,A,2,31,29,25,,,,,,,,,,2.4,2.2,1.0*3A
$GPRMC,113307.000,A,4438.2331,N,01008.4825,E,406.18,162.23,190912,,,A*6E
$GPGGA,113308.000,4438.1245,N,01008.5310,E,0,00,,11117.3,M,48.0,M,,0000*74
$GPGSA,A,1,,,,,,,,,,,,,,,*1E
$GPRMC,113310.000,A,4437.9070,N,01008.6273,E,407.52,162.54,190912,,,A*6E
$GPGGA,113311.000,4437.7979,N,01008.6744,E,1,03,2.2,11121.4,M,48.0,M,,0000*59
$GPGSA,A,2,31,29,25,,,,,,,,,,2.4,2.2,1.0*3A
$GPGSV,3,1,11,21,57,172,16,29,54,056,22,31,50,236,17,30,44,306,18*79
$GPGSV,3,2,11,25,39,121,17,16,16,304,18,05,15,057,19,06,08,261,23*7E
$GPGSV,3,3,11,12,03,121,09,23,02,315,21,18,00,157,*4F
$GPRMC,113311.000,A,4437.7979,N,01008.6744,E,406.85,162.74,190912,,,A*69
$GPGGA,113312.000,4437.6891,N,01008.7216,E,1,03,2.2,11123.3,M,48.0,M,,0000*5A
$GPGSA,A,2,31,29,25,,,,,,,,,,2.4,2.2,1.0*3A
$GPRMC,113312.000,A,4437.6891,N,01008.7216,E,406.08,162.68,190912,,,A*67
$GPGGA,113313.000,4437.5807,N,01008.7691,E,1,03,2.2,11125.4,M,48.0,M,,0000*5D
$GPGSA,A,2,31,29,25,,,,,,,,,,2.4,2.2,1.0*3A
$GPRMC,113313.000,A,4437.5807,N,01008.7691,E,405.59,162.57,190912,,,A*6A
$GPGGA,113314.000,4437.4730,N,01008.8167,E,1,04,1.7,11127.4,M,48.0,M,,0000*52
$GPGSA,A,3,31,29,25,30,,,,,,,,,8.1,1.7,7.9*3E
$GPRMC,113314.000,A,4437.4730,N,01008.8167,E,403.85,162.45,190912,,,A*62
$GPGGA,113315.000,4437.3663,N,01008.8645,E,1,04,1.7,11129.2,M,48.0,M,,0000*5C
$GPGSA,A,3,31,29,25,30,,,,,,,,,8.1,1.7,7.9*3E
$GPRMC,113315.000,A,4437.3663,N,01008.8645,E,401.84,162.28,190912,,,A*6C
$GPGGA,113316.000,4437.2592,N,01008.9123,E,1,04,1.7,11130.9,M,48.0,M,,0000*56
$GPGSA,A,3,31,29,25,30,,,,,,,,,8.1,1.7,7.9*3E
$GPGSV,3,1,11,21,57,172,17,29,54,056,21,31,50,236,19,30,44,306,26*78
$GPGSV,3,2,11,25,39,121,18,16,16,304,21,05,15,057,13,06,08,261,24*76
$GPGSV,3,3,11,12,03,121,16,23,02,315,20,18,00,157,*40
$GPRMC,113316.000,A,4437.2592,N,01008.9123,E,402.58,162.29,190912,,,A*66
$GPGGA,113317.000,4437.1521,N,01008.9599,E,1,04,1.7,11132.2,M,48.0,M,,0000*50
$GPGSA,A,3,31,29,25,30,,,,,,,,,8.1,1.7,7.9*3E
$GPRMC,113317.000,A,4437.1521,N,01008.9599,E,402.35,162.35,190912,,,A*6F
$GPGGA,113318.000,4437.0451,N,01009.0079,E,1,04,1.7,11133.2,M,48.0,M,,0000*5A
$GPGSA,A,3,31,29,25,30,,,,,,,,,8.1,1.7,7.9*3E
$GPRMC,113318.000,A,4437.0451,N,01009.0079,E,402.74,162.21,190912,,,A*64
$GPGGA,113319.000,4436.9377,N,01009.0560,E,1,04,1.7,11134.0,M,48.0,M,,0000*58
$GPGSA,A,3,31,29,25,30,,,,,,,,,8.1,1.7,8.0*38
$GPRMC,113319.000,A,4436.9377,N,01009.0560,E,403.85,162.29,190912,,,A*64
$GPGGA,113320.000,4436.8299,N,01009.1037,E,1,03,2.2,11135.0,M,48.0,M,,0000*54
$GPGSA,A,2,31,29,30,,,,,,,,,,2.4,2.2,1.0*3E
$GPRMC,113320.000,A,4436.8299,N,01009.1037,E,404.85,162.44,190912,,,A*64
$GPGGA,113321.000,4436.7225,N,01009.1517,E,1,03,2.2,11136.3,M,48.0,M,,0000*5A
$GPGSA,A,2,31,29,30,,,,,,,,,,2.4,2.2,1.0*3E
$GPGSV,3,1,11,21,57,172,18,29,54,056,22,31,50,236,19,30,44,306,25*77
$GPGSV,3,2,11,25,39,121,16,16,16,304,20,05,15,057,15,06,08,261,26*7D
$GPGSV,3,3,11,12,03,121,20,23,02,315,20,18,00,157,*45
$GPRMC,113321.000,A,4436.7225,N,01009.1517,E,403.98,162.32,190912,,,A*60
$GPGGA,113322.000,4436.6151,N,01009.1997,E,1,03,2.2,11137.9,M,48.0,M,,0000*57
$GPGSA,A,2,31,29,30,,,,,,,,,,2.4,2.2,1.0*3E
$GPRMC,113322.000,A,4436.6151,N,01009.1997,E,403.84,162.30,190912,,,A*69
$GPGGA,113323.000,4436.5079,N,01009.2475,E,1,03,2.2,11139.6,M,48.0,M,,0000*5D
$GPGSA,A,2,31,29,30,,,,,,,,,,2.4,2.2,1.0*3E
$GPRMC,113323.000,A,4436.5079,N,01009.2475,E,403.55,162.36,190912,,,A*68
$GPGGA,113324.000,4436.4005,N,01009.2955,E,1,03,2.2,11141.6,M,48.0,M,,0000*50
$GPGSA,A,2,31,29,30,,,,,,,,,,2.4,2.2,1.0*3E
$GPRMC,113324.000,A,4436.4005,N,01009.2955,E,404.04,162.31,190912,,,A*6E
$GPGGA,113325.000,4436.2933,N,01009.3437,E,1,03,2.2,11143.7,M,48.0,M,,0000*50
$GPGSA,A,2,31,29,30,,,,,,,,,,2.4,2.2,1.0*3E
$GPRMC,113325.000,A,4436.2933,N,01009.3437,E,404.06,162.26,190912,,,A*69
$GPGGA,113326.000,4436.1858,N,01009.3917,E,1,03,2.2,11146.0,M,48.0,M,,0000*51
$GPGSA,A,2,31,29,30,,,,,,,,,,2.4,2.2,1.0*3E
$GPGSV,3,1,11,21,57,172,19,29,54,056,23,31,50,236,25,30,44,306,24*79
$GPGSV,3,2,11,25,39,121,15,16,16,304,21,05,15,057,16,06,08,261,26*7C
$GPGSV,3,3,11,12,03,121,20,23,02,315,21,18,00,157,*44
$GPRMC,113326.000,A,4436.1858,N,01009.3917,E,404.60,162.30,190912,,,A*6D
$GPGGA,113327.000,4436.0785,N,01009.4398,E,1,03,2.2,11148.4,M,48.0,M,,0000*5E
$GPGSA,A,2,31,29,30,,,,,,,,,,2.4,2.2,1.0*3E
$GPRMC,113327.000,A,4436.0785,N,01009.4398,E,404.29,162.31,190912,,,A*64
$GPGGA,113328.000,4435.9712,N,01009.4877,E,1,03,2.2,11150.9,M,48.0,M,,0000*5B
$GPGSA,A,2,31,29,30,,,,,,,,,,2.4,2.2,1.0*3E
$GPRMC,113328.000,A,4435.9712,N,01009.4877,E,404.17,162.35,190912,,,A*6C
$GPGGA,113329.000,4435.8639,N,01009.5359,E,1,03,2.2,11153.4,M,48.0,M,,0000*5B
$GPGSA,A,2,31,29,30,,,,,,,,,,2.4,2.2,1.0*3E
$GPRMC,113329.000,A,4435.8639,N,01009.5359,E,404.63,162.28,190912,,,A*6D
$GPGGA,113330.000,4435.7564,N,01009.5840,E,1,03,2.2,11156.1,M,48.0,M,,0000*54
$GPGSA,A,2,31,29,30,,,,,,,,,,2.4,2.2,1.0*3E
$GPRMC,113330.000,A,4435.7564,N,01009.5840,E,405.29,162.32,190912,,,A*66
$GPGGA,113331.000,4435.6486,N,01009.6320,E,1,03,2.2,11158.7,M,48.0,M,,0000*5F
$GPGSA,A,2,31,29,30,,,,,,,,,,2.4,2.2,1.0*3E
$GPGSV,3,1,11,21,57,172,20,29,54,056,23,31,50,236,26,30,44,306,24*70
$GPGSV,3,2,11,25,39,121,14,16,16,304,21,05,15,057,17,06,08,261,26*7C
$GPGSV,3,3,11,12,03,121,19,23,02,315,21,18,00,157,*4E
$GPRMC,113331.000,A,4435.6486,N,01009.6320,E,406.10,162.38,190912,,,A*66
$GPGGA,113332.000,4435.5407,N,01009.6799,E,1,03,2.2,11161.4,M,48.0,M,,0000*59
$GPGSA,A,2,31,29,30,,,,,,,,,,2.4,2.2,1.0*3E
$GPRMC,113332.000,A,4435.5407,N,01009.6799,E,406.11,162.40,190912,,,A*67
$GPGGA,113333.000,4435.4331,N,01009.7279,E,1,03,2.2,11164.2,M,48.0,M,,0000*52
$GPGSA,A,2,31,29,30,,,,,,,,,,2.4,2.2,1.0*3E
$GPRMC,113333.000,A,4435.4331,N,01009.7279,E,405.46,162.33,190912,,,A*6A
$GPGGA,113334.000,4435.3256,N,01009.7759,E,0,00,,11166.7,M,48.0,M,,0000*7E
$GPGSA,A,1,,,,,,,,,,,,,,,*1E
$GPRMC,113336.000,A,4435.1097,N,01009.8704,E,407.02,162.92,190912,,,A*6C
$GPGGA,113337.000,4435.0013,N,01009.9166,E,0,00,,11173.5,M,48.0,M,,0000*7F
$GPGSA,A,1,,,,,,,,,,,,,,,*1E
$GPRMC,113345.000,A,4434.1355,N,01010.2894,E,406.61,162.31,190912,,,A*6D
$GPGGA,113346.000,4434.0281,N,01010.3381,E,1,04,1.7,11186.5,M,48.0,M,,0000*5F
$GPGSA,A,3,31,29,25,30,,,,,,,,,8.2,1.7,8.1*3A
$GPGSV,3,1,11,21,57,172,21,29,54,056,24,31,50,236,26,30,44,306,26*74
$GPGSV,3,2,11,25,39,121,23,16,16,304,19,05,15,057,15,06,08,261,25*72
$GPGSV,3,3,11,12,03,121,22,23,02,315,20,18,00,157,*47
$GPRMC,113346.000,A,4434.0281,N,01010.3381,E,406.24,162.39,190912,,,A*60
$GPGGA,113347.000,4433.9204,N,01010.3866,E,1,04,1.7,11187.2,M,48.0,M,,0000*59
$GPGSA,A,3,31,29,25,30,,,,,,,,,8.3,1.7,8.1*3B
$GPRMC,113347.000,A,4433.9204,N,01010.3866,E,406.28,162.46,190912,,,A*64
$GPGGA,113348.000,4433.8126,N,01010.4349,E,1,04,1.7,11187.8,M,48.0,M,,0000*5F
$GPGSA,A,3,31,29,25,30,,,,,,,,,8.3,1.7,8.1*3B
$GPRMC,113348.000,A,4433.8126,N,01010.4349,E,406.23,162.53,190912,,,A*67
$GPGGA,113349.000,4433.7049,N,01010.4833,E,1,04,1.7,11188.2,M,48.0,M,,0000*5A
$GPGSA,A,3,31,29,25,30,,,,,,,,,8.3,1.7,8.1*3B
$GPRMC,113349.000,A,4433.7049,N,01010.4833,E,405.55,162.51,190912,,,A*67
$GPGGA,113350.000,4433.5972,N,01010.5323,E,1,04,1.7,11188.4,M,48.0,M,,0000*5C
$GPGSA,A,3,31,29,25,30,,,,,,,,,8.3,1.7,8.1*3B
$GPRMC,113350.000,A,4433.5972,N,01010.5323,E,405.89,162.37,190912,,,A*66
$GPGGA,113351.000,4433.4896,N,01010.5814,E,1,04,1.7,11188.5,M,48.0,M,,0000*59
$GPGSA,A,3,31,29,25,30,,,,,,,,,8.3,1.7,8.1*3B
$GPGSV,3,1,11,21,57,172,21,29,54,056,23,31,50,236,26,30,44,306,24*71
$GPGSV,3,2,11,25,39,121,22,16,16,304,17,05,15,057,16,06,08,261,26*7D
$GPGSV,3,3,11,12,03,121,23,23,02,315,20,18,00,157,*46
$GPRMC,113351.000,A,4433.4896,N,01010.5814,E,405.66,162.32,190912,,,A*66
$GPGGA,113352.000,4433.3819,N,01010.6304,E,0,00,,11188.6,M,48.0,M,,0000*7D
$GPGSA,A,1,,,,,,,,,,,,,,,*1E
$GPRMC,113404.000,A,4432.0921,N,01011.2133,E,406.60,162.26,190912,,,A*63
$GPGGA,113405.000,4431.9837,N,01011.2626,E,1,03,2.2,11188.1,M,48.0,M,,0000*57
$GPGSA,A,2,31,29,25,,,,,,,,,,2.4,2.2,1.0*3A
$GPRMC,113405.000,A,4431.9837,N,01011.2626,E,406.92,162.23,190912,,,A*65
$GPGGA,113406.000,4431.8751,N,01011.3122,E,1,03,2.2,11188.7,M,48.0,M,,0000*5E
$GPGSA,A,2,31,29,25,,,,,,,,,,2.4,2.2,1.0*3A
$GPGSV,3,1,11,21,57,172,20,29,54,056,25,31,50,236,26,30,44,306,17*76
$GPGSV,3,2,11,25,39,121,25,16,16,304,20,05,15,057,17,06,08,261,26*7F
$GPGSV,3,3,11,12,03,121,26,23,02,315,,18,00,157,*41
$GPRMC,113406.000,A,4431.8751,N,01011.3122,E,407.06,162.20,190912,,,A*65
$GPGGA,113407.000,4431.7662,N,01011.3620,E,1,03,2.2,11189.6,M,48.0,M,,0000*54
$GPGSA,A,2,31,29,25,,,,,,,,,,2.4,2.2,1.0*3A
$GPRMC,113407.000,A,4431.7662,N,01011.3620,E,407.22,162.16,190912,,,A*6C
$GPGGA,113408.000,4431.6573,N,01011.4122,E,1,04,1.7,11190.3,M,48.0,M,,0000*57
$GPGSA,A,3,31,29,25,30,,,,,,,,,8.3,1.7,8.2*38
$GPRMC,113408.000,A,4431.6573,N,01011.4122,E,406.79,162.08,190912,,,A*63
$GPGGA,113409.000,4431.5481,N,01011.4622,E,1,03,2.2,11191.3,M,48.0,M,,0000*5E
$GPGSA,A,2,31,29,25,,,,,,,,,,2.4,2.2,1.0*3A
$GPRMC,113409.000,A,4431.5481,N,01011.4622,E,406.62,162.13,190912,,,A*6A
$GPGGA,113410.000,4431.4389,N,01011.5124,E,1,04,1.7,11192.1,M,48.0,M,,0000*58
$GPGSA,A,3,31,29,25,30,,,,,,,,,8.4,1.7,8.2*3F
$GPRMC,113410.000,A,4431.4389,N,01011.5124,E,406.22,162.13,190912,,,A*68
$GPGGA,113411.000,4431.3298,N,01011.5626,E,1,04,1.7,11192.7,M,48.0,M,,0000*5C
$GPGSA,A,3,31,29,25,30,,,,,,,,,8.4,1.7,8.2*3F
$GPGSV,3,1,11,21,57,172,20,29,54,056,19,31,50,236,25,30,44,306,26*78
$GPGSV,3,2,11,25,39,121,26,16,16,304,20,05,15,057,18,06,08,261,27*72
$GPGSV,3,3,11,12,03,121,26,23,02,315,17,18,00,157,*47
$GPRMC,113411.000,A,4431.3298,N,01011.5626,E,405.58,162.09,190912,,,A*6F
$GPGGA,113412.000,4431.2210,N,01011.6130,E,1,04,1.7,11193.1,M,48.0,M,,0000*5A
$GPGSA,A,3,31,29,25,30,,,,,,,,,8.4,1.7,8.2*3F
$GPRMC,113412.000,A,4431.2210,N,01011.6130,E,404.02,162.02,190912,,,A*6B
$GPGGA,113413.000,4431.1125,N,01011.6633,E,1,04,1.7,11193.4,M,48.0,M,,0000*5C
$GPGSA,A,3,31,29,25,30,,,,,,,,,8.4,1.7,8.2*3F
$GPRMC,113413.000,A,4431.1125,N,01011.6633,E,403.10,162.02,190912,,,A*6C
$GPGGA,113414.000,4431.0040,N,01011.7137,E,1,04,1.7,11193.4,M,48.0,M,,0000*5A
$GPGSA,A,3,31,29,25,30,,,,,,,,,8.4,1.7,8.2*3F
$GPRMC,113414.000,A,4431.0040,N,01011.7137,E,402.54,162.02,190912,,,A*6B
$GPGGA,113415.000,4430.8956,N,01011.7642,E,1,04,1.7,11193.2,M,48.0,M,,0000*5F
$GPGSA,A,3,31,29,25,30,,,,,,,,,8.4,1.7,8.2*3F
$GPRMC,113415.000,A,4430.8956,N,01011.7642,E,401.95,162.01,190912,,,A*65
$GPGGA,113416.000,4430.7871,N,01011.8146,E,1,04,1.7,11192.8,M,48.0,M,,0000*50
$GPGSA,A,3,31,29,25,30,,,,,,,,,8.4,1.7,8.2*3F
$GPGSV,3,1,11,21,57,172,11,29,54,056,24,31,50,236,25,30,44,306,27*75
$GPGSV,3,2,11,25,39,121,27,16,16,304,27,05,15,057,18,06,08,261,26*75
$GPGSV,3,3,11,12,03,121,27,23,02,315,22,18,00,157,*40
$GPRMC,113416.000,A,4430.7871,N,01011.8146,E,401.40,162.05,190912,,,A*6D
$GPGGA,113417.000,4430.6789,N,01011.8651,E,1,04,1.7,11192.3,M,48.0,M,,0000*52
$GPGSA,A,3,31,29,25,30,,,,,,,,,8.4,1.7,8.2*3F
$GPRMC,113417.000,A,4430.6789,N,01011.8651,E,400.28,162.02,190912,,,A*6C
$GPGGA,113418.000,4430.5707,N,01011.9157,E,1,04,1.7,11191.5,M,48.0,M,,0000*5D
$GPGSA,A,3,31,29,25,30,,,,,,,,,8.4,1.7,8.2*3F
$GPRMC,113418.000,A,4430.5707,N,01011.9157,E,399.58,162.04,190912,,,A*60
$GPGGA,113419.000,4430.4623,N,01011.9665,E,1,04,1.7,11190.5,M,48.0,M,,0000*5D
$GPGSA,A,3,31,29,25,30,,,,,,,,,8.4,1.7,8.2*3F
$GPRMC,113419.000,A,4430.4623,N,01011.9665,E,398.78,162.01,190912,,,A*67
$GPGGA,113420.000,4430.3530,N,01012.0179,E,1,04,1.7,11188.9,M,48.0,M,,0000*54
$GPGSA,A,3,31,29,25,30,,,,,,,,,8.4,1.7,8.2*3F
$GPRMC,113420.000,A,4430.3530,N,01012.0179,E,398.62,162.08,190912,,,A*69
$GPGGA,113421.000,4430.2440,N,01012.0693,E,1,04,1.7,11187.1,M,48.0,M,,0000*56
$GPGSA,A,3,31,29,25,30,,,,,,,,,8.4,1.7,8.2*3F
$GPGSV,3,1,11,21,57,172,13,29,54,056,21,31,50,236,25,30,44,306,27*72
$GPGSV,3,2,11,25,39,121,27,16,16,304,25,05,15,057,18,06,08,261,26*77
$GPGSV,3,3,11,12,03,121,27,23,02,315,22,18,00,157,*40
$GPRMC,113421.000,A,4430.2440,N,01012.0693,E,397.97,162.05,190912,,,A*64
$GPGGA,113422.000,4430.1356,N,01012.1206,E,1,04,1.7,11185.3,M,48.0,M,,0000*5F
$GPGSA,A,3,31,29,25,30,,,,,,,,,8.4,1.7,8.2*3F
$GPRMC,113422.000,A,4430.1356,N,01012.1206,E,396.90,161.96,190912,,,A*62
$GPGGA,113423.000,4430.0274,N,01012.1714,E,1,04,1.7,11183.4,M,48.0,M,,0000*59
$GPGSA,A,3,31,29,25,30,,,,,,,,,8.4,1.7,8.2*3F
$GPRMC,113423.000,A,4430.0274,N,01012.1714,E,396.68,162.06,190912,,,A*68
$GPGGA,113424.000,4429.9198,N,01012.2218,E,1,04,1.7,11181.6,M,48.0,M,,0000*54
$GPGSA,A,3,31,29,25,30,,,,,,,,,8.4,1.7,8.2*3F
$GPRMC,113424.000,A,4429.9198,N,01012.2218,E,395.75,162.03,190912,,,A*6F
$GPGGA,113425.000,4429.8175,N,01012.2688,E,1,04,1.7,11143.5,M,48.0,M,,0000*57
$GPGSA,A,3,31,29,25,30,,,,,,,,,8.4,1.7,8.2*3F
$GPRMC,113425.000,A,4429.8175,N,01012.2688,E,393.35,162.04,190912,,,A*64
$GPGGA,113426.000,4429.7148,N,01012.3160,E,1,04,1.7,11107.1,M,48.0,M,,0000*51
$GPGSA,A,3,31,29,25,30,,,,,,,,,8.4,1.7,8.2*3F
$GPGSV,3,1,11,21,57,172,15,29,54,056,21,31,50,236,24,30,44,306,28*7A
$GPGSV,3,2,11,25,39,121,27,16,16,304,26,05,15,057,13,06,08,261,25*7C
$GPGSV,3,3,11,12,03,121,27,23,02,315,22,18,00,157,18*49
$GPRMC,113426.000,A,4429.7148,N,01012.3160,E,393.55,162.03,190912,,,A*67
$GPGGA,113427.000,4429.6159,N,01012.3609,E,1,04,1.7,11043.4,M,48.0,M,,0000*5D
$GPGSA,A,3,31,29,25,30,,,,,,,,,8.4,1.7,8.3*3E
$GPRMC,113427.000,A,4429.6159,N,01012.3609,E,392.03,162.01,190912,,,A*6F
$GPGGA,113428.000,4429.5165,N,01012.4059,E,1,04,1.7,10983.1,M,48.0,M,,0000*5B
$GPGSA,A,3,31,29,25,30,,,,,,,,,8.4,1.7,8.3*3E
$GPRMC,113428.000,A,4429.5165,N,01012.4059,E,392.26,162.06,190912,,,A*68
$GPGGA,113429.000,4429.4195,N,01012.4486,E,1,04,1.7,10901.6,M,48.0,M,,0000*5F
$GPGSA,A,3,31,29,25,30,,,,,,,,,8.4,1.7,8.3*3E
$GPRMC,113429.000,A,4429.4195,N,01012.4486,E,391.60,162.31,190912,,,A*64
$GPGGA,113430.000,4429.3220,N,01012.4917,E,1,04,1.7,10824.6,M,48.0,M,,0000*5E
$GPGSA,A,3,31,29,25,30,,,,,,,,,8.4,1.7,8.3*3E
$GPRMC,113430.000,A,4429.3220,N,01012.4917,E,391.48,162.30,190912,,,A*68
$GPGGA,113431.000,4429.2264,N,01012.5328,E,1,04,1.7,10734.3,M,48.0,M,,0000*52
$GPGSA,A,3,31,29,25,30,,,,,,,,,8.4,1.7,8.3*3E
$GPGSV,3,1,11,21,57,172,20,29,54,056,22,31,50,236,26,30,44,306,29*7C
$GPGSV,3,2,11,25,39,121,26,16,16,304,27,05,15,057,15,06,08,261,23*7C
$GPGSV,3,3,11,12,03,121,27,23,02,315,22,18,00,157,18*49
$GPRMC,113431.000,A,4429.2264,N,01012.5328,E,390.16,162.48,190912,,,A*6A
$GPGGA,113432.000,4429.1302,N,01012.5744,E,1,04,1.7,10649.1,M,48.0,M,,0000*54
$GPGSA,A,3,31,29,25,30,,,,,,,,,8.5,1.7,8.3*3F
$GPRMC,113432.000,A,4429.1302,N,01012.5744,E,390.50,162.44,190912,,,A*6B
$GPGGA,113433.000,4429.0354,N,01012.6145,E,1,04,1.7,10554.0,M,48.0,M,,0000*5D
$GPGSA,A,3,31,29,25,30,,,,,,,,,8.5,1.7,8.3*3F
$GPRMC,113433.000,A,4429.0354,N,01012.6145,E,389.34,162.59,190912,,,A*6A
$GPGGA,113434.000,4428.9398,N,01012.6551,E,1,04,1.7,10463.6,M,48.0,M,,0000*50
$GPGSA,A,3,31,29,25,30,,,,,,,,,8.5,1.7,8.3*3F
$GPRMC,113434.000,A,4428.9398,N,01012.6551,E,389.71,162.56,190912,,,A*6A
$GPGGA,113435.000,4428.8450,N,01012.6942,E,1,04,1.7,10363.2,M,48.0,M,,0000*5E
$GPGSA,A,3,31,29,25,30,,,,,,,,,8.5,1.7,8.3*3F
$GPRMC,113435.000,A,4428.8450,N,01012.6942,E,389.27,162.77,190912,,,A*67
$GPGGA,113436.000,4428.7498,N,01012.7338,E,1,04,1.7,10268.7,M,48.0,M,,0000*5F
$GPGSA,A,3,31,29,25,30,,,,,,,,,8.5,1.7,8.3*3F
$GPGSV,3,1,11,21,57,172,20,29,54,056,24,31,50,236,27,30,44,306,29*7B
$GPGSV,3,2,11,25,39,121,26,16,16,304,27,05,15,057,17,06,08,261,24*79
$GPGSV,3,3,11,12,03,121,27,23,02,315,23,18,00,157,18*48
$GPRMC,113436.000,A,4428.7498,N,01012.7338,E,388.64,162.68,190912,,,A*61
$GPGGA,113437.000,4428.6553,N,01012.7724,E,1,04,1.7,10167.4,M,48.0,M,,0000*5F
$GPGSA,A,3,31,29,25,30,,,,,,,,,8.5,1.7,8.3*3F
$GPRMC,113437.000,A,4428.6553,N,01012.7724,E,387.85,162.82,190912,,,A*6A
$GPGGA,113438.000,4428.5604,N,01012.8115,E,1,04,1.7,10072.4,M,48.0,M,,0000*5C
$GPGSA,A,3,31,29,25,30,,,,,,,,,8.5,1.7,8.3*3F
$GPRMC,113438.000,A,4428.5604,N,01012.8115,E,387.30,162.74,190912,,,A*6B
$GPGGA,113439.000,4428.4662,N,01012.8497,E,1,04,1.7,9972.6,M,48.0,M,,0000*60
$GPGSA,A,3,31,29,25,30,,,,,,,,,8.5,1.7,8.3*3F
$GPRMC,113439.000,A,4428.4662,N,01012.8497,E,386.46,162.87,190912,,,A*68
$GPGGA,113440.000,4428.3715,N,01012.8886,E,1,04,1.7,9879.5,M,48.0,M,,0000*6D
$GPGSA,A,3,31,29,25,30,,,,,,,,,8.5,1.7,8.3*3F
$GPRMC,113440.000,A,4428.3715,N,01012.8886,E,385.81,162.79,190912,,,A*65
$GPGGA,113441.000,4428.2775,N,01012.9267,E,1,04,1.7,9783.0,M,48.0,M,,0000*60
$GPGSA,A,3,31,29,25,30,,,,,,,,,8.5,1.7,8.3*3F
$GPGSV,3,1,11,21,57,172,19,29,54,056,25,31,50,236,27,30,44,306,29*70
$GPGSV,3,2,11,25,39,121,26,16,16,304,28,05,15,057,17,06,08,261,24*76
$GPGSV,3,3,11,12,03,121,27,23,02,315,25,18,00,157,17*41
$GPRMC,113441.000,A,4428.2775,N,01012.9267,E,384.56,162.85,190912,,,A*6F
$GPGGA,113442.000,4428.1829,N,01012.9654,E,1,04,1.7,9692.3,M,48.0,M,,0000*60
$GPGSA,A,3,31,29,25,30,,,,,,,,,8.5,1.7,8.3*3F
$GPRMC,113442.000,A,4428.1829,N,01012.9654,E,384.53,162.82,190912,,,A*6F
$GPGGA,113443.000,4428.0887,N,01013.0034,E,1,04,1.7,9599.6,M,48.0,M,,0000*61
$GPGSA,A,3,31,29,25,30,,,,,,,,,8.5,1.7,8.3*3F
$GPRMC,113443.000,A,4428.0887,N,01013.0034,E,383.69,162.93,190912,,,A*6D
$GPGGA,113444.000,4427.9940,N,01013.0420,E,1,04,1.7,9512.1,M,48.0,M,,0000*6F
$GPGSA,A,3,31,29,25,30,,,,,,,,,8.5,1.7,8.3*3F
$GPRMC,113444.000,A,4427.9940,N,01013.0420,E,383.63,162.91,190912,,,A*6F
$GPGGA,113445.000,4427.8992,N,01013.0801,E,1,03,2.2,9428.7,M,48.0,M,,0000*60
$GPGSA,A,2,31,25,30,,,,,,,,,,2.4,2.2,1.0*32
$GPRMC,113445.000,A,4427.8992,N,01013.0801,E,382.62,163.00,190912,,,A*66
$GPGGA,113446.000,4427.8035,N,01013.1192,E,1,03,2.2,9355.5,M,48.0,M,,0000*6A
$GPGSA,A,2,31,25,30,,,,,,,,,,2.4,2.2,1.0*32
$GPGSV,3,1,11,21,59,172,22,29,53,056,13,31,49,235,27,30,45,306,29*7E
$GPGSV,3,2,11,25,38,122,27,16,16,304,27,05,15,056,17,06,09,262,24*79
$GPGSV,3,3,11,12,03,122,28,23,01,314,25,18,01,157,16*4F
$GPRMC,113446.000,A,4427.8035,N,01013.1192,E,382.67,162.86,190912,,,A*69
$GPGGA,113447.000,4427.7073,N,01013.1586,E,0,00,,9286.2,M,48.0,M,,0000*43
$GPGSA,A,1,,,,,,,,,,,,,,,*1E
$GPRMC,113454.000,A,4427.0252,N,01013.4457,E,380.44,162.19,190912,,,A*6D
$GPGGA,113455.000,4426.9271,N,01013.4906,E,1,03,2.2,8855.9,M,48.0,M,,0000*6C
$GPGSA,A,2,31,29,25,,,,,,,,,,2.4,2.2,1.0*3A
$GPRMC,113455.000,A,4426.9271,N,01013.4906,E,380.71,162.16,190912,,,A*65
$GPGGA,113456.000,4426.8283,N,01013.5363,E,1,03,2.2,8831.9,M,48.0,M,,0000*69
$GPGSA,A,2,31,29,25,,,,,,,,,,2.4,2.2,1.0*3A
$GPGSV,3,1,11,21,59,172,18,29,53,056,26,31,49,235,28,30,45,306,23*74
$GPGSV,3,2,11,25,38,122,27,16,16,304,17,05,15,056,18,06,09,262,25*74
$GPGSV,3,3,11,12,03,122,26,23,01,314,22,18,01,157,*41
$GPRMC,113456.000,A,4426.8283,N,01013.5363,E,381.36,162.19,190912,,,A*6F
$GPGGA,113457.000,4426.7288,N,01013.5828,E,1,03,2.2,8816.4,M,48.0,M,,0000*60
$GPGSA,A,2,31,29,25,,,,,,,,,,2.4,2.2,1.0*3A
$GPRMC,113457.000,A,4426.7288,N,01013.5828,E,382.46,162.20,190912,,,A*60
$GPGGA,113458.000,4426.6286,N,01013.6304,E,1,03,2.2,8808.3,M,48.0,M,,0000*6E
$GPGSA,A,2,31,29,25,,,,,,,,,,2.4,2.2,1.0*3A
$GPRMC,113458.000,A,4426.6286,N,01013.6304,E,383.33,162.18,190912,,,A*6E
$GPGGA,113459.000,4426.5280,N,01013.6789,E,1,03,2.2,8807.2,M,48.0,M,,0000*65
$GPGSA,A,2,31,29,25,,,,,,,,,,2.4,2.2,1.0*3A
$GPRMC,113459.000,A,4426.5280,N,01013.6789,E,384.08,162.14,190912,,,A*68
$GPGGA,113500.000,4426.4274,N,01013.7290,E,1,03,2.2,8812.8,M,48.0,M,,0000*60
$GPGSA,A,2,31,29,25,,,,,,,,,,2.4,2.2,1.0*3A
$GPRMC,113500.000,A,4426.4274,N,01013.7290,E,384.71,162.05,190912,,,A*6D
$GPGGA,113501.000,4426.3259,N,01013.7794,E,1,03,2.2,8823.7,M,48.0,M,,0000*65
$GPGSA,A,2,31,29,25,,,,,,,,,,2.4,2.2,1.0*3A
$GPGSV,3,1,11,21,59,172,20,29,53,056,27,31,49,235,29,30,45,306,22*7E
$GPGSV,3,2,11,25,38,122,29,16,16,304,16,05,15,056,17,06,09,262,24*75
$GPGSV,3,3,11,12,03,122,26,23,01,314,22,18,01,157,*41
$GPRMC,113501.000,A,4426.3259,N,01013.7794,E,385.45,162.02,190912,,,A*64
$GPGGA,113502.000,4426.2236,N,01013.8302,E,1,03,2.2,8839.6,M,48.0,M,,0000*60
$GPGSA,A,2,31,29,25,,,,,,,,,,2.4,2.2,1.0*3A
$GPRMC,113502.000,A,4426.2236,N,01013.8302,E,386.29,162.01,190912,,,A*61
$GPGGA,113503.000,4426.1205,N,01013.8810,E,1,03,2.2,8859.9,M,48.0,M,,0000*63
$GPGSA,A,2,31,29,25,,,,,,,,,,2.4,2.2,1.0*3A
$GPRMC,113503.000,A,4426.1205,N,01013.8810,E,386.95,162.03,190912,,,A*6E
$GPGGA,113504.000,4426.0167,N,01013.9317,E,1,03,2.2,8884.3,M,48.0,M,,0000*65
$GPGSA,A,2,31,29,25,,,,,,,,,,2.4,2.2,1.0*3A
$GPRMC,113504.000,A,4426.0167,N,01013.9317,E,387.47,162.10,190912,,,A*6E
$GPGGA,113505.000,4425.9119,N,01013.9822,E,1,03,2.2,8912.2,M,48.0,M,,0000*65
$GPGSA,A,2,31,29,25,,,,,,,,,,2.4,2.2,1.0*3A
$GPRMC,113505.000,A,4425.9119,N,01013.9822,E,389.10,162.22,190912,,,A*6C
$GPGGA,113506.000,4425.8058,N,01014.0330,E,1,03,2.2,8943.6,M,48.0,M,,0000*65
$GPGSA,A,2,31,29,25,,,,,,,,,,2.4,2.2,1.0*3A
$GPGSV,3,1,11,21,59,171,19,29,53,056,26,31,49,235,30,30,45,306,13*7C
$GPGSV,3,2,11,25,38,122,19,16,16,304,26,05,15,056,18,06,09,262,24*7A
$GPGSV,3,3,11,12,03,122,26,23,01,314,21,18,01,157,*42
$GPRMC,113506.000,A,4425.8058,N,01014.0330,E,392.31,162.27,190912,,,A*60
$GPGGA,113507.000,4425.6998,N,01014.0835,E,0,00,,8972.2,M,48.0,M,,0000*4B
$GPGSA,A,1,,,,,,,,,,,,,,,*1E
$GPRMC,113510.000,A,4425.3810,N,01014.2348,E,397.30,162.06,190912,,,A*62
$GPGGA,113511.000,4425.2729,N,01014.2864,E,1,03,2.2,9081.4,M,48.0,M,,0000*64
$GPGSA,A,2,31,29,25,,,,,,,,,,2.4,2.2,1.0*3A
$GPGSV,3,1,11,21,59,171,25,29,53,056,17,31,49,235,30,30,45,306,13*71
$GPGSV,3,2,11,25,38,122,18,16,16,304,27,05,15,056,18,06,09,262,24*7A
$GPGSV,3,3,11,12,03,122,26,23,01,314,21,18,01,157,*42
$GPRMC,113511.000,A,4425.2729,N,01014.2864,E,398.26,162.08,190912,,,A*64
$GPGGA,113512.000,4425.1644,N,01014.3381,E,1,03,2.2,9116.2,M,48.0,M,,0000*66
$GPGSA,A,2,31,29,25,,,,,,,,,,2.4,2.2,1.0*3A
$GPRMC,113512.000,A,4425.1644,N,01014.3381,E,398.53,162.09,190912,,,A*6C
$GPGGA,113513.000,4425.0551,N,01014.3900,E,1,03,2.2,9152.6,M,48.0,M,,0000*66
$GPGSA,A,2,31,29,25,,,,,,,,,,2.4,2.2,1.0*3A
$GPRMC,113513.000,A,4425.0551,N,01014.3900,E,400.09,162.09,190912,,,A*61
$GPGGA,113514.000,4424.9456,N,01014.4422,E,1,03,2.2,9189.9,M,48.0,M,,0000*6C
$GPGSA,A,2,31,29,25,,,,,,,,,,2.4,2.2,1.0*3A
$GPRMC,113514.000,A,4424.9456,N,01014.4422,E,400.84,161.98,190912,,,A*6C
$GPGGA,113515.000,4424.8357,N,01014.4945,E,1,03,2.2,9227.6,M,48.0,M,,0000*6E
$GPGSA,A,2,31,29,25,,,,,,,,,,2.4,2.2,1.0*3A
$GPRMC,113515.000,A,4424.8357,N,01014.4945,E,402.06,161.91,190912,,,A*67
$GPGGA,113516.000,4424.7254,N,01014.5470,E,1,03,2.2,9265.6,M,48.0,M,,0000*6C
$GPGSA,A,2,31,29,25,,,,,,,,,,2.4,2.2,1.0*3A
$GPGSV,3,1,11,21,59,171,19,29,53,056,24,31,49,235,30,30,45,306,12*7F
$GPGSV,3,2,11,25,38,122,17,16,16,304,26,05,15,056,25,06,09,262,22*7C
$GPGSV,3,3,11,12,03,122,27,23,01,314,21,18,01,157,*43
$GPRMC,113516.000,A,4424.7254,N,01014.5470,E,403.52,161.82,190912,,,A*61
$GPGGA,113517.000,4424.6147,N,01014.5997,E,1,03,2.2,9303.5,M,48.0,M,,0000*6B
$GPGSA,A,2,31,29,25,,,,,,,,,,2.4,2.2,1.0*3A
$GPRMC,113517.000,A,4424.6147,N,01014.5997,E,404.91,161.79,190912,,,A*68
$GPGGA,113518.000,4424.5038,N,01014.6522,E,1,03,2.2,9341.5,M,48.0,M,,0000*69
$GPGSA,A,2,31,29,25,,,,,,,,,,2.4,2.2,1.0*3A
$GPRMC,113518.000,A,4424.5038,N,01014.6522,E,404.91,161.86,190912,,,A*6C
$GPGGA,113519.000,4424.3935,N,01014.7039,E,1,03,2.2,9379.2,M,48.0,M,,0000*68
$GPGSA,A,2,31,29,25,,,,,,,,,,2.4,2.2,1.0*3A
$GPRMC,113519.000,A,4424.3935,N,01014.7039,E,403.01,161.98,190912,,,A*60
$GPGGA,113520.000,4424.2836,N,01014.7553,E,0,00,,9414.2,M,48.0,M,,0000*48
$GPGSA,A,1,,,,,,,,,,,,,,,*1E
$GPRMC,113521.000,A,4424.1743,N,01014.8054,E,399.78,162.29,190912,,,A*61
$GPGGA,113522.000,4424.0659,N,01014.8544,E,1,03,2.2,9484.0,M,48.0,M,,0000*61
$GPGSA,A,2,31,29,25,,,,,,,,,,2.4,2.2,1.0*3A
$GPRMC,113522.000,A,4424.0659,N,01014.8544,E,396.67,162.49,190912,,,A*6A
$GPGGA,113523.000,4423.9581,N,01014.9031,E,1,03,2.2,9518.7,M,48.0,M,,0000*6D
$GPGSA,A,2,31,29,25,,,,,,,,,,2.4,2.2,1.0*3A
$GPRMC,113523.000,A,4423.9581,N,01014.9031,E,394.62,162.47,190912,,,A*6C
$GPGGA,113524.000,4423.8505,N,01014.9518,E,1,03,2.2,9553.3,M,48.0,M,,0000*62
$GPGSA,A,2,31,29,25,,,,,,,,,,2.4,2.2,1.0*3A
$GPRMC,113524.000,A,4423.8505,N,01014.9518,E,394.04,162.41,190912,,,A*6E
$GPGGA,113525.000,4423.7429,N,01015.0007,E,1,03,2.2,9587.6,M,48.0,M,,0000*6C
$GPGSA,A,2,31,29,25,,,,,,,,,,2.4,2.2,1.0*3A
$GPRMC,113525.000,A,4423.7429,N,01015.0007,E,394.26,162.33,190912,,,A*69
$GPGGA,113526.000,4423.6355,N,01015.0494,E,0,00,,9619.5,M,48.0,M,,0000*47
$GPGSA,A,1,,,,,,,,,,,,,,,*1E
$GPGSV,3,1,11,21,59,171,23,29,53,056,17,31,49,235,30,30,45,306,15*71
$GPGSV,3,2,11,25,38,122,16,16,17,305,27,05,15,055,17,06,09,262,23*7F
$GPGSV,3,3,11,12,03,122,27,23,01,314,23,18,01,157,*41
$GPRMC,113527.000,A,4423.5278,N,01015.0988,E,396.57,162.14,190912,,,A*64
$GPGGA,113528.000,4423.4203,N,01015.1489,E,1,04,1.7,9676.3,M,48.0,M,,0000*66
$GPGSA,A,3,31,29,25,30,,,,,,,,,8.7,1.7,8.5*3B
$GPRMC,113528.000,A,4423.4203,N,01015.1489,E,397.04,161.81,190912,,,A*63
$GPGGA,113529.000,4423.3128,N,01015.1987,E,1,04,1.7,9701.6,M,48.0,M,,0000*6D
$GPGSA,A,3,31,29,25,30,,,,,,,,,8.7,1.7,8.6*38
$GPRMC,113529.000,A,4423.3128,N,01015.1987,E,397.39,161.89,190912,,,A*6A
$GPGGA,113530.000,4423.2056,N,01015.2484,E,1,04,1.7,9725.0,M,48.0,M,,0000*61
$GPGSA,A,3,31,29,25,30,,,,,,,,,8.7,1.7,8.6*38
$GPRMC,113530.000,A,4423.2056,N,01015.2484,E,397.08,161.83,190912,,,A*6E
$GPGGA,113531.000,4423.0985,N,01015.2982,E,1,04,1.7,9746.7,M,48.0,M,,0000*6C
$GPGSA,A,3,31,29,25,30,,,,,,,,,8.7,1.7,8.6*38
$GPGSV,3,1,11,21,59,171,23,29,53,056,17,31,49,235,26,30,45,306,25*75
$GPGSV,3,2,11,25,38,122,18,16,17,305,23,05,15,055,19,06,09,262,24*7C
$GPGSV,3,3,11,12,03,122,27,23,01,314,24,18,01,157,*46
$GPRMC,113531.000,A,4423.0985,N,01015.2982,E,397.08,161.77,190912,,,A*6A
$GPGGA,113532.000,4422.9913,N,01015.3475,E,1,04,1.7,9766.7,M,48.0,M,,0000*6E
$GPGSA,A,3,31,29,25,30,,,,,,,,,8.7,1.7,8.6*38
$GPRMC,113532.000,A,4422.9913,N,01015.3475,E,397.76,161.87,190912,,,A*6C
$GPGGA,113533.000,4422.8845,N,01015.3966,E,1,04,1.7,9785.3,M,48.0,M,,0000*6A
$GPGSA,A,3,31,29,25,30,,,,,,,,,8.7,1.7,8.6*38
$GPRMC,113533.000,A,4422.8845,N,01015.3966,E,396.94,161.86,190912,,,A*6D
$GPGGA,113534.000,4422.7778,N,01015.4456,E,1,04,1.7,9802.5,M,48.0,M,,0000*6C
$GPGSA,A,3,31,29,25,30,,,,,,,,,8.7,1.7,8.6*38
$GPRMC,113534.000,A,4422.7778,N,01015.4456,E,396.67,161.81,190912,,,A*66
$GPGGA,113535.000,4422.6712,N,01015.4950,E,1,03,2.2,9821.1,M,48.0,M,,0000*6F
$GPGSA,A,2,31,29,30,,,,,,,,,,2.4,2.2,1.0*3E
$GPRMC,113535.000,A,4422.6712,N,01015.4950,E,396.15,161.70,190912,,,A*6A
$GPGGA,113536.000,4422.5652,N,01015.5441,E,1,04,1.7,9838.5,M,48.0,M,,0000*6B
$GPGSA,A,3,31,29,25,30,,,,,,,,,8.8,1.7,8.6*37
$GPGSV,3,1,11,21,59,171,29,29,53,056,16,31,49,235,27,30,45,306,20*7A
$GPGSV,3,2,11,25,38,122,19,16,17,305,23,05,15,055,20,06,09,262,26*75
$GPGSV,3,3,11,12,03,122,27,23,01,314,24,18,01,157,*46
$GPRMC,113536.000,A,4422.5652,N,01015.5441,E,394.77,161.64,190912,,,A*60
$GPGGA,113537.000,4422.4600,N,01015.5931,E,1,04,1.7,9854.6,M,48.0,M,,0000*6F
$GPGSA,A,3,31,29,25,30,,,,,,,,,8.8,1.7,8.6*37
$GPRMC,113537.000,A,4422.4600,N,01015.5931,E,392.41,161.56,190912,,,A*6F
$GPGGA,113538.000,4422.3552,N,01015.6419,E,1,03,2.2,9872.4,M,48.0,M,,0000*60
$GPGSA,A,2,31,29,25,,,,,,,,,,2.4,2.2,1.0*3A
$GPRMC,113538.000,A,4422.3552,N,01015.6419,E,390.97,161.56,190912,,,A*6E
$GPGGA,113539.000,4422.2501,N,01015.6909,E,1,03,2.2,9891.5,M,48.0,M,,0000*66
$GPGSA,A,2,31,29,25,,,,,,,,,,2.4,2.2,1.0*3A
$GPRMC,113539.000,A,4422.2501,N,01015.6909,E,391.62,161.58,190912,,,A*61
$GPGGA,113540.000,4422.1446,N,01015.7398,E,1,03,2.2,9911.8,M,48.0,M,,0000*6E
$GPGSA,A,2,31,29,25,,,,,,,,,,2.4,2.2,1.0*3A
$GPRMC,113540.000,A,4422.1446,N,01015.7398,E,392.42,161.66,190912,,,A*61
$GPGGA,113541.000,4422.0389,N,01015.7886,E,1,03,2.2,9933.2,M,48.0,M,,0000*64
$GPGSA,A,2,31,29,25,,,,,,,,,,2.4,2.2,1.0*3A
$GPGSV,3,1,11,21,59,171,24,29,53,056,16,31,49,235,27,30,45,306,19*7D
$GPGSV,3,2,11,25,38,122,21,16,17,305,24,05,15,055,19,06,09,262,26*73
$GPGSV,3,3,11,12,03,122,27,23,01,314,24,18,01,157,*46
$GPRMC,113541.000,A,4422.0389,N,01015.7886,E,392.72,161.76,190912,,,A*63
$GPGGA,113542.000,4421.9334,N,01015.8373,E,0,00,,9953.2,M,48.0,M,,0000*4F
$GPGSA,A,1,,,,,,,,,,,,,,,*1E
$GPRMC,113546.000,A,4421.5099,N,01016.0308,E,399.39,162.24,190912,,,A*69
$GPGGA,113547.000,4421.4020,N,01016.0788,E,1,03,2.2,10041.9,M,48.0,M,,0000*5F
$GPGSA,A,2,31,29,25,,,,,,,,,,2.4,2.2,1.0*3A
$GPRMC,113547.000,A,4421.4020,N,01016.0788,E,399.10,162.28,190912,,,A*60
$GPGGA,113548.000,4421.2948,N,01016.1265,E,1,04,1.7,10059.4,M,48.0,M,,0000*53
$GPGSA,A,3,31,29,25,30,,,,,,,,,8.8,1.7,8.6*37
$GPRMC,113548.000,A,4421.2948,N,01016.1265,E,397.25,162.30,190912,,,A*68
$GPGGA,113549.000,4421.1885,N,01016.1740,E,1,04,1.7,10075.8,M,48.0,M,,0000*51
$GPGSA,A,3,31,29,25,30,,,,,,,,,8.8,1.7,8.7*36
$GPRMC,113549.000,A,4421.1885,N,01016.1740,E,394.90,162.23,190912,,,A*67
$GPGGA,113550.000,4421.0830,N,01016.2213,E,1,04,1.7,10091.2,M,48.0,M,,0000*56
$GPGSA,A,3,31,29,25,30,,,,,,,,,8.8,1.7,8.7*36
$GPRMC,113550.000,A,4421.0830,N,01016.2213,E,392.77,162.18,190912,,,A*67
$GPGGA,113551.000,4420.9781,N,01016.2685,E,1,04,1.7,10105.7,M,48.0,M,,0000*58
$GPGSA,A,3,31,29,25,30,,,,,,,,,8.8,1.7,8.7*36
$GPGSV,3,1,11,21,59,171,25,29,53,056,26,31,49,235,27,30,45,306,27*72
$GPGSV,3,2,11,25,38,122,26,16,17,305,25,05,15,055,22,06,09,262,16*7E
$GPGSV,3,3,11,12,03,122,26,23,01,314,15,18,01,157,*45
$GPRMC,113551.000,A,4420.9781,N,01016.2685,E,391.22,162.15,190912,,,A*6E
$GPGGA,113552.000,4420.8737,N,01016.3154,E,1,04,1.7,10119.3,M,48.0,M,,0000*54
$GPGSA,A,3,31,29,25,30,,,,,,,,,8.8,1.7,8.7*36
$GPRMC,113552.000,A,4420.8737,N,01016.3154,E,390.19,162.14,190912,,,A*63
$GPGGA,113553.000,4420.7696,N,01016.3622,E,1,04,1.7,10132.0,M,48.0,M,,0000*5C
$GPGSA,A,3,31,29,25,30,,,,,,,,,8.8,1.7,8.7*36
$GPRMC,113553.000,A,4420.7696,N,01016.3622,E,389.34,162.15,190912,,,A*67
$GPGGA,113554.000,4420.6658,N,01016.4088,E,1,04,1.7,10144.0,M,48.0,M,,0000*58
$GPGSA,A,3,31,29,25,30,,,,,,,,,8.9,1.7,8.7*37
$GPRMC,113554.000,A,4420.6658,N,01016.4088,E,388.64,162.16,190912,,,A*65
$GPGGA,113555.000,4420.5622,N,01016.4553,E,1,04,1.7,10155.2,M,48.0,M,,0000*56
$GPGSA,A,3,31,29,25,30,,,,,,,,,8.9,1.7,8.7*37
$GPRMC,113555.000,A,4420.5622,N,01016.4553,E,388.00,162.17,190912,,,A*6A
$GPGGA,113556.000,4420.4589,N,01016.5016,E,1,04,1.7,10165.8,M,48.0,M,,0000*5A
$GPGSA,A,3,31,29,25,30,,,,,,,,,8.9,1.7,8.7*37
$GPGSV,3,1,11,21,59,171,22,29,53,056,26,31,49,235,21,30,45,306,27*73
$GPGSV,3,2,11,25,38,122,26,16,17,305,25,05,15,055,22,06,09,262,18*70
$GPGSV,3,3,11,12,03,122,26,23,01,314,19,18,01,157,*49
$GPRMC,113556.000,A,4420.4589,N,01016.5016,E,387.37,162.15,190912,,,A*66
$GPGGA,113557.000,4420.3558,N,01016.5477,E,1,04,1.7,10175.7,M,48.0,M,,0000*5D
$GPGSA,A,3,31,29,25,30,,,,,,,,,8.9,1.7,8.7*37
$GPRMC,113557.000,A,4420.3558,N,01016.5477,E,386.77,162.18,190912,,,A*67
$GPGGA,113558.000,4420.2527,N,01016.5936,E,1,04,1.7,10185.0,M,48.0,M,,0000*5B
$GPGSA,A,3,31,29,25,30,,,,,,,,,8.9,1.7,8.7*37
$GPRMC,113558.000,A,4420.2527,N,01016.5936,E,386.94,162.27,190912,,,A*68
$GPGGA,113559.000,4420.1496,N,01016.6394,E,1,04,1.7,10193.7,M,48.0,M,,0000*53
$GPGSA,A,3,31,29,25,30,,,,,,,,,8.9,1.7,8.7*37
$GPRMC,113559.000,A,4420.1496,N,01016.6394,E,386.61,162.27,190912,,,A*6A
$GPGGA,113600.000,4420.0472,N,01016.6853,E,1,04,1.7,10201.9,M,48.0,M,,0000*51
$GPGSA,A,3,31,29,25,30,,,,,,,,,8.9,1.7,8.7*37
$GPRMC,113600.000,A,4420.0472,N,01016.6853,E,385.11,162.15,190912,,,A*6B
$GPGGA,113601.000,4419.9451,N,01016.7316,E,1,04,1.7,10209.6,M,48.0,M,,0000*5E
$GPGSA,A,3,31,29,25,30,,,,,,,,,8.9,1.7,8.7*37
$GPGSV,3,1,11,21,59,171,21,29,53,056,22,31,49,235,24,30,45,306,26*70
$GPGSV,3,2,11,25,38,122,26,16,17,305,24,05,15,055,21,06,09,262,25*7C
$GPGSV,3,3,11,12,03,122,26,23,01,314,19,18,01,157,15*4D
$GPRMC,113601.000,A,4419.9451,N,01016.7316,E,384.60,162.02,190912,,,A*62
$GPGGA,113602.000,4419.8431,N,01016.7778,E,1,04,1.7,10216.8,M,48.0,M,,0000*56
$GPGSA,A,3,31,29,25,30,,,,,,,,,8.9,1.7,8.7*37
$GPRMC,113602.000,A,4419.8431,N,01016.7778,E,384.12,162.05,190912,,,A*68
$GPGGA,113603.000,4419.7416,N,01016.8237,E,1,04,1.7,10223.7,M,48.0,M,,0000*55
$GPGSA,A,3,31,29,25,30,,,,,,,,,8.9,1.7,8.7*37
$GPRMC,113603.000,A,4419.7416,N,01016.8237,E,382.76,162.06,190912,,,A*65
$GPGGA,113604.000,4419.6403,N,01016.8694,E,1,04,1.7,10230.2,M,48.0,M,,0000*5D
$GPGSA,A,3,31,29,25,30,,,,,,,,,8.9,1.7,8.7*37
$GPRMC,113604.000,A,4419.6403,N,01016.8694,E,382.25,162.13,190912,,,A*68
$GPGGA,113605.000,4419.5392,N,01016.9149,E,1,04,1.7,10236.4,M,48.0,M,,0000*56
$GPGSA,A,3,31,29,25,30,,,,,,,,,8.9,1.7,8.7*37
$GPRMC,113605.000,A,4419.5392,N,01016.9149,E,381.47,162.13,190912,,,A*64
$GPGGA,113606.000,4419.4384,N,01016.9603,E,1,04,1.7,10242.3,M,48.0,M,,0000*5E
$GPGSA,A,3,31,29,25,30,,,,,,,,,8.9,1.7,8.7*37
$GPGSV,3,1,11,21,59,171,20,29,53,056,24,31,49,235,24,30,45,306,27*76
$GPGSV,3,2,11,25,38,122,26,16,17,305,25,05,15,055,21,06,09,262,23*7B
$GPGSV,3,3,11,12,03,122,25,23,01,314,18,18,01,157,14*4E
$GPRMC,113606.000,A,4419.4384,N,01016.9603,E,380.87,162.16,190912,,,A*60
$GPGGA,113607.000,4419.3378,N,01017.0056,E,1,04,1.7,10247.9,M,48.0,M,,0000*5A
$GPGSA,A,3,31,29,25,30,,,,,,,,,8.9,1.7,8.7*37
$GPRMC,113607.000,A,4419.3378,N,01017.0056,E,380.07,162.13,190912,,,A*66
$GPGGA,113608.000,4419.2374,N,01017.0509,E,1,04,1.7,10253.1,M,48.0,M,,0000*5A
$GPGSA,A,3,31,29,25,30,,,,,,,,,8.9,1.7,8.8*38
$GPRMC,113608.000,A,4419.2374,N,01017.0509,E,379.35,162.09,190912,,,A*67
$GPGGA,113609.000,4419.1372,N,01017.0960,E,1,04,1.7,10258.1,M,48.0,M,,0000*56
$GPGSA,A,3,31,29,25,30,,,,,,,,,8.9,1.7,8.8*38
$GPRMC,113609.000,A,4419.1372,N,01017.0960,E,379.02,162.15,190912,,,A*69
$GPGGA,113610.000,4419.0372,N,01017.1411,E,1,04,1.7,10262.7,M,48.0,M,,0000*5A
$GPGSA,A,3,31,29,25,30,,,,,,,,,8.9,1.7,8.8*38
$GPRMC,113610.000,A,4419.0372,N,01017.1411,E,378.37,162.13,190912,,,A*6B
$GPGGA,113611.000,4418.9375,N,01017.1860,E,1,04,1.7,10267.1,M,48.0,M,,0000*5D
$GPGSA,A,3,31,29,25,30,,,,,,,,,8.9,1.7,8.8*38
$GPGSV,3,1,11,21,59,171,20,29,53,056,25,31,49,235,24,30,45,306,27*77
$GPGSV,3,2,11,25,38,122,26,16,17,305,22,05,15,055,21,06,09,262,21*7E
$GPGSV,3,3,11,12,03,122,26,23,01,314,18,18,01,157,15*4C
$GPRMC,113611.000,A,4418.9375,N,01017.1860,E,377.40,162.16,190912,,,A*65
$GPGGA,113612.000,4418.8379,N,01017.2307,E,1,04,1.7,10271.4,M,48.0,M,,0000*58
$GPGSA,A,3,31,29,25,30,,,,,,,,,8.9,1.7,8.8*38
$GPRMC,113612.000,A,4418.8379,N,01017.2307,E,376.77,162.19,190912,,,A*68
$GPGGA,113613.000,4418.7385,N,01017.2753,E,1,04,1.7,10275.4,M,48.0,M,,0000*54
$GPGSA,A,3,31,29,25,30,,,,,,,,,8.9,1.7,8.8*38
$GPRMC,113613.000,A,4418.7385,N,01017.2753,E,376.35,162.22,190912,,,A*6E
$GPGGA,113614.000,4418.6391,N,01017.3198,E,1,04,1.7,10279.1,M,48.0,M,,0000*5E
$GPGSA,A,3,31,29,25,30,,,,,,,,,9.0,1.7,8.8*30
$GPRMC,113614.000,A,4418.6391,N,01017.3198,E,375.94,162.19,190912,,,A*6D
$GPGGA,113615.000,4418.5399,N,01017.3642,E,1,04,1.7,10282.7,M,48.0,M,,0000*56
$GPGSA,A,3,31,29,25,30,,,,,,,,,9.0,1.7,8.8*30
$GPRMC,113615.000,A,4418.5399,N,01017.3642,E,375.26,162.22,190912,,,A*66
$GPGGA,113616.000,4418.4409,N,01017.4084,E,1,04,1.7,10286.0,M,48.0,M,,0000*52
$GPGSA,A,3,31,29,25,30,,,,,,,,,9.0,1.7,8.8*30
$GPGSV,3,1,11,21,59,171,20,29,53,056,25,31,49,235,25,30,45,306,27*76
$GPGSV,3,2,11,25,38,122,26,16,17,305,24,05,15,055,20,06,09,262,21*79
$GPGSV,3,3,11,12,03,122,26,23,01,314,24,18,01,157,17*41
$GPRMC,113616.000,A,4418.4409,N,01017.4084,E,374.59,162.24,190912,,,A*6E
$GPGGA,113617.000,4418.3422,N,01017.4526,E,1,04,1.7,10289.2,M,48.0,M,,0000*5D
$GPGSA,A,3,31,29,25,30,,,,,,,,,9.0,1.7,8.8*30
$GPRMC,113617.000,A,4418.3422,N,01017.4526,E,373.86,162.22,190912,,,A*6F
$GPGGA,113618.000,4418.2436,N,01017.4967,E,1,04,1.7,10292.2,M,48.0,M,,0000*55
$GPGSA,A,3,31,29,25,30,,,,,,,,,9.0,1.7,8.8*30
$GPRMC,113618.000,A,4418.2436,N,01017.4967,E,373.00,162.22,190912,,,A*63
$GPGGA,113619.000,4418.1447,N,01017.5406,E,1,03,2.2,10299.8,M,48.0,M,,0000*5A
$GPGSA,A,2,31,29,25,,,,,,,,,,2.4,2.2,1.0*3A
$GPRMC,113619.000,A,4418.1447,N,01017.5406,E,372.52,162.33,190912,,,A*6A
$GPGGA,113620.000,4418.0463,N,01017.5844,E,1,04,1.7,10307.2,M,48.0,M,,0000*50
$GPGSA,A,3,31,29,25,30,,,,,,,,,9.0,1.7,8.8*30
$GPRMC,113620.000,A,4418.0463,N,01017.5844,E,370.82,162.31,190912,,,A*60
$GPGGA,113621.000,4417.9479,N,01017.6280,E,1,03,2.1,10318.6,M,48.0,M,,0000*55
$GPGSA,A,2,31,29,25,,,,,,,,,,2.4,2.1,1.0*39
$GPGSV,3,1,11,21,59,171,20,29,53,056,17,31,49,235,25,30,45,306,25*75
$GPGSV,3,2,11,25,38,122,26,16,17,305,22,05,15,055,20,06,09,262,19*74
$GPGSV,3,3,11,12,03,122,25,23,01,314,24,18,01,157,16*43
$GPRMC,113621.000,A,4417.9479,N,01017.6280,E,369.06,162.41,190912,,,A*6E
$GPGGA,113622.000,4417.8496,N,01017.6706,E,1,03,2.1,10333.5,M,48.0,M,,0000*57
$GPGSA,A,2,31,29,25,,,,,,,,,,2.4,2.1,1.0*39
$GPRMC,113622.000,A,4417.8496,N,01017.6706,E,367.32,162.78,190912,,,A*65
$GPGGA,113623.000,4417.7507,N,01017.7122,E,1,03,2.1,10351.4,M,48.0,M,,0000*54
$GPGSA,A,2,31,29,25,,,,,,,,,,2.4,2.1,1.0*39
$GPRMC,113623.000,A,4417.7507,N,01017.7122,E,366.94,163.23,190912,,,A*61
$GPGGA,113624.000,4417.6514,N,01017.7534,E,1,03,2.2,10371.7,M,48.0,M,,0000*51
$GPGSA,A,2,31,25,30,,,,,,,,,,2.4,2.2,1.0*32
$GPRMC,113624.000,A,4417.6514,N,01017.7534,E,367.32,163.52,190912,,,A*6D
$GPGGA,113625.000,4417.5503,N,01017.7928,E,1,03,2.1,10393.8,M,48.0,M,,0000*54
$GPGSA,A,2,31,29,25,,,,,,,,,,2.4,2.1,1.0*39
$GPRMC,113625.000,A,4417.5503,N,01017.7928,E,370.79,164.38,190912,,,A*6A
$GPGGA,113626.000,4417.4474,N,01017.8299,E,1,04,1.7,10414.6,M,48.0,M,,0000*5D
$GPGSA,A,3,31,29,25,30,,,,,,,,,9.0,1.7,8.8*30
$GPGSV,3,1,11,21,59,171,20,29,53,056,26,31,49,235,24,30,45,306,25*76
$GPGSV,3,2,11,25,38,122,20,16,17,305,12,05,15,055,21,06,09,262,25*7F
$GPGSV,3,3,11,12,03,122,12,23,01,314,25,18,01,157,14*44
$GPRMC,113626.000,A,4417.4474,N,01017.8299,E,375.20,165.43,190912,,,A*63
$GPGGA,113627.000,4417.3579,N,01017.8518,E,1,04,1.7,10383.0,M,48.0,M,,0000*56
$GPGSA,A,3,31,29,25,30,,,,,,,,,9.0,1.7,8.9*31
$GPRMC,113627.000,A,4417.3579,N,01017.8518,E,344.40,168.81,190912,,,A*60
$GPGGA,113628.000,4417.2666,N,01017.8729,E,1,04,1.7,10352.8,M,48.0,M,,0000*51
$GPGSA,A,3,31,29,25,30,,,,,,,,,9.0,1.7,8.9*31
$GPRMC,113628.000,A,4417.2666,N,01017.8729,E,348.17,169.41,190912,,,A*60
$GPGGA,113629.000,4417.1809,N,01017.8869,E,1,04,1.7,10285.4,M,48.0,M,,0000*58
$GPGSA,A,3,31,29,25,30,,,,,,,,,9.0,1.7,8.9*31
$GPRMC,113629.000,A,4417.1809,N,01017.8869,E,342.12,170.97,190912,,,A*62
$GPGGA,113630.000,4417.0928,N,01017.8998,E,1,03,2.1,10228.3,M,48.0,M,,0000*5E
$GPGSA,A,2,31,29,25,,,,,,,,,,2.4,2.1,1.0*39
$GPRMC,113630.000,A,4417.0928,N,01017.8998,E,345.04,171.82,190912,,,A*63
$GPGGA,113631.000,4417.0020,N,01017.9120,E,1,03,2.1,10181.3,M,48.0,M,,0000*54
$GPGSA,A,2,31,29,25,,,,,,,,,,2.4,2.1,1.0*39
$GPGSV,3,1,11,21,59,171,27,29,53,056,34,31,49,235,31,30,45,306,17*77
$GPGSV,3,2,11,25,38,122,25,16,17,305,25,05,15,055,21,06,09,262,27*7C
$GPGSV,3,3,11,12,03,122,,23,01,314,18,18,01,157,*4C
$GPRMC,113631.000,A,4417.0020,N,01017.9120,E,349.59,172.60,190912,,,A*62
$GPGGA,113632.000,4416.9086,N,01017.9228,E,1,03,2.1,10143.7,M,48.0,M,,0000*52
$GPGSA,A,2,31,29,25,,,,,,,,,,2.4,2.1,1.0*39
$GPRMC,113632.000,A,4416.9086,N,01017.9228,E,354.18,173.50,190912,,,A*65
$GPGGA,113633.000,4416.8133,N,01017.9317,E,1,04,1.7,10108.6,M,48.0,M,,0000*5C
$GPGSA,A,3,31,29,25,30,,,,,,,,,9.1,1.7,8.9*30
$GPRMC,113633.000,A,4416.8133,N,01017.9317,E,358.47,174.47,190912,,,A*60
$GPGGA,113634.000,4416.7163,N,01017.9389,E,1,05,1.6,10075.6,M,48.0,M,,0000*5D
$GPGSA,A,3,31,29,25,06,30,,,,,,,,3.0,1.6,2.5*3A
$GPRMC,113634.000,A,4416.7163,N,01017.9389,E,362.63,175.36,190912,,,A*62
$GPGGA,113635.000,4416.6329,N,01017.9293,E,1,05,1.6,10013.1,M,48.0,M,,0000*5C
$GPGSA,A,3,31,29,25,06,30,,,,,,,,3.0,1.6,2.5*3A
$GPRMC,113635.000,A,4416.6329,N,01017.9293,E,330.83,180.56,190912,,,A*61
$GPGGA,113636.000,4416.5485,N,01017.9183,E,1,05,1.6,9954.1,M,48.0,M,,0000*6D
$GPGSA,A,3,31,29,25,06,30,,,,,,,,3.0,1.6,2.5*3A
$GPGSV,3,1,11,21,59,171,21,29,53,056,32,31,49,235,28,30,45,306,28*73
$GPGSV,3,2,11,25,38,122,21,16,17,305,24,05,15,055,21,06,09,262,21*7F
$GPGSV,3,3,11,12,03,122,,23,01,314,19,18,01,157,*4D
$GPRMC,113636.000,A,4416.5485,N,01017.9183,E,331.62,181.52,190912,,,A*69
$GPGGA,113637.000,4416.4622,N,01017.9076,E,1,05,1.6,9898.8,M,48.0,M,,0000*61
$GPGSA,A,3,31,29,25,06,30,,,,,,,,3.0,1.6,2.5*3A
$GPRMC,113637.000,A,4416.4622,N,01017.9076,E,335.61,181.60,190912,,,A*6B
$GPGGA,113638.000,4416.3873,N,01017.8863,E,1,05,1.6,9825.2,M,48.0,M,,0000*62
$GPGSA,A,3,31,29,25,06,30,,,,,,,,3.0,1.6,2.5*3A
$GPRMC,113638.000,A,4416.3873,N,01017.8863,E,313.34,184.90,190912,,,A*6A
$GPGGA,113639.000,4416.3121,N,01017.8651,E,0,00,,9756.0,M,48.0,M,,0000*46
$GPGSA,A,1,,,,,,,,,,,,,,,*1E
$GPRMC,113640.000,A,4416.2355,N,01017.8444,E,312.92,185.43,190912,,,A*60
$GPGGA,113641.000,4416.1573,N,01017.8241,E,1,05,1.6,9629.6,M,48.0,M,,0000*6F
$GPGSA,A,3,31,29,25,06,30,,,,,,,,3.0,1.6,2.5*3A
$GPGSV,3,1,11,21,59,171,21,29,53,056,22,31,49,235,29,30,45,306,26*7D
$GPGSV,3,2,11,25,38,122,22,16,17,305,21,05,15,055,20,06,09,262,20*79
$GPGSV,3,3,11,12,03,122,23,23,01,314,24,18,01,157,16*45
$GPRMC,113641.000,A,4416.1573,N,01017.8241,E,315.52,185.53,190912,,,A*69
$GPGGA,113642.000,4416.0777,N,01017.8049,E,1,05,1.6,9571.8,M,48.0,M,,0000*61
$GPGSA,A,3,31,29,25,06,30,,,,,,,,3.0,1.6,2.5*3A
$GPRMC,113642.000,A,4416.0777,N,01017.8049,E,317.50,185.35,190912,,,A*67
$GPGGA,113643.000,4415.9967,N,01017.7867,E,1,05,1.6,9517.2,M,48.0,M,,0000*64
$GPGSA,A,3,31,29,25,06,30,,,,,,,,3.0,1.6,2.5*3A
$GPRMC,113643.000,A,4415.9967,N,01017.7867,E,319.81,185.16,190912,,,A*6B
$GPGGA,113644.000,4415.9140,N,01017.7696,E,1,05,1.6,9465.6,M,48.0,M,,0000*6E
$GPGSA,A,3,31,29,25,06,30,,,,,,,,3.0,1.6,2.5*3A
$GPRMC,113644.000,A,4415.9140,N,01017.7696,E,322.77,184.98,190912,,,A*67
$GPGGA,113645.000,4415.8298,N,01017.7539,E,1,04,2.0,9416.8,M,48.0,M,,0000*60
$GPGSA,A,3,31,29,25,06,,,,,,,,,3.3,2.0,2.7*3D
$GPRMC,113645.000,A,4415.8298,N,01017.7539,E,325.54,184.61,190912,,,A*67
$GPGGA,113646.000,4415.7438,N,01017.7396,E,1,05,1.6,9370.5,M,48.0,M,,0000*6D
$GPGSA,A,3,31,29,25,06,30,,,,,,,,3.0,1.6,2.5*3A
$GPGSV,3,1,11,21,59,171,20,29,53,056,21,31,49,235,29,30,45,306,21*78
$GPGSV,3,2,11,25,38,122,22,16,17,305,16,05,15,055,27,06,09,262,21*7B
$GPGSV,3,3,11,12,03,122,22,23,01,314,19,18,01,157,16*4A
$GPRMC,113646.000,A,4415.7438,N,01017.7396,E,328.77,184.26,190912,,,A*6B
$GPGGA,113647.000,4415.6562,N,01017.7268,E,1,05,1.6,9326.4,M,48.0,M,,0000*61
$GPGSA,A,3,31,29,25,06,30,,,,,,,,3.0,1.6,2.5*3A
$GPRMC,113647.000,A,4415.6562,N,01017.7268,E,331.99,183.82,190912,,,A*64
$GPGGA,113648.000,4415.5682,N,01017.7144,E,0,00,,9284.6,M,48.0,M,,0000*4B
$GPGSA,A,1,,,,,,,,,,,,,,,*1E
$GPRMC,113656.000,A,4414.8534,N,01017.6271,E,332.08,183.12,190912,,,A*63
$GPGGA,113657.000,4414.7621,N,01017.6198,E,1,04,1.8,9015.4,M,48.0,M,,0000*65
$GPGSA,A,3,31,29,25,30,,,,,,,,,9.2,1.8,9.0*34
$GPRMC,113657.000,A,4414.7621,N,01017.6198,E,332.65,182.88,190912,,,A*67
$GPGGA,113658.000,4414.6708,N,01017.6125,E,0,00,,9002.3,M,48.0,M,,0000*44
$GPGSA,A,1,,,,,,,,,,,,,,,*1E
$GPRMC,113700.000,A,4414.4876,N,01017.5984,E,333.48,182.83,190912,,,A*68
$GPGGA,113701.000,4414.3958,N,01017.5913,E,1,05,1.6,8963.2,M,48.0,M,,0000*6A
$GPGSA,A,3,31,29,25,06,30,,,,,,,,3.0,1.6,2.5*3A
$GPGSV,3,1,11,21,59,171,20,29,53,056,12,31,49,235,29,30,45,306,25*7C
$GPGSV,3,2,11,25,38,122,27,16,17,305,07,05,15,055,22,06,09,262,21*7B
$GPGSV,3,3,11,12,03,122,22,23,01,314,21,18,01,157,17*40
$GPRMC,113701.000,A,4414.3958,N,01017.5913,E,333.47,183.01,190912,,,A*69
$GPGGA,113702.000,4414.3040,N,01017.5839,E,1,05,1.6,8950.1,M,48.0,M,,0000*63
$GPGSA,A,3,31,29,25,06,30,,,,,,,,3.0,1.6,2.5*3A
$GPRMC,113702.000,A,4414.3040,N,01017.5839,E,333.11,183.19,190912,,,A*69
$GPGGA,113703.000,4414.2125,N,01017.5768,E,1,04,2.3,8937.0,M,48.0,M,,0000*6D
$GPGSA,A,3,31,29,06,30,,,,,,,,,3.6,2.3,2.8*30
$GPRMC,113703.000,A,4414.2125,N,01017.5768,E,332.29,183.04,190912,,,A*66
$GPGGA,113704.000,4414.1213,N,01017.5699,E,1,04,2.3,8923.9,M,48.0,M,,0000*6C
$GPGSA,A,3,31,29,06,30,,,,,,,,,3.6,2.3,2.8*30
$GPRMC,113704.000,A,4414.1213,N,01017.5699,E,331.60,182.95,190912,,,A*6C
$GPGGA,113705.000,4414.0293,N,01017.5631,E,1,03,3.8,8928.4,M,48.0,M,,0000*6D
$GPGSA,A,2,31,29,06,,,,,,,,,,3.9,3.8,1.0*3C
$GPRMC,113705.000,A,4414.0293,N,01017.5631,E,331.52,183.04,190912,,,A*6E
$GPGGA,113706.000,4413.9368,N,01017.5560,E,1,03,3.8,8948.0,M,48.0,M,,0000*60
$GPGSA,A,2,31,29,06,,,,,,,,,,3.9,3.8,1.0*3C
$GPGSV,3,1,11,21,59,171,15,29,53,056,24,31,49,235,20,30,45,306,17*77
$GPGSV,3,2,11,25,38,122,,16,17,305,20,05,15,055,15,06,09,262,21*7F
$GPGSV,3,3,11,12,03,122,24,23,01,314,22,18,01,157,18*4A
$GPRMC,113706.000,A,4413.9368,N,01017.5560,E,331.12,183.24,190912,,,A*67
$GPGGA,113707.000,4413.8440,N,01017.5480,E,1,03,3.8,8979.4,M,48.0,M,,0000*64
$GPGSA,A,2,31,29,06,,,,,,,,,,3.9,3.8,1.0*3C
$GPRMC,113707.000,A,4413.8440,N,01017.5480,E,330.47,183.69,190912,,,A*6D
$GPGGA,113708.000,4413.7517,N,01017.5388,E,1,03,3.6,9019.0,M,48.0,M,,0000*6C
$GPGSA,A,2,31,06,30,,,,,,,,,,3.8,3.6,1.0*3B
$GPRMC,113708.000,A,4413.7517,N,01017.5388,E,328.39,184.20,190912,,,A*6B
$GPGGA,113709.000,4413.6760,N,01017.5148,E,1,04,2.3,9049.0,M,48.0,M,,0000*66
$GPGSA,A,3,31,29,06,30,,,,,,,,,3.6,2.3,2.8*30
$GPRMC,113709.000,A,4413.6760,N,01017.5148,E,323.32,184.86,190912,,,A*6B
$GPGGA,113710.000,4413.5994,N,01017.4918,E,1,04,2.3,9076.7,M,48.0,M,,0000*6F
$GPGSA,A,3,31,29,06,30,,,,,,,,,3.6,2.3,2.8*30
$GPRMC,113710.000,A,4413.5994,N,01017.4918,E,322.96,184.84,190912,,,A*64
$GPGGA,113711.000,4413.5263,N,01017.4659,E,1,04,2.3,9100.8,M,48.0,M,,0000*68
$GPGSA,A,3,31,29,06,30,,,,,,,,,3.6,2.3,2.8*30
$GPGSV,3,1,11,21,59,171,17,29,53,056,23,31,49,235,30,30,45,306,24*73
$GPGSV,3,2,11,25,38,122,,16,17,305,18,05,15,055,16,06,09,262,21*77
$GPGSV,3,3,11,12,03,122,16,23,01,314,22,18,01,157,25*45
$GPRMC,113711.000,A,4413.5263,N,01017.4659,E,322.26,184.85,190912,,,A*66
$GPGGA,113712.000,4413.4523,N,01017.4408,E,1,05,1.6,9122.9,M,48.0,M,,0000*69
$GPGSA,A,3,31,29,25,06,30,,,,,,,,3.0,1.6,2.5*3A
$GPRMC,113712.000,A,4413.4523,N,01017.4408,E,321.69,185.02,190912,,,A*67
$GPGGA,113713.000,4413.3793,N,01017.4148,E,1,04,2.0,9142.6,M,48.0,M,,0000*6A
$GPGSA,A,3,31,25,06,30,,,,,,,,,3.2,2.0,2.5*36
$GPRMC,113713.000,A,4413.3793,N,01017.4148,E,320.49,185.19,190912,,,A*60
$GPGGA,113714.000,4413.3056,N,01017.3894,E,1,04,2.0,9160.6,M,48.0,M,,0000*6C
$GPGSA,A,3,31,25,06,30,,,,,,,,,3.2,2.0,2.5*36
$GPRMC,113714.000,A,4413.3056,N,01017.3894,E,319.49,185.38,190912,,,A*6F
$GPGGA,113715.000,4413.2314,N,01017.3644,E,1,03,2.2,9185.1,M,48.0,M,,0000*63
$GPGSA,A,2,31,29,30,,,,,,,,,,2.4,2.2,1.0*3E
$GPRMC,113715.000,A,4413.2314,N,01017.3644,E,318.19,185.48,190912,,,A*6A
$GPGGA,113716.000,4413.1565,N,01017.3400,E,1,04,1.8,9207.6,M,48.0,M,,0000*61
$GPGSA,A,3,31,29,25,30,,,,,,,,,9.3,1.8,9.1*34
$GPGSV,3,1,11,21,59,171,18,29,53,056,20,31,49,235,24,30,45,306,26*78
$GPGSV,3,2,11,25,38,122,20,16,17,305,18,05,15,055,16,06,09,262,13*74
$GPGSV,3,3,11,12,03,122,15,23,01,314,24,18,01,157,24*41
$GPRMC,113716.000,A,4413.1565,N,01017.3400,E,317.18,185.69,190912,,,A*65
$GPGGA,113717.000,4413.0809,N,01017.3164,E,1,04,1.8,9228.2,M,48.0,M,,0000*68
$GPGSA,A,3,31,29,25,30,,,,,,,,,9.3,1.8,9.1*34
$GPRMC,113717.000,A,4413.0809,N,01017.3164,E,316.39,185.71,190912,,,A*6E
$GPGGA,113718.000,4413.0048,N,01017.2935,E,1,04,1.8,9247.1,M,48.0,M,,0000*6D
$GPGSA,A,3,31,29,25,30,,,,,,,,,9.3,1.8,9.1*34
$GPRMC,113718.000,A,4413.0048,N,01017.2935,E,315.44,185.79,190912,,,A*60
$GPGGA,113719.000,4412.9285,N,01017.2709,E,1,03,2.2,9271.3,M,48.0,M,,0000*6F
$GPGSA,A,2,31,29,30,,,,,,,,,,2.4,2.2,1.0*3E
$GPRMC,113719.000,A,4412.9285,N,01017.2709,E,313.95,185.82,190912,,,A*65
$GPGGA,113720.000,4412.8520,N,01017.2487,E,1,03,2.2,9299.5,M,48.0,M,,0000*69
$GPGSA,A,2,31,29,30,,,,,,,,,,2.4,2.2,1.0*3E
$GPRMC,113720.000,A,4412.8520,N,01017.2487,E,312.84,185.87,190912,,,A*67
$GPGGA,113721.000,4412.7751,N,01017.2266,E,1,03,2.2,9330.9,M,48.0,M,,0000*64
$GPGSA,A,2,31,29,30,,,,,,,,,,2.4,2.2,1.0*3E
$GPGSV,3,1,11,21,59,171,18,29,53,056,22,31,49,235,25,30,45,306,27*7A
$GPGSV,3,2,11,25,38,122,21,16,17,305,18,05,15,055,18,06,09,262,17*7F
$GPGSV,3,3,11,12,03,122,18,23,01,314,24,18,01,157,24*4C
$GPRMC,113721.000,A,4412.7751,N,01017.2266,E,311.95,185.95,190912,,,A*64
$GPGGA,113722.000,4412.6980,N,01017.2046,E,1,03,2.2,9364.9,M,48.0,M,,0000*65
$GPGSA,A,2,31,29,30,,,,,,,,,,2.4,2.2,1.0*3E
$GPRMC,113722.000,A,4412.6980,N,01017.2046,E,311.47,186.11,190912,,,A*64
$GPGGA,113723.000,4412.6205,N,01017.1830,E,1,03,2.2,9400.8,M,48.0,M,,0000*6C
$GPGSA,A,2,31,29,30,,,,,,,,,,2.4,2.2,1.0*3E
$GPRMC,113723.000,A,4412.6205,N,01017.1830,E,310.87,186.14,190912,,,A*61
$GPGGA,113724.000,4412.5428,N,01017.1616,E,1,03,2.2,9438.3,M,48.0,M,,0000*6B
$GPGSA,A,2,31,29,30,,,,,,,,,,2.4,2.2,1.0*3E
$GPRMC,113724.000,A,4412.5428,N,01017.1616,E,309.82,186.17,190912,,,A*68
$GPGGA,113725.000,4412.4658,N,01017.1400,E,1,03,2.2,9476.7,M,48.0,M,,0000*65
$GPGSA,A,2,31,29,30,,,,,,,,,,2.4,2.2,1.0*3E
$GPRMC,113725.000,A,4412.4658,N,01017.1400,E,308.39,186.21,190912,,,A*6C
$GPGGA,113726.000,4412.3889,N,01017.1182,E,1,03,2.2,9515.7,M,48.0,M,,0000*68
$GPGSA,A,2,31,29,30,,,,,,,,,,2.4,2.2,1.0*3E
$GPGSV,3,1,11,21,59,171,18,29,53,056,21,31,49,235,30,30,45,306,27*7D
$GPGSV,3,2,11,25,38,122,22,16,17,305,19,05,15,055,20,06,09,262,16*77
$GPGSV,3,3,11,12,03,122,19,23,01,314,23,18,01,157,23*4D
$GPRMC,113726.000,A,4412.3889,N,01017.1182,E,307.78,186.41,190912,,,A*69
$GPGGA,113727.000,4412.3121,N,01017.0961,E,1,03,2.2,9555.1,M,48.0,M,,0000*64
$GPGSA,A,2,31,29,30,,,,,,,,,,2.4,2.2,1.0*3E
$GPRMC,113727.000,A,4412.3121,N,01017.0961,E,307.14,186.55,190912,,,A*68
$GPGGA,113728.000,4412.2353,N,01017.0745,E,1,03,2.2,9594.7,M,48.0,M,,0000*6E
$GPGSA,A,2,31,29,30,,,,,,,,,,2.4,2.2,1.0*3E
$GPRMC,113728.000,A,4412.2353,N,01017.0745,E,306.35,186.46,190912,,,A*69
$GPGGA,113729.000,4412.1584,N,01017.0535,E,1,03,2.2,9634.3,M,48.0,M,,0000*68
$GPGSA,A,2,31,29,30,,,,,,,,,,2.4,2.2,1.0*3E
$GPRMC,113729.000,A,4412.1584,N,01017.0535,E,305.38,186.28,190912,,,A*64
$GPGGA,113730.000,4412.0810,N,01017.0332,E,0,00,,9670.9,M,48.0,M,,0000*46
$GPGSA,A,1,,,,,,,,,,,,,,,*1E
$GPRMC,113731.000,A,4412.0038,N,01017.0134,E,303.45,186.21,190912,,,A*6E
$GPGGA,113732.000,4411.9265,N,01016.9940,E,1,03,2.2,9744.3,M,48.0,M,,0000*61
$GPGSA,A,2,31,29,30,,,,,,,,,,2.4,2.2,1.0*3E
$GPRMC,113732.000,A,4411.9265,N,01016.9940,E,302.41,186.19,190912,,,A*60
$GPGGA,113733.000,4411.8491,N,01016.9750,E,1,03,2.2,9780.8,M,48.0,M,,0000*60
$GPGSA,A,2,31,29,30,,,,,,,,,,2.4,2.2,1.0*3E
$GPRMC,113733.000,A,4411.8491,N,01016.9750,E,301.78,186.22,190912,,,A*63
$GPGGA,113734.000,4411.7716,N,01016.9562,E,1,03,2.2,9816.9,M,48.0,M,,0000*66
$GPGSA,A,2,31,29,30,,,,,,,,,,2.4,2.2,1.0*3E
$GPRMC,113734.000,A,4411.7716,N,01016.9562,E,301.14,186.25,190912,,,A*69
$GPGGA,113735.000,4411.6940,N,01016.9376,E,1,03,2.2,9852.6,M,48.0,M,,0000*67
$GPGSA,A,2,31,29,30,,,,,,,,,,2.4,2.2,1.0*3E
$GPRMC,113735.000,A,4411.6940,N,01016.9376,E,300.60,186.25,190912,,,A*65
$GPGGA,113736.000,4411.6164,N,01016.9191,E,1,03,2.2,9887.8,M,48.0,M,,0000*67
$GPGSA,A,2,31,29,30,,,,,,,,,,2.4,2.2,1.0*3E
$GPGSV,3,1,11,21,59,171,22,29,53,056,18,31,49,235,28,30,45,306,27*77
$GPGSV,3,2,11,25,38,122,24,16,17,305,19,05,15,055,21,06,09,262,15*73
$GPGSV,3,3,11,12,03,122,07,23,01,314,17,18,01,157,16*43
$GPRMC,113736.000,A,4411.6164,N,01016.9191,E,299.71,186.31,190912,,,A*67
$GPGGA,113737.000,4411.5388,N,01016.9010,E,1,03,2.2,9922.5,M,48.0,M,,0000*6E
$GPGSA,A,2,31,29,30,,,,,,,,,,2.4,2.2,1.0*3E
$GPRMC,113737.000,A,4411.5388,N,01016.9010,E,298.82,186.29,190912,,,A*69
$GPGGA,113738.000,4411.4613,N,01016.8830,E,1,03,2.2,9956.4,M,48.0,M,,0000*6E
$GPGSA,A,2,31,29,30,,,,,,,,,,2.4,2.2,1.0*3E
$GPRMC,113738.000,A,4411.4613,N,01016.8830,E,297.96,186.29,190912,,,A*61
$GPGGA,113739.000,4411.3839,N,01016.8653,E,1,03,2.2,9989.6,M,48.0,M,,0000*65
$GPGSA,A,2,31,29,30,,,,,,,,,,2.4,2.2,1.0*3E
$GPRMC,113739.000,A,4411.3839,N,01016.8653,E,297.30,186.25,190912,,,A*6A
$GPGGA,113740.000,4411.3067,N,01016.8476,E,1,03,2.2,10022.0,M,48.0,M,,0000*5B
$GPGSA,A,2,31,29,30,,,,,,,,,,2.4,2.2,1.0*3E
$GPRMC,113740.000,A,4411.3067,N,01016.8476,E,296.57,186.23,190912,,,A*64
$GPGGA,113741.000,4411.2295,N,01016.8304,E,1,04,1.8,10051.8,M,48.0,M,,0000*54
$GPGSA,A,3,31,29,25,30,,,,,,,,,9.4,1.8,9.3*31
$GPGSV,3,1,11,21,59,171,22,29,53,056,17,31,49,235,24,30,45,306,28*7B
$GPGSV,3,2,11,25,38,122,24,16,17,305,20,05,15,055,21,06,09,262,16*7A
$GPGSV,3,3,11,12,03,122,14,23,01,314,16,18,01,157,18*4E
$GPRMC,113741.000,A,4411.2295,N,01016.8304,E,295.89,186.16,190912,,,A*6F
$GPGGA,113742.000,4411.1522,N,01016.8140,E,1,04,1.8,10079.3,M,48.0,M,,0000*5C
$GPGSA,A,3,31,29,25,30,,,,,,,,,9.4,1.8,9.3*31
$GPRMC,113742.000,A,4411.1522,N,01016.8140,E,294.70,186.03,190912,,,A*65
$GPGGA,113743.000,4411.0747,N,01016.7980,E,1,04,1.8,10104.7,M,48.0,M,,0000*59
$GPGSA,A,3,31,29,25,30,,,,,,,,,9.5,1.8,9.3*30
$GPRMC,113743.000,A,4411.0747,N,01016.7980,E,294.31,186.00,190912,,,A*69
$GPGGA,113744.000,4410.9974,N,01016.7824,E,1,03,2.2,10129.9,M,48.0,M,,0000*58
$GPGSA,A,2,31,29,30,,,,,,,,,,2.4,2.2,1.0*3E
$GPRMC,113744.000,A,4410.9974,N,01016.7824,E,293.17,185.92,190912,,,A*6C
$GPGGA,113745.000,4410.9200,N,01016.7672,E,1,03,2.2,10154.7,M,48.0,M,,0000*58
$GPGSA,A,2,31,29,30,,,,,,,,,,2.4,2.2,1.0*3E
$GPRMC,113745.000,A,4410.9200,N,01016.7672,E,292.40,185.87,190912,,,A*6F
$GPGGA,113746.000,4410.8426,N,01016.7520,E,1,03,2.2,10179.3,M,48.0,M,,0000*57
$GPGSA,A,2,31,29,30,,,,,,,,,,2.4,2.2,1.0*3E
$GPGSV,3,1,11,21,59,171,17,29,53,056,25,31,49,235,30,30,45,306,29*78
$GPGSV,3,2,11,25,38,122,18,16,17,305,20,05,15,055,21,06,09,262,18*7B
$GPGSV,3,3,11,12,03,122,22,23,01,314,18,18,01,157,18*45
$GPRMC,113746.000,A,4410.8426,N,01016.7520,E,291.98,185.95,190912,,,A*6E
$GPGGA,113747.000,4410.7651,N,01016.7372,E,1,03,2.2,10203.5,M,48.0,M,,0000*52
$GPGSA,A,2,31,29,30,,,,,,,,,,2.4,2.2,1.0*3E
$GPRMC,113747.000,A,4410.7651,N,01016.7372,E,291.65,185.93,190912,,,A*67
$GPGGA,113748.000,4410.6875,N,01016.7228,E,1,03,2.2,10227.3,M,48.0,M,,0000*5A
$GPGSA,A,2,31,29,30,,,,,,,,,,2.4,2.2,1.0*3E
$GPRMC,113748.000,A,4410.6875,N,01016.7228,E,291.58,185.75,190912,,,A*69
$GPGGA,113749.000,4410.6097,N,01016.7090,E,1,03,2.2,10250.7,M,48.0,M,,0000*5A
$GPGSA,A,2,31,29,30,,,,,,,,,,2.4,2.2,1.0*3E
$GPRMC,113749.000,A,4410.6097,N,01016.7090,E,291.48,185.61,190912,,,A*69
$GPGGA,113750.000,4410.5317,N,01016.6956,E,1,03,2.2,10273.6,M,48.0,M,,0000*58
$GPGSA,A,2,31,29,30,,,,,,,,,,2.4,2.2,1.0*3E
$GPRMC,113750.000,A,4410.5317,N,01016.6956,E,291.62,185.44,190912,,,A*64
$GPGGA,113751.000,4410.4534,N,01016.6825,E,1,03,2.2,10296.0,M,48.0,M,,0000*57
$GPGSA,A,2,31,29,30,,,,,,,,,,2.4,2.2,1.0*3E
$GPGSV,3,1,11,21,59,171,19,29,53,056,27,31,49,235,31,30,45,306,30*7D
$GPGSV,3,2,11,25,38,122,27,16,17,305,19,05,15,055,22,06,09,262,19*7F
$GPGSV,3,3,11,12,03,122,16,23,01,314,19,18,01,157,16*4D
$GPRMC,113751.000,A,4410.4534,N,01016.6825,E,291.86,185.34,190912,,,A*6B
$GPGGA,113752.000,4410.3749,N,01016.6697,E,1,03,2.2,10318.0,M,48.0,M,,0000*5B
$GPGSA,A,2,31,29,30,,,,,,,,,,2.4,2.2,1.0*3E
$GPRMC,113752.000,A,4410.3749,N,01016.6697,E,292.23,185.23,190912,,,A*6A
$GPGGA,113753.000,4410.2961,N,01016.6572,E,1,03,2.2,10339.4,M,48.0,M,,0000*50
$GPGSA,A,2,31,29,30,,,,,,,,,,2.4,2.2,1.0*3E
$GPRMC,113753.000,A,4410.2961,N,01016.6572,E,292.74,185.12,190912,,,A*66
$GPGGA,113754.000,4410.2170,N,01016.6450,E,1,03,2.2,10360.4,M,48.0,M,,0000*52
$GPGSA,A,2,31,29,30,,,,,,,,,,2.4,2.2,1.0*3E
$GPRMC,113754.000,A,4410.2170,N,01016.6450,E,293.40,185.03,190912,,,A*6E
$GPGGA,113755.000,4410.1375,N,01016.6329,E,1,03,2.2,10380.7,M,48.0,M,,0000*53
$GPGSA,A,2,31,29,30,,,,,,,,,,2.4,2.2,1.0*3E
$GPRMC,113755.000,A,4410.1375,N,01016.6329,E,294.18,184.98,190912,,,A*6B
$GPGGA,113756.000,4410.0577,N,01016.6209,E,1,03,2.2,10400.5,M,48.0,M,,0000*5B
$GPGSA,A,2,31,29,30,,,,,,,,,,2.4,2.2,1.0*3E
$GPGSV,3,1,11,21,59,171,20,29,53,056,27,31,49,235,31,30,45,306,29*7F
$GPGSV,3,2,11,25,38,122,27,16,17,305,19,05,15,055,,06,09,262,19*7F
$GPGSV,3,3,11,12,03,122,13,23,01,314,20,18,01,157,16*42
$GPRMC,113756.000,A,4410.0577,N,01016.6209,E,295.02,184.94,190912,,,A*68
$GPGGA,113757.000,4409.9775,N,01016.6089,E,1,03,2.2,10419.8,M,48.0,M,,0000*54
$GPGSA,A,2,31,29,30,,,,,,,,,,2.4,2.2,1.0*3E
$GPRMC,113757.000,A,4409.9775,N,01016.6089,E,295.83,184.95,190912,,,A*6A
$GPGGA,113758.000,4409.8970,N,01016.5970,E,1,03,2.2,10438.5,M,48.0,M,,0000*53
$GPGSA,A,2,31,29,30,,,,,,,,,,2.4,2.2,1.0*3E
$GPRMC,113758.000,A,4409.8970,N,01016.5970,E,296.78,184.95,190912,,,A*64
$GPGGA,113759.000,4409.8161,N,01016.5850,E,1,03,2.2,10456.8,M,48.0,M,,0000*5C
$GPGSA,A,2,31,29,30,,,,,,,,,,2.4,2.2,1.0*3E
$GPRMC,113759.000,A,4409.8161,N,01016.5850,E,297.68,184.97,190912,,,A*6C
$GPGGA,113800.000,4409.7349,N,01016.5730,E,1,03,2.2,10474.5,M,48.0,M,,0000*5C
$GPGSA,A,2,31,29,30,,,,,,,,,,2.4,2.2,1.0*3E
$GPRMC,113800.000,A,4409.7349,N,01016.5730,E,298.65,185.02,190912,,,A*6E
$GPGGA,113801.000,4409.6533,N,01016.5608,E,1,03,2.2,10491.7,M,48.0,M,,0000*54
$GPGSA,A,2,31,29,30,,,,,,,,,,2.4,2.2,1.0*3E
$GPGSV,3,1,11,21,59,171,23,29,53,056,27,31,49,235,31,30,45,306,29*7C
$GPGSV,3,2,11,25,38,122,28,16,17,305,23,05,15,055,,06,09,262,19*79
$GPGSV,3,3,11,12,03,122,25,23,01,314,,18,01,157,16*45
$GPRMC,113801.000,A,4409.6533,N,01016.5608,E,299.63,185.09,190912,,,A*63
$GPGGA,113802.000,4409.5714,N,01016.5484,E,1,03,2.2,10508.4,M,48.0,M,,0000*57
$GPGSA,A,2,31,29,30,,,,,,,,,,2.4,2.2,1.0*3E
$GPRMC,113802.000,A,4409.5714,N,01016.5484,E,300.66,185.18,190912,,,A*66
$GPGGA,113803.000,4409.4891,N,01016.5358,E,1,03,2.2,10524.6,M,48.0,M,,0000*5F
$GPGSA,A,2,31,29,30,,,,,,,,,,2.4,2.2,1.0*3E
$GPRMC,113803.000,A,4409.4891,N,01016.5358,E,301.63,185.30,190912,,,A*6C
$GPGGA,113804.000,4409.4066,N,01016.5229,E,1,03,2.2,10540.4,M,48.0,M,,0000*5F
$GPGSA,A,2,31,29,30,,,,,,,,,,2.4,2.2,1.0*3E
$GPRMC,113804.000,A,4409.4066,N,01016.5229,E,302.55,185.41,190912,,,A*6C
