$GPRMC,111941.000,A,6538.4711,N,01654.4888,W,1.00,256.93,030912,,,A*73
$GPGGA,111942.000,6538.4709,N,01654.4897,W,1,07,1.4,305.1,M,59.9,M,,0000*46
$GPGSA,A,3,02,29,12,31,25,30,23,,,,,,2.5,1.4,2.1*3E
$GPRMC,111942.000,A,6538.4709,N,01654.4897,W,1.34,256.10,030912,,,A*7B
$GPGGA,111943.000,6538.4708,N,01654.4909,W,1,07,1.4,305.0,M,59.9,M,,0000*41
$GPGSA,A,3,02,29,12,31,25,30,23,,,,,,2.5,1.4,2.1*3E
$GPRMC,111943.000,A,6538.4708,N,01654.4909,W,1.68,259.00,030912,,,A*7A
$GPGGA,111944.000,6538.4707,N,01654.4922,W,1,07,1.4,304.9,M,59.9,M,,0000*48
$GPGSA,A,3,02,29,12,31,25,30,23,,,,,,2.5,1.4,2.1*3E
$GPRMC,111944.000,A,6538.4707,N,01654.4922,W,1.92,261.21,030912,,,A*76
$GPGGA,111945.000,6538.4706,N,01654.4937,W,1,07,1.4,304.9,M,59.9,M,,0000*4C
$GPGSA,A,3,02,29,12,31,25,30,23,,,,,,2.5,1.4,2.1*3E
$GPGSV,3,1,12,31,66,218,34,29,60,131,42,25,48,103,34,30,33,260,26*73
$GPGSV,3,2,12,02,27,045,33,23,24,324,35,12,12,089,32,10,11,026,35*7A
$GPGSV,3,3,12,16,06,260,25,04,06,008,21,13,03,348,,20,02,299,29*76
$GPRMC,111945.000,A,6538.4706,N,01654.4937,W,2.09,264.65,030912,,,A*76
$GPGGA,111946.000,6538.4706,N,01654.4949,W,1,07,1.4,304.8,M,59.9,M,,0000*47
$GPGSA,A,3,02,29,12,31,25,30,23,,,,,,2.5,1.4,2.1*3E
$GPRMC,111946.000,A,6538.4706,N,01654.4949,W,1.78,271.19,030912,,,A*76
$GPGGA,111947.000,6538.4704,N,01654.4959,W,1,07,1.4,304.8,M,59.9,M,,0000*45
$GPGSA,A,3,02,29,12,31,25,30,23,,,,,,2.5,1.4,2.1*3E
$GPRMC,111947.000,A,6538.4704,N,01654.4959,W,1.44,252.64,030912,,,A*70
$GPGGA,111948.000,6538.4703,N,01654.4964,W,1,07,1.4,304.8,M,59.9,M,,0000*43
$GPGSA,A,3,02,29,12,31,25,30,23,,,,,,2.5,1.4,2.1*3E
$GPRMC,111951.000,A,6538.4706,N,01654.4963,W,1.05,29.74,030912,,,A*46
$GPGGA,111952.000,6538.4711,N,01654.4959,W,1,07,1.4,305.3,M,59.9,M,,0000*4F
$GPGSA,A,3,02,29,12,31,25,30,23,,,,,,2.5,1.4,2.1*3E
$GPRMC,111952.000,A,6538.4711,N,01654.4959,W,1.97,17.53,030912,,,A*49
$GPGGA,111953.000,6538.4720,N,01654.4959,W,1,07,1.4,305.5,M,59.9,M,,0000*4A
$GPGSA,A,3,02,29,12,31,25,30,23,,,,,,2.5,1.4,2.1*3E
$GPRMC,111953.000,A,6538.4720,N,01654.4959,W,3.39,2.02,030912,,,A*7C
$GPGGA,111954.000,6538.4730,N,01654.4961,W,1,07,1.4,305.7,M,59.9,M,,0000*45
$GPGSA,A,3,02,29,12,31,25,30,23,,,,,,2.5,1.4,2.1*3E
$GPRMC,111954.000,A,6538.4730,N,01654.4961,W,3.70,355.43,030912,,,A*78
$GPGGA,111955.000,6538.4740,N,01654.4965,W,1,07,1.4,305.9,M,59.9,M,,0000*49
$GPGSA,A,3,02,29,12,31,25,30,23,,,,,,2.5,1.4,2.1*3E
$GPGSV,3,1,12,31,66,217,28,29,60,131,42,25,48,103,43,30,33,260,35*73
$GPGSV,3,2,12,02,27,045,25,23,24,323,31,12,12,089,22,10,11,026,31*7B
$GPGSV,3,3,12,16,06,260,31,04,05,007,29,13,03,348,,20,02,299,30*7F
$GPRMC,111955.000,A,6538.4740,N,01654.4965,W,3.58,350.19,030912,,,A*7A
$GPGGA,111956.000,6538.4750,N,01654.4969,W,1,07,1.4,306.0,M,59.9,M,,0000*4D
$GPGSA,A,3,02,29,12,31,25,30,23,,,,,,2.5,1.4,2.1*3E
$GPRMC,111956.000,A,6538.4750,N,01654.4969,W,3.72,350.87,030912,,,A*7B
$GPGGA,111957.000,6538.4761,N,01654.4973,W,1,07,1.4,306.1,M,59.9,M,,0000*44
$GPGSA,A,3,02,29,12,31,25,30,23,,,,,,2.5,1.4,2.1*3E
$GPRMC,111957.000,A,6538.4761,N,01654.4973,W,4.12,351.68,030912,,,A*72
$GPGGA,111958.000,6538.4773,N,01654.4978,W,1,07,1.4,306.2,M,59.9,M,,0000*40
$GPGSA,A,3,02,29,12,31,25,30,23,,,,,,2.5,1.4,2.1*3E
$GPRMC,111958.000,A,6538.4773,N,01654.4978,W,4.73,350.68,030912,,,A*73
$GPGGA,111959.000,6538.4788,N,01654.4985,W,1,07,1.4,306.3,M,59.9,M,,0000*46
$GPGSA,A,3,02,29,12,31,25,30,23,,,,,,2.5,1.4,2.1*3E
$GPRMC,111959.000,A,6538.4788,N,01654.4985,W,5.48,349.72,030912,,,A*7E
$GPGGA,112000.000,6538.4805,N,01654.4991,W,1,07,1.4,306.6,M,59.9,M,,0000*4A
$GPGSA,A,3,02,29,12,31,25,30,23,,,,,,2.5,1.4,2.1*3E
$GPGSV,3,1,12,31,66,217,28,29,60,131,42,25,48,103,43,30,33,260,31*77
$GPGSV,3,2,12,02,27,045,31,23,24,323,36,12,12,089,32,10,11,026,23*7B
$GPGSV,3,3,12,16,06,260,30,04,05,007,20,13,03,348,,20,02,299,33*74
$GPRMC,112000.000,A,6538.4805,N,01654.4991,W,6.14,350.45,030912,,,A*71
$GPGGA,112001.000,6538.4822,N,01654.4997,W,1,07,1.4,306.9,M,59.9,M,,0000*47
$GPGSA,A,3,02,29,12,31,25,30,23,,,,,,2.5,1.4,2.1*3E
$GPRMC,112001.000,A,6538.4822,N,01654.4997,W,6.18,350.90,030912,,,A*77
$GPGGA,112002.000,6538.4841,N,01654.5003,W,1,07,1.4,307.4,M,59.9,M,,0000*48
$GPGSA,A,3,02,29,12,31,25,30,23,,,,,,2.5,1.4,2.1*3E
$GPRMC,112002.000,A,6538.4841,N,01654.5003,W,6.82,350.47,030912,,,A*7D
$GPGGA,112003.000,6538.4862,N,01654.5011,W,1,06,1.4,307.9,M,59.9,M,,0000*47
$GPGSA,A,3,02,29,12,25,30,23,,,,,,,2.7,1.4,2.3*3C
$GPRMC,112003.000,A,6538.4862,N,01654.5011,W,7.57,350.66,030912,,,A*74
$GPGGA,112004.000,6538.4885,N,01654.5018,W,1,06,1.4,308.4,M,59.9,M,,0000*42
$GPGSA,A,3,02,29,12,25,30,23,,,,,,,2.7,1.4,2.3*3C
$GPRMC,112004.000,A,6538.4885,N,01654.5018,W,8.15,350.88,030912,,,A*7A
$GPGGA,112005.000,6538.4910,N,01654.5026,W,1,06,1.4,308.9,M,59.9,M,,0000*4E
$GPGSA,A,3,02,29,12,25,30,23,,,,,,,2.7,1.4,2.3*3C
$GPGSV,3,1,12,31,66,217,,29,60,131,42,25,48,103,43,30,33,260,30*7C
$GPGSV,3,2,12,02,27,045,31,23,24,323,37,12,12,089,23,10,11,026,25*7C
$GPGSV,3,3,12,16,06,260,28,04,05,007,31,13,03,348,32,20,02,299,34*7B
$GPRMC,112005.000,A,6538.4910,N,01654.5026,W,8.66,351.14,030912,,,A*7B
$GPGGA,112006.000,6538.4935,N,01654.5034,W,1,06,1.4,309.4,M,59.9,M,,0000*45
$GPGSA,A,3,02,29,12,25,30,23,,,,,,,2.7,1.4,2.3*3C
$GPRMC,112006.000,A,6538.4935,N,01654.5034,W,9.09,351.38,030912,,,A*7A
$GPGGA,112007.000,6538.4962,N,01654.5042,W,1,06,1.4,309.9,M,59.9,M,,0000*4A
$GPGSA,A,3,02,29,12,25,30,23,,,,,,,2.7,1.4,2.3*3C
$GPRMC,112007.000,A,6538.4962,N,01654.5042,W,9.44,351.60,030912,,,A*7C
$GPGGA,112008.000,6538.4989,N,01654.5050,W,1,06,1.4,310.4,M,59.9,M,,0000*46
$GPGSA,A,3,02,29,12,25,30,23,,,,,,,2.7,1.4,2.3*3C
$GPRMC,112008.000,A,6538.4989,N,01654.5050,W,9.53,351.56,030912,,,A*76
$GPGGA,112009.000,6538.5016,N,01654.5059,W,1,06,1.4,310.9,M,59.9,M,,0000*4D
$GPGSA,A,3,02,29,12,25,30,23,,,,,,,2.7,1.4,2.3*3C
$GPRMC,112009.000,A,6538.5016,N,01654.5059,W,9.69,351.34,030912,,,A*7D
$GPGGA,112010.000,6538.5044,N,01654.5068,W,1,06,1.4,311.4,M,59.9,M,,0000*4C
$GPGSA,A,3,02,29,12,25,30,23,,,,,,,2.7,1.4,2.3*3C
$GPGSV,3,1,12,31,66,217,,29,60,131,42,25,48,103,43,30,33,260,30*7C
$GPGSV,3,2,12,02,27,045,32,23,24,323,37,12,12,089,24,10,11,026,31*7D
$GPGSV,3,3,12,16,06,260,34,04,05,007,23,13,03,348,31,20,02,299,34*76
$GPRMC,112010.000,A,6538.5044,N,01654.5068,W,10.08,350.91,030912,,,A*41
$GPGGA,112011.000,6538.5074,N,01654.5078,W,1,06,1.4,311.8,M,59.9,M,,0000*43
$GPGSA,A,3,02,29,12,25,30,23,,,,,,,2.7,1.4,2.3*3C
$GPRMC,112011.000,A,6538.5074,N,01654.5078,W,10.59,351.65,030912,,,A*4C
$GPGGA,112012.000,6538.5103,N,01654.5088,W,1,06,1.4,312.1,M,59.9,M,,0000*44
$GPGSA,A,3,02,29,12,25,30,23,,,,,,,2.7,1.4,2.3*3C
$GPRMC,112012.000,A,6538.5103,N,01654.5088,W,10.51,350.55,030912,,,A*4B
$GPGGA,112013.000,6538.5132,N,01654.5099,W,1,06,1.4,312.4,M,59.9,M,,0000*42
$GPGSA,A,3,02,29,12,25,30,23,,,,,,,2.7,1.4,2.3*3C
$GPRMC,112013.000,A,6538.5132,N,01654.5099,W,10.39,350.19,030912,,,A*4E
$GPGGA,112014.000,6538.5161,N,01654.5110,W,1,06,1.4,312.7,M,59.9,M,,0000*40
$GPGSA,A,3,02,29,12,25,30,23,,,,,,,2.7,1.4,2.3*3C
$GPRMC,112014.000,A,6538.5161,N,01654.5110,W,10.25,350.17,030912,,,A*4C
$GPGGA,112015.000,6538.5189,N,01654.5121,W,1,06,1.4,313.0,M,59.9,M,,0000*43
$GPGSA,A,3,02,29,12,25,30,23,,,,,,,2.7,1.4,2.3*3C
$GPGSV,3,1,12,31,66,217,,29,60,131,42,25,48,103,43,30,33,260,25*78
$GPGSV,3,2,12,02,27,045,32,23,24,323,38,12,12,089,36,10,11,026,25*74
$GPGSV,3,3,12,16,06,260,30,04,05,007,27,13,03,348,30,20,02,299,35*76
$GPRMC,112015.000,A,6538.5189,N,01654.5121,W,10.03,349.82,030912,,,A*49
$GPGGA,112016.000,6538.5216,N,01654.5132,W,1,06,1.4,313.1,M,59.9,M,,0000*46
$GPGSA,A,3,02,29,12,25,30,23,,,,,,,2.7,1.4,2.3*3C
$GPRMC,112016.000,A,6538.5216,N,01654.5132,W,9.74,349.60,030912,,,A*79
$GPGGA,112017.000,6538.5242,N,01654.5143,W,1,06,1.4,313.2,M,59.9,M,,0000*43
$GPGSA,A,3,02,29,12,25,30,23,,,,,,,2.7,1.4,2.3*3C
$GPRMC,112017.000,A,6538.5242,N,01654.5143,W,9.66,350.52,030912,,,A*75
$GPGGA,112018.000,6538.5269,N,01654.5152,W,1,06,1.4,313.3,M,59.9,M,,0000*44
$GPGSA,A,3,02,29,12,25,30,23,,,,,,,2.7,1.4,2.3*3C
$GPRMC,112018.000,A,6538.5269,N,01654.5152,W,9.57,351.12,030912,,,A*74
$GPGGA,112019.000,6538.5295,N,01654.5160,W,1,06,1.4,313.3,M,59.9,M,,0000*47
$GPGSA,A,3,02,29,12,25,30,23,,,,,,,2.7,1.4,2.3*3C
$GPRMC,112019.000,A,6538.5295,N,01654.5160,W,9.55,353.09,030912,,,A*7D
$GPGGA,112020.000,6538.5321,N,01654.5168,W,1,06,1.4,313.2,M,59.9,M,,0000*4A
$GPGSA,A,3,02,29,12,25,30,23,,,,,,,2.7,1.4,2.3*3C
$GPGSV,3,1,12,31,66,217,,29,60,131,42,25,48,103,43,30,33,260,28*75
$GPGSV,3,2,12,02,27,045,33,23,24,323,38,12,12,089,31,10,11,025,24*70
$GPGSV,3,3,12,16,06,260,36,04,05,007,31,13,03,348,30,20,02,299,30*72
$GPRMC,112020.000,A,6538.5321,N,01654.5168,W,9.27,353.35,030912,,,A*7B
$GPGGA,112021.000,6538.5345,N,01654.5176,W,1,06,1.4,313.1,M,59.9,M,,0000*45
$GPGSA,A,3,02,29,12,25,30,23,,,,,,,2.7,1.4,2.3*3C
$GPRMC,112021.000,A,6538.5345,N,01654.5176,W,8.92,352.32,030912,,,A*7E
$GPGGA,112022.000,6538.5369,N,01654.5185,W,1,06,1.4,312.9,M,59.9,M,,0000*4D
$GPGSA,A,3,02,29,12,25,30,23,,,,,,,2.7,1.4,2.3*3C
$GPRMC,112022.000,A,6538.5369,N,01654.5185,W,8.67,351.84,030912,,,A*7B
$GPGGA,112023.000,6538.5390,N,01654.5193,W,1,06,1.4,312.6,M,59.9,M,,0000*42
$GPGSA,A,3,02,29,12,25,30,23,,,,,,,2.7,1.4,2.3*3C
$GPRMC,112023.000,A,6538.5390,N,01654.5193,W,7.90,351.39,030912,,,A*7A
$GPGGA,112024.000,6538.5409,N,01654.5202,W,1,06,1.4,312.4,M,59.9,M,,0000*4B
$GPGSA,A,3,02,29,12,25,30,23,,,,,,,2.7,1.4,2.3*3C
$GPRMC,112024.000,A,6538.5409,N,01654.5202,W,6.74,350.05,030912,,,A*74
$GPGGA,112025.000,6538.5424,N,01654.5215,W,1,06,1.4,312.1,M,59.9,M,,0000*46
$GPGSA,A,3,02,29,12,25,30,23,,,,,,,2.7,1.4,2.3*3C
$GPGSV,3,1,12,31,66,217,,29,60,131,42,25,48,103,42,30,33,260,32*7F
$GPGSV,3,2,12,02,27,045,31,23,24,323,34,12,12,089,27,10,11,025,33*7F
$GPGSV,3,3,12,16,06,260,27,04,05,007,33,13,03,348,29,20,02,299,31*79
$GPRMC,112025.000,A,6538.5424,N,01654.5215,W,5.95,341.38,030912,,,A*7E
$GPGGA,112026.000,6538.5438,N,01654.5238,W,1,06,1.4,311.8,M,59.9,M,,0000*4D
$GPGSA,A,3,02,29,12,25,30,23,,,,,,,2.7,1.4,2.3*3C
$GPRMC,112026.000,A,6538.5438,N,01654.5238,W,5.88,325.60,030912,,,A*7C
$GPGGA,112027.000,6538.5449,N,01654.5271,W,1,06,1.4,311.5,M,59.9,M,,0000*4A
$GPGSA,A,3,02,29,12,25,30,23,,,,,,,2.7,1.4,2.3*3C
$GPRMC,112027.000,A,6538.5449,N,01654.5271,W,6.33,309.65,030912,,,A*7E
$GPGGA,112028.000,6538.5457,N,01654.5313,W,1,06,1.4,311.3,M,59.9,M,,0000*49
$GPGSA,A,3,02,29,12,25,30,23,,,,,,,2.7,1.4,2.3*3C
$GPRMC,112028.000,A,6538.5457,N,01654.5313,W,6.76,293.47,030912,,,A*78
$GPGGA,112029.000,6538.5459,N,01654.5361,W,1,06,1.4,311.0,M,59.9,M,,0000*40
$GPGSA,A,3,02,29,12,25,30,23,,,,,,,2.7,1.4,2.3*3C
$GPRMC,112029.000,A,6538.5459,N,01654.5361,W,7.09,276.60,030912,,,A*75
$GPGGA,112030.000,6538.5456,N,01654.5414,W,1,06,1.4,310.7,M,59.9,M,,0000*44
$GPGSA,A,3,02,29,12,25,30,23,,,,,,,2.7,1.4,2.3*3C
$GPGSV,3,1,12,31,66,217,,29,60,131,30,25,48,103,30,30,33,260,32*7F
$GPGSV,3,2,12,02,27,045,32,23,24,323,33,12,12,089,31,10,11,025,31*7E
$GPGSV,3,3,12,16,06,260,27,04,05,007,30,13,03,348,25,20,02,299,28*7E
$GPRMC,112030.000,A,6538.5456,N,01654.5414,W,7.80,262.93,030912,,,A*7F
$GPGGA,112031.000,6538.5449,N,01654.5470,W,1,06,1.4,310.4,M,59.9,M,,0000*4A
$GPGSA,A,3,02,29,12,25,30,23,,,,,,,2.7,1.4,2.3*3C
$GPRMC,112031.000,A,6538.5449,N,01654.5470,W,8.59,253.13,030912,,,A*73
$GPGGA,112032.000,6538.5440,N,01654.5530,W,1,06,1.4,310.1,M,59.9,M,,0000*40
$GPGSA,A,3,02,29,12,25,30,23,,,,,,,2.7,1.4,2.3*3C
$GPRMC,112032.000,A,6538.5440,N,01654.5530,W,9.29,249.24,030912,,,A*75
$GPGGA,112033.000,6538.5430,N,01654.5593,W,1,06,1.4,309.7,M,59.9,M,,0000*41
$GPGSA,A,3,02,29,12,25,30,23,,,,,,,2.7,1.4,2.3*3C
$GPRMC,112033.000,A,6538.5430,N,01654.5593,W,9.85,247.47,030912,,,A*77
$GPGGA,112034.000,6538.5419,N,01654.5658,W,1,06,1.4,309.4,M,59.9,M,,0000*4A
$GPGSA,A,3,02,29,12,25,30,23,,,,,,,2.7,1.4,2.3*3C
$GPRMC,112034.000,A,6538.5419,N,01654.5658,W,10.19,247.65,030912,,,A*42
$GPGGA,112035.000,6538.5408,N,01654.5723,W,1,06,1.4,309.1,M,59.9,M,,0000*43
$GPGSA,A,3,02,29,12,25,30,23,,,,,,,2.7,1.4,2.3*3C
$GPGSV,3,1,12,31,66,217,,29,60,131,32,25,48,103,31,30,33,260,27*78
$GPGSV,3,2,12,02,27,045,29,23,24,323,27,12,12,089,30,10,11,025,37*76
$GPGSV,3,3,12,16,06,260,29,04,05,007,36,13,03,348,25,20,02,299,29*77
$GPRMC,112035.000,A,6538.5408,N,01654.5723,W,10.24,246.04,030912,,,A*46
$GPGGA,112036.000,6538.5397,N,01654.5790,W,1,06,1.4,308.8,M,59.9,M,,0000*41
$GPGSA,A,3,02,29,12,25,30,23,,,,,,,2.7,1.4,2.3*3C
$GPRMC,112036.000,A,6538.5397,N,01654.5790,W,10.39,247.72,030912,,,A*40
$GPGGA,112037.000,6538.5386,N,01654.5857,W,1,06,1.4,308.5,M,59.9,M,,0000*49
$GPGSA,A,3,02,29,12,25,30,23,,,,,,,2.7,1.4,2.3*3C
$GPRMC,112037.000,A,6538.5386,N,01654.5857,W,10.36,248.27,030912,,,A*45
$GPGGA,112038.000,6538.5375,N,01654.5925,W,1,06,1.4,308.3,M,59.9,M,,0000*48
$GPGSA,A,3,02,29,12,25,30,23,,,,,,,2.7,1.4,2.3*3C
$GPRMC,112038.000,A,6538.5375,N,01654.5925,W,10.54,246.73,030912,,,A*49
$GPGGA,112039.000,6538.5364,N,01654.5994,W,1,06,1.4,308.1,M,59.9,M,,0000*41
$GPGSA,A,3,02,29,12,25,30,23,,,,,,,2.7,1.4,2.3*3C
$GPRMC,112039.000,A,6538.5364,N,01654.5994,W,10.79,248.14,030912,,,A*42
$GPGGA,112040.000,6538.5354,N,01654.6065,W,1,06,1.4,307.9,M,59.9,M,,0000*4F
$GPGSA,A,3,02,29,12,25,30,23,,,,,,,2.7,1.4,2.3*3C
$GPGSV,3,1,12,31,66,217,,29,60,131,31,25,48,103,32,30,33,260,30*7E
$GPGSV,3,2,12,02,27,045,29,23,24,323,26,12,12,089,30,10,11,025,37*77
$GPGSV,3,3,12,16,06,260,29,04,05,007,39,13,03,348,,20,02,299,30*77
$GPRMC,112040.000,A,6538.5354,N,01654.6065,W,10.86,248.63,030912,,,A*4B
$GPGGA,112041.000,6538.5342,N,01654.6136,W,1,06,1.8,307.7,M,59.9,M,,0000*4C
$GPGSA,A,3,02,29,12,31,25,30,,,,,,,2.8,1.8,2.1*3E
$GPRMC,112041.000,A,6538.5342,N,01654.6136,W,11.04,248.12,030912,,,A*47
$GPGGA,112042.000,6538.5331,N,01654.6205,W,1,07,1.4,307.6,M,59.9,M,,0000*44
$GPGSA,A,3,02,29,12,31,25,30,23,,,,,,2.5,1.4,2.1*3E
$GPRMC,112042.000,A,6538.5331,N,01654.6205,W,10.63,247.78,030912,,,A*40
$GPGGA,112043.000,6538.5321,N,01654.6271,W,1,07,1.4,307.5,M,59.9,M,,0000*44
$GPGSA,A,3,02,29,12,31,25,30,23,,,,,,2.5,1.4,2.1*3E
$GPRMC,112043.000,A,6538.5321,N,01654.6271,W,10.26,249.21,030912,,,A*40
$GPGGA,112044.000,6538.5312,N,01654.6337,W,1,07,1.4,307.4,M,59.9,M,,0000*41
$GPGSA,A,3,02,29,12,31,25,30,23,,,,,,2.5,1.4,2.1*3E
$GPRMC,112044.000,A,6538.5312,N,01654.6337,W,10.15,250.29,030912,,,A*44
$GPGGA,112045.000,6538.5303,N,01654.6398,W,1,07,1.4,307.5,M,59.9,M,,0000*44
$GPGSA,A,3,02,29,12,31,25,30,23,,,,,,2.5,1.4,2.1*3E
$GPGSV,3,1,12,31,66,217,41,29,60,131,33,25,48,103,23,30,33,260,27*7F
$GPGSV,3,2,12,02,27,045,30,23,24,323,30,12,12,089,20,10,11,025,37*79
$GPGSV,3,3,12,16,06,260,29,04,05,007,39,13,03,348,,20,02,299,22*74
$GPRMC,112045.000,A,6538.5303,N,01654.6398,W,9.40,249.92,030912,,,A*70
$GPGGA,112046.000,6538.5295,N,01654.6458,W,1,07,1.4,307.8,M,59.9,M,,0000*4F
$GPGSA,A,3,02,29,12,31,25,30,23,,,,,,2.5,1.4,2.1*3E
$GPRMC,112046.000,A,6538.5295,N,01654.6458,W,9.31,249.42,030912,,,A*7D
$GPGGA,112047.000,6538.5285,N,01654.6515,W,1,07,1.4,308.2,M,59.9,M,,0000*42
$GPGSA,A,3,02,29,12,31,25,30,23,,,,,,2.5,1.4,2.1*3E
$GPRMC,112047.000,A,6538.5285,N,01654.6515,W,9.07,245.74,030912,,,A*79
$GPGGA,112048.000,6538.5273,N,01654.6565,W,1,07,1.4,308.6,M,59.9,M,,0000*47
$GPGSA,A,3,02,29,12,31,25,30,23,,,,,,2.5,1.4,2.1*3E
$GPRMC,112048.000,A,6538.5273,N,01654.6565,W,8.60,237.00,030912,,,A*7E
$GPGGA,112049.000,6538.5258,N,01654.6604,W,1,07,1.4,309.0,M,59.9,M,,0000*4C
$GPGSA,A,3,02,29,12,31,25,30,23,,,,,,2.5,1.4,2.1*3E
$GPRMC,112049.000,A,6538.5258,N,01654.6604,W,7.75,226.57,030912,,,A*7B
$GPGGA,112050.000,6538.5242,N,01654.6630,W,1,07,1.4,309.6,M,59.9,M,,0000*4E
$GPGSA,A,3,02,29,12,31,25,30,23,,,,,,2.5,1.4,2.1*3E
$GPGSV,3,1,12,31,66,216,34,29,60,130,37,25,47,103,30,30,33,260,33*71
$GPGSV,3,2,12,02,27,044,30,23,24,323,37,12,11,089,32,10,11,025,22*7B
$GPGSV,3,3,12,16,06,260,31,04,05,007,33,13,03,348,,20,02,299,29*7C
$GPRMC,112050.000,A,6538.5242,N,01654.6630,W,7.12,210.36,030912,,,A*7C
$GPGGA,112051.000,6538.5224,N,01654.6645,W,1,07,1.4,310.0,M,59.9,M,,0000*43
$GPGSA,A,3,02,29,12,31,25,30,23,,,,,,2.5,1.4,2.1*3E
$GPRMC,112051.000,A,6538.5224,N,01654.6645,W,6.86,197.47,030912,,,A*79
$GPGGA,112052.000,6538.5206,N,01654.6654,W,1,07,1.4,310.4,M,59.9,M,,0000*44
$GPGSA,A,3,02,29,12,31,25,30,23,,,,,,2.5,1.4,2.1*3E
$GPRMC,112052.000,A,6538.5206,N,01654.6654,W,6.73,189.42,030912,,,A*7A
$GPGGA,112053.000,6538.5189,N,01654.6660,W,1,07,1.4,310.8,M,59.9,M,,0000*4A
$GPGSA,A,3,02,29,12,31,25,30,23,,,,,,2.5,1.4,2.1*3E
$GPRMC,112053.000,A,6538.5189,N,01654.6660,W,6.25,185.77,030912,,,A*71
$GPGGA,112054.000,6538.5175,N,01654.6662,W,1,07,1.4,311.1,M,59.9,M,,0000*44
$GPGSA,A,3,02,29,12,31,25,30,23,,,,,,2.5,1.4,2.1*3E
$GPRMC,112054.000,A,6538.5175,N,01654.6662,W,5.36,181.17,030912,,,A*74
$GPGGA,112055.000,6538.5164,N,01654.6660,W,1,07,1.4,311.3,M,59.9,M,,0000*45
$GPGSA,A,3,02,29,12,31,25,30,23,,,,,,2.5,1.4,2.1*3E
$GPGSV,3,1,12,31,66,216,43,29,60,130,36,25,47,103,28,30,33,260,25*7E
$GPGSV,3,2,12,02,27,044,36,23,24,323,25,12,11,089,34,10,11,025,30*7B
$GPGSV,3,3,12,16,06,260,24,04,05,007,22,13,03,348,,20,02,299,30*70
$GPRMC,112055.000,A,6538.5164,N,01654.6660,W,4.19,171.95,030912,,,A*7E
$GPGGA,112056.000,6538.5156,N,01654.6659,W,1,07,1.4,311.4,M,59.9,M,,0000*4A
$GPGSA,A,3,02,29,12,31,25,30,23,,,,,,2.5,1.4,2.1*3E
$GPRMC,112056.000,A,6538.5156,N,01654.6659,W,2.66,171.05,030912,,,A*71
$GPGGA,112057.000,6538.5152,N,01654.6660,W,1,06,2.4,311.4,M,59.9,M,,0000*47
$GPGSA,A,3,02,29,31,25,30,23,,,,,,,5.6,2.4,5.1*3D
$GPRMC,112057.000,A,6538.5152,N,01654.6660,W,1.49,171.73,030912,,,A*71
$GPGGA,112058.000,6538.5147,N,01654.6660,W,1,07,1.4,311.3,M,59.9,M,,0000*49
$GPGSA,A,3,02,29,12,31,25,30,23,,,,,,2.5,1.4,2.1*3E
$GPRMC,112058.000,A,6538.5147,N,01654.6660,W,1.59,169.63,030912,,,A*73
$GPGGA,112059.000,6538.5139,N,01654.6658,W,1,07,1.4,311.0,M,59.9,M,,0000*49
$GPGSA,A,3,02,29,12,31,25,30,23,,,,,,2.5,1.4,2.1*3E
$GPRMC,112059.000,A,6538.5139,N,01654.6658,W,2.51,166.97,030912,,,A*7F
$GPGGA,112100.000,6538.5128,N,01654.6655,W,1,07,1.4,310.7,M,59.9,M,,0000*4F
$GPGSA,A,3,02,29,12,31,25,30,23,,,,,,2.5,1.4,2.1*3E
$GPGSV,3,1,12,31,66,216,44,29,60,130,38,25,47,103,37,30,33,260,32*7F
$GPGSV,3,2,12,02,27,044,27,23,24,323,30,12,11,089,24,10,11,025,22*7D
$GPGSV,3,3,12,16,06,260,30,04,05,007,23,13,03,348,,20,02,299,25*70
$GPRMC,112100.000,A,6538.5128,N,01654.6655,W,3.75,166.54,030912,,,A*77
$GPGGA,112101.000,6538.5115,N,01654.6650,W,1,07,1.4,310.3,M,59.9,M,,0000*41
$GPGSA,A,3,02,29,12,31,25,30,23,,,,,,2.5,1.4,2.1*3E
$GPRMC,112101.000,A,6538.5115,N,01654.6650,W,4.46,166.08,030912,,,A*73
$GPGGA,112102.000,6538.5101,N,01654.6643,W,1,07,1.4,309.9,M,59.9,M,,0000*47
$GPGSA,A,3,02,29,12,31,25,30,23,,,,,,2.5,1.4,2.1*3E
$GPRMC,112102.000,A,6538.5101,N,01654.6643,W,5.09,164.13,030912,,,A*75
$GPGGA,112103.000,6538.5085,N,01654.6634,W,1,07,1.4,309.7,M,59.9,M,,0000*45
$GPGSA,A,3,02,29,12,31,25,30,23,,,,,,2.5,1.4,2.1*3E
$GPRMC,112103.000,A,6538.5085,N,01654.6634,W,5.41,162.63,030912,,,A*74
$GPGGA,112104.000,6538.5071,N,01654.6618,W,1,07,1.4,309.4,M,59.9,M,,0000*44
$GPGSA,A,3,02,29,12,31,25,30,23,,,,,,2.5,1.4,2.1*3E
$GPRMC,112104.000,A,6538.5071,N,01654.6618,W,5.71,151.15,030912,,,A*74
$GPGGA,112105.000,6538.5057,N,01654.6596,W,1,07,1.4,309.3,M,59.9,M,,0000*43
$GPGSA,A,3,02,29,12,31,25,30,23,,,,,,2.5,1.4,2.1*3E
$GPGSV,3,1,12,31,66,216,33,29,60,130,38,25,47,103,31,30,33,260,43*7F
$GPGSV,3,2,12,02,27,044,36,23,24,323,36,12,11,089,26,10,11,025,29*72
$GPGSV,3,3,12,16,06,260,36,04,05,007,32,13,03,348,,20,02,299,24*77
$GPRMC,112105.000,A,6538.5057,N,01654.6596,W,5.86,142.57,030912,,,A*78
$GPGGA,112106.000,6538.5047,N,01654.6568,W,1,07,1.4,309.2,M,59.9,M,,0000*41
$GPGSA,A,3,02,29,12,31,25,30,23,,,,,,2.5,1.4,2.1*3E
$GPRMC,112106.000,A,6538.5047,N,01654.6568,W,5.75,129.21,030912,,,A*7B
$GPGGA,112107.000,6538.5039,N,01654.6537,W,1,07,1.4,309.0,M,59.9,M,,0000*41
$GPGSA,A,3,02,29,12,31,25,30,23,,,,,,2.5,1.4,2.1*3E
$GPRMC,112107.000,A,6538.5039,N,01654.6537,W,5.44,116.25,030912,,,A*73
$GPGGA,112108.000,6538.5036,N,01654.6505,W,1,07,1.4,308.8,M,59.9,M,,0000*49
$GPGSA,A,3,02,29,12,31,25,30,23,,,,,,2.5,1.4,2.1*3E
$GPRMC,112108.000,A,6538.5036,N,01654.6505,W,4.99,98.60,030912,,,A*45
$GPGGA,112109.000,6538.5038,N,01654.6479,W,1,07,1.4,308.5,M,59.9,M,,0000*41
$GPGSA,A,3,02,29,12,31,25,30,23,,,,,,2.5,1.4,2.1*3E
$GPRMC,112109.000,A,6538.5038,N,01654.6479,W,4.16,77.86,030912,,,A*4E
$GPGGA,112108.000,6538.5038,N,01654.6467,W,1,07,1.4,308.1,M,59.9,M,,0000*4B
$GPGSA,A,3,02,29,12,31,25,30,23,,,,,,2.5,1.4,2.1*3E
$GPGSV,3,1,12,31,66,216,34,29,60,130,42,25,47,103,32,30,33,260,31*73
$GPGSV,3,2,12,02,27,044,30,23,24,323,30,12,11,089,17,10,11,025,25*7C
$GPGSV,3,3,12,16,06,260,26,04,05,007,26,13,03,348,,20,02,299,28*7F
$GPRMC,112108.000,A,6538.5038,N,01654.6467,W,1.91,68.55,030912,,,A*4A
$GPGGA,112109.000,6538.5038,N,01654.6463,W,1,07,1.4,307.9,M,59.9,M,,0000*49
$GPGSA,A,3,02,29,12,31,25,30,23,,,,,,2.5,1.4,2.1*3E
$GPRMC,112114.000,A,6538.5042,N,01654.6446,W,1.08,56.51,030912,,,A*40
$GPGGA,112115.000,6538.5043,N,01654.6442,W,1,06,1.9,308.1,M,59.9,M,,0000*40
$GPGSA,A,3,02,29,12,31,25,23,,,,,,,3.3,1.9,2.7*31
$GPRMC,112121.000,A,6538.5050,N,01654.6420,W,0.84,56.54,030912,,,A*45
$GPGGA,112122.000,6538.5051,N,01654.6417,W,1,07,1.4,311.0,M,59.9,M,,0000*42
$GPGSA,A,3,02,29,12,31,25,30,23,,,,,,2.5,1.4,2.1*3E
$GPRMC,112124.000,A,6538.5055,N,01654.6418,W,0.98,1.24,030912,,,A*76
$GPGGA,112125.000,6538.5060,N,01654.6416,W,1,07,1.4,312.5,M,59.9,M,,0000*40
$GPGSA,A,3,02,29,12,31,25,30,23,,,,,,2.5,1.4,2.1*3E
$GPRMC,112125.000,A,6538.5060,N,01654.6416,W,1.26,9.84,030912,,,A*79
$GPGGA,112126.000,6538.5064,N,01654.6414,W,1,07,1.4,313.4,M,59.9,M,,0000*45
$GPGSA,A,3,02,29,12,31,25,30,23,,,,,,2.5,1.4,2.1*3E
$GPRMC,112126.000,A,6538.5064,N,01654.6414,W,0.98,13.97,030912,,,A*41
$GPGGA,112127.000,6538.5065,N,01654.6415,W,1,07,1.4,314.3,M,59.9,M,,0000*44
$GPGSA,A,3,02,29,12,31,25,30,23,,,,,,2.5,1.4,2.1*3E
$GPRMC,115245.000,A,6538.5038,N,01654.6334,W,1.02,258.91,030912,,,A*75
$GPGGA,115246.000,6538.5037,N,01654.6344,W,1,09,0.9,304.7,M,59.9,M,,0000*44
$GPGSA,A,3,02,29,25,16,31,13,21,30,23,,,,1.7,0.9,1.4*30
$GPRMC,115246.000,A,6538.5037,N,01654.6344,W,1.40,254.28,030912,,,A*76
$GPGGA,115247.000,6538.5036,N,01654.6356,W,1,09,0.9,304.9,M,59.9,M,,0000*49
$GPGSA,A,3,02,29,25,16,31,13,21,30,23,,,,1.7,0.9,1.4*30
$GPRMC,115247.000,A,6538.5036,N,01654.6356,W,1.66,252.79,030912,,,A*73
$GPGGA,115248.000,6538.5035,N,01654.6368,W,1,09,0.9,305.3,M,59.9,M,,0000*43
$GPGSA,A,3,02,29,25,16,31,13,21,30,23,,,,1.7,0.9,1.4*30
$GPGSV,3,1,11,29,60,101,42,31,56,192,46,30,48,260,28,25,33,104,34*7D
$GPGSV,3,2,11,23,29,310,33,02,21,033,27,16,19,264,32,10,16,013,28*74
$GPGSV,3,3,11,13,14,342,31,21,10,148,27,05,03,063,*40
$GPRMC,115248.000,A,6538.5035,N,01654.6368,W,1.65,256.52,030912,,,A*7C
$GPGGA,115249.000,6538.5034,N,01654.6380,W,1,08,1.3,305.8,M,59.9,M,,0000*44
$GPGSA,A,3,02,29,25,16,31,13,30,23,,,,,2.8,1.3,2.5*36
$GPRMC,115249.000,A,6538.5034,N,01654.6380,W,1.59,253.84,030912,,,A*7B
$GPGGA,115250.000,6538.5033,N,01654.6391,W,1,09,0.9,306.2,M,59.9,M,,0000*48
$GPGSA,A,3,02,29,25,16,31,13,21,30,23,,,,1.7,0.9,1.4*30
$GPRMC,115250.000,A,6538.5033,N,01654.6391,W,1.60,247.08,030912,,,A*7F
$GPGGA,115251.000,6538.5031,N,01654.6402,W,1,09,0.9,306.7,M,59.9,M,,0000*43
$GPGSA,A,3,02,29,25,16,31,13,21,30,23,,,,1.7,0.9,1.4*30
$GPRMC,115251.000,A,6538.5031,N,01654.6402,W,1.58,240.23,030912,,,A*74
$GPGGA,115252.000,6538.5030,N,01654.6407,W,1,09,0.9,307.3,M,59.9,M,,0000*41
$GPGSA,A,3,02,29,25,16,31,13,21,30,23,,,,1.7,0.9,1.4*30
$GPRMC,115254.000,A,6538.5034,N,01654.6408,W,1.06,25.39,030912,,,A*4F
$GPGGA,115255.000,6538.5039,N,01654.6406,W,1,09,0.9,308.7,M,59.9,M,,0000*45
$GPGSA,A,3,02,29,25,16,31,13,21,30,23,,,,1.7,0.9,1.4*30
$GPRMC,115255.000,A,6538.5039,N,01654.6406,W,2.03,16.22,030912,,,A*41
$GPGGA,115256.000,6538.5045,N,01654.6408,W,1,09,0.9,309.1,M,59.9,M,,0000*44
$GPGSA,A,3,02,29,25,16,31,13,21,30,23,,,,1.7,0.9,1.4*30
$GPRMC,115256.000,A,6538.5045,N,01654.6408,W,2.16,0.82,030912,,,A*7E
$GPGGA,115257.000,6538.5051,N,01654.6412,W,1,09,0.9,309.5,M,59.9,M,,0000*4F
$GPGSA,A,3,02,29,25,16,31,13,21,30,23,,,,1.7,0.9,1.4*30
$GPRMC,115257.000,A,6538.5051,N,01654.6412,W,2.00,349.95,030912,,,A*7E
$GPGGA,115258.000,6538.5058,N,01654.6417,W,1,09,0.9,309.8,M,59.9,M,,0000*41
$GPGSA,A,3,02,29,25,16,31,13,21,30,23,,,,1.7,0.9,1.4*30
$GPGSV,3,1,11,29,60,101,41,31,56,192,32,30,48,260,39,25,33,104,39*70
$GPGSV,3,2,11,23,29,310,35,02,21,033,33,16,19,264,28,10,16,013,30*75
$GPGSV,3,3,11,13,14,342,30,21,10,148,25,05,03,063,*43
$GPRMC,115258.000,A,6538.5058,N,01654.6417,W,2.36,347.14,030912,,,A*7F
$GPGGA,115259.000,6538.5067,N,01654.6424,W,1,08,1.0,310.0,M,59.9,M,,0000*45
$GPGSA,A,3,02,29,25,31,13,21,30,23,,,,,1.8,1.0,1.6*32
$GPRMC,115259.000,A,6538.5067,N,01654.6424,W,3.30,345.47,030912,,,A*71
$GPGGA,115300.000,6538.5077,N,01654.6429,W,1,09,0.9,310.3,M,59.9,M,,0000*4E
$GPGSA,A,3,02,29,25,16,31,13,21,30,23,,,,1.7,0.9,1.4*30
$GPRMC,115300.000,A,6538.5077,N,01654.6429,W,3.63,350.64,030912,,,A*73
$GPGGA,115301.000,6538.5087,N,01654.6435,W,1,09,0.9,310.6,M,59.9,M,,0000*48
$GPGSA,A,3,02,29,25,16,31,13,21,30,23,,,,1.7,0.9,1.4*30
$GPRMC,115301.000,A,6538.5087,N,01654.6435,W,3.78,349.52,030912,,,A*77
$GPGGA,115302.000,6538.5098,N,01654.6442,W,1,09,0.9,310.9,M,59.9,M,,0000*4A
$GPGSA,A,3,02,29,25,16,31,13,21,30,23,,,,1.7,0.9,1.4*30
$GPRMC,115302.000,A,6538.5098,N,01654.6442,W,4.10,347.24,030912,,,A*7C
$GPGGA,115303.000,6538.5112,N,01654.6451,W,1,09,0.9,311.1,M,59.9,M,,0000*43
$GPGSA,A,3,02,29,25,16,31,13,21,30,23,,,,1.7,0.9,1.4*30
$GPGSV,3,1,11,29,60,101,43,31,56,192,32,30,48,260,33,25,33,104,41*77
$GPGSV,3,2,11,23,29,310,33,02,21,033,31,16,19,264,30,10,16,013,31*79
$GPGSV,3,3,11,13,14,342,27,21,10,148,26,05,03,063,*46
$GPRMC,115303.000,A,6538.5112,N,01654.6451,W,5.12,347.82,030912,,,A*73
$GPGGA,115304.000,6538.5128,N,01654.6460,W,1,09,0.9,311.4,M,59.9,M,,0000*4A
$GPGSA,A,3,02,29,25,16,31,13,21,30,23,,,,1.7,0.9,1.4*30
$GPRMC,115304.000,A,6538.5128,N,01654.6460,W,5.71,347.47,030912,,,A*73
$GPGGA,115305.000,6538.5143,N,01654.6470,W,1,09,0.9,311.6,M,59.9,M,,0000*45
$GPGSA,A,3,02,29,25,16,31,13,21,30,23,,,,1.7,0.9,1.4*30
$GPRMC,115305.000,A,6538.5143,N,01654.6470,W,5.81,346.76,030912,,,A*72
$GPGGA,115306.000,6538.5159,N,01654.6481,W,1,09,0.9,311.8,M,59.9,M,,0000*4D
$GPGSA,A,3,02,29,25,16,31,13,21,30,23,,,,1.7,0.9,1.4*30
$GPRMC,115306.000,A,6538.5159,N,01654.6481,W,5.71,346.14,030912,,,A*7F
$GPGGA,115307.000,6538.5175,N,01654.6491,W,1,09,0.9,312.0,M,59.9,M,,0000*48
$GPGSA,A,3,02,29,25,16,31,13,21,30,23,,,,1.7,0.9,1.4*30
$GPRMC,115307.000,A,6538.5175,N,01654.6491,W,5.82,346.44,030912,,,A*78
$GPGGA,115308.000,6538.5191,N,01654.6501,W,1,09,0.9,312.1,M,59.9,M,,0000*44
$GPGSA,A,3,02,29,25,16,31,13,21,30,23,,,,1.7,0.9,1.4*30
$GPGSV,3,1,11,29,60,101,44,31,56,192,32,30,48,260,35,25,33,104,41*76
$GPGSV,3,2,11,23,29,310,32,02,21,033,30,16,19,264,31,10,16,013,32*7B
$GPGSV,3,3,11,13,14,342,26,21,10,148,19,05,03,063,*4B
$GPRMC,115308.000,A,6538.5191,N,01654.6501,W,5.92,346.42,030912,,,A*72
$GPGGA,115309.000,6538.5206,N,01654.6510,W,1,09,0.9,312.3,M,59.9,M,,0000*4A
$GPGSA,A,3,02,29,25,16,31,13,21,30,23,,,,1.7,0.9,1.4*30
$GPRMC,115309.000,A,6538.5206,N,01654.6510,W,5.71,348.11,030912,,,A*7B
$GPGGA,115310.000,6538.5222,N,01654.6513,W,1,09,0.9,312.5,M,59.9,M,,0000*41
$GPGSA,A,3,02,29,25,16,31,13,21,30,23,,,,1.7,0.9,1.4*30
$GPRMC,115310.000,A,6538.5222,N,01654.6513,W,5.62,358.75,030912,,,A*77
$GPGGA,115311.000,6538.5236,N,01654.6504,W,1,09,0.9,312.6,M,59.9,M,,0000*40
$GPGSA,A,3,02,29,25,16,31,13,21,23,30,,,,1.7,0.9,1.4*30
$GPRMC,115311.000,A,6538.5236,N,01654.6504,W,5.46,16.11,030912,,,A*48
$GPGGA,115312.000,6538.5250,N,01654.6484,W,1,09,0.9,312.7,M,59.9,M,,0000*4B
$GPGSA,A,3,02,29,25,16,31,13,21,23,30,,,,1.7,0.9,1.4*30
$GPRMC,115312.000,A,6538.5250,N,01654.6484,W,5.94,35.16,030912,,,A*4B
$GPGGA,115313.000,6538.5259,N,01654.6450,W,1,08,0.9,312.8,M,59.9,M,,0000*44
$GPGSA,A,3,02,29,25,16,31,13,21,30,,,,,1.7,0.9,1.4*31
$GPGSV,3,1,11,29,60,101,43,31,56,192,41,30,48,260,30,25,33,104,34*72
$GPGSV,3,2,11,23,29,310,,02,21,033,32,16,19,264,26,10,16,013,31*7D
$GPGSV,3,3,11,13,14,342,28,21,10,148,30,05,03,063,*4E
$GPRMC,115313.000,A,6538.5259,N,01654.6450,W,6.31,56.86,030912,,,A*4A
$GPGGA,115314.000,6538.5266,N,01654.6409,W,1,09,0.9,313.0,M,59.9,M,,0000*4B
$GPGSA,A,3,02,29,25,16,31,13,21,23,30,,,,1.7,0.9,1.4*30
$GPRMC,115314.000,A,6538.5266,N,01654.6409,W,6.92,69.36,030912,,,A*43
$GPGGA,115315.000,6538.5273,N,01654.6368,W,1,09,0.9,313.2,M,59.9,M,,0000*4C
$GPGSA,A,3,02,29,25,16,31,13,21,23,30,,,,1.7,0.9,1.4*30
$GPRMC,115315.000,A,6538.5273,N,01654.6368,W,7.04,69.35,030912,,,A*4B
$GPGGA,115316.000,6538.5281,N,01654.6326,W,1,09,0.9,313.3,M,59.9,M,,0000*49
$GPGSA,A,3,02,29,25,16,31,13,21,23,30,,,,1.7,0.9,1.4*30
$GPRMC,115316.000,A,6538.5281,N,01654.6326,W,7.13,67.49,030912,,,A*4C
$GPGGA,115317.000,6538.5289,N,01654.6281,W,1,09,0.9,313.5,M,59.9,M,,0000*4A
$GPGSA,A,3,02,29,25,16,31,13,21,23,30,,,,1.7,0.9,1.4*30
$GPRMC,115317.000,A,6538.5289,N,01654.6281,W,7.43,68.49,030912,,,A*43
$GPGGA,115318.000,6538.5297,N,01654.6234,W,1,09,0.9,313.6,M,59.9,M,,0000*47
$GPGSA,A,3,02,29,25,16,31,13,21,23,30,,,,1.7,0.9,1.4*30
$GPGSV,3,1,11,29,60,101,43,31,56,192,45,30,48,260,31,25,33,104,33*70
$GPGSV,3,2,11,23,29,310,28,02,21,033,28,16,19,264,24,10,16,013,28*76
$GPGSV,3,3,11,13,14,342,34,21,10,148,28,05,03,063,*4A
$GPRMC,115318.000,A,6538.5297,N,01654.6234,W,7.87,69.67,030912,,,A*48
$GPGGA,115319.000,6538.5305,N,01654.6184,W,1,09,0.9,313.7,M,59.9,M,,0000*45
$GPGSA,A,3,02,29,25,16,31,13,21,23,30,,,,1.7,0.9,1.4*30
$GPRMC,115319.000,A,6538.5305,N,01654.6184,W,8.15,70.39,030912,,,A*4C
$GPGGA,115320.000,6538.5313,N,01654.6132,W,1,09,0.9,313.8,M,59.9,M,,0000*4A
$GPGSA,A,3,02,29,25,16,31,13,21,23,30,,,,1.7,0.9,1.4*30
$GPRMC,115320.000,A,6538.5313,N,01654.6132,W,8.36,70.42,030912,,,A*41
$GPGGA,115321.000,6538.5323,N,01654.6070,W,1,09,0.9,313.8,M,59.9,M,,0000*4F
$GPGSA,A,3,02,29,25,16,31,13,21,23,30,,,,1.7,0.9,1.4*30
$GPRMC,115321.000,A,6538.5323,N,01654.6070,W,10.13,69.77,030912,,,A*74
$GPGGA,115322.000,6538.5334,N,01654.5998,W,1,08,1.0,313.8,M,59.9,M,,0000*4F
$GPGSA,A,3,29,25,16,31,13,21,23,30,,,,,1.8,1.0,1.5*34
$GPRMC,115322.000,A,6538.5334,N,01654.5998,W,11.65,69.22,030912,,,A*7D
$GPGGA,115323.000,6538.5347,N,01654.5922,W,1,09,0.9,313.8,M,59.9,M,,0000*42
$GPGSA,A,3,02,29,25,16,31,13,21,23,30,,,,1.7,0.9,1.4*30
$GPGSV,3,1,11,29,60,101,43,31,56,192,46,30,48,260,29,25,33,104,34*7D
$GPGSV,3,2,11,23,29,310,35,02,21,033,27,16,19,264,25,10,16,013,29*75
$GPGSV,3,3,11,13,14,342,32,21,10,148,27,05,03,063,*43
$GPRMC,115323.000,A,6538.5347,N,01654.5922,W,12.46,68.64,030912,,,A*78
$GPGGA,115324.000,6538.5359,N,01654.5844,W,1,08,1.3,313.9,M,59.9,M,,0000*40
$GPGSA,A,3,02,29,25,16,31,13,23,30,,,,,2.8,1.3,2.5*36
$GPRMC,115324.000,A,6538.5359,N,01654.5844,W,12.56,69.36,030912,,,A*76
$GPGGA,115325.000,6538.5371,N,01654.5767,W,1,08,1.3,314.0,M,59.9,M,,0000*4B
$GPGSA,A,3,02,29,25,16,31,13,23,30,,,,,2.8,1.3,2.5*36
$GPRMC,115325.000,A,6538.5371,N,01654.5767,W,12.45,69.34,030912,,,A*73
$GPGGA,115326.000,6538.5383,N,01654.5690,W,1,08,1.3,314.0,M,59.9,M,,0000*4C
$GPGSA,A,3,02,29,25,16,31,13,23,30,,,,,2.8,1.3,2.5*36
$GPRMC,115326.000,A,6538.5383,N,01654.5690,W,12.41,69.35,030912,,,A*71
$GPGGA,115327.000,6538.5395,N,01654.5612,W,1,08,1.3,314.1,M,59.9,M,,0000*41
$GPGSA,A,3,02,29,25,16,31,13,23,30,,,,,2.8,1.3,2.5*36
$GPRMC,115327.000,A,6538.5395,N,01654.5612,W,12.51,68.94,030912,,,A*76
$GPGGA,115328.000,6538.5408,N,01654.5534,W,1,08,1.3,314.1,M,59.9,M,,0000*4A
$GPGSA,A,3,02,29,25,16,31,13,23,30,,,,,2.8,1.3,2.5*36
$GPGSV,3,1,11,29,60,101,43,31,56,192,45,30,48,260,22,25,33,104,35*74
$GPGSV,3,2,11,23,29,310,36,02,21,033,21,16,19,264,26,10,16,013,26*7C
$GPGSV,3,3,11,13,14,342,26,21,10,148,,05,03,063,*43
$GPRMC,115328.000,A,6538.5408,N,01654.5534,W,12.73,68.62,030912,,,A*74
$GPGGA,115329.000,6538.5422,N,01654.5453,W,1,09,0.9,314.2,M,59.9,M,,0000*4A
$GPGSA,A,3,02,29,25,16,31,13,21,23,30,,,,1.7,0.9,1.4*30
$GPRMC,115329.000,A,6538.5422,N,01654.5453,W,13.03,67.94,030912,,,A*7D
$GPGGA,115330.000,6538.5435,N,01654.5372,W,1,09,0.9,314.3,M,59.9,M,,0000*41
$GPGSA,A,3,02,29,25,16,31,13,21,23,30,,,,1.7,0.9,1.5*31
$GPRMC,115330.000,A,6538.5435,N,01654.5372,W,13.20,67.45,030912,,,A*7A
$GPGGA,115331.000,6538.5449,N,01654.5290,W,1,09,0.9,314.4,M,59.9,M,,0000*41
$GPGSA,A,3,02,29,25,16,31,13,21,23,30,,,,1.7,0.9,1.5*31
$GPRMC,115331.000,A,6538.5449,N,01654.5290,W,13.33,67.78,030912,,,A*71
$GPGGA,115332.000,6538.5462,N,01654.5209,W,1,08,1.3,314.4,M,59.9,M,,0000*41
$GPGSA,A,3,02,29,25,16,31,13,23,30,,,,,2.8,1.3,2.5*36
$GPRMC,115332.000,A,6538.5462,N,01654.5209,W,13.04,68.80,030912,,,A*77
$GPGGA,115333.000,6538.5474,N,01654.5124,W,1,08,1.3,314.5,M,59.9,M,,0000*4A
$GPGSA,A,3,02,29,25,16,31,13,23,30,,,,,2.8,1.3,2.5*36
$GPGSV,3,1,11,29,60,101,43,31,56,192,45,30,48,260,25,25,33,104,35*73
$GPGSV,3,2,11,23,29,310,35,02,21,033,27,16,19,264,20,10,16,013,*7B
$GPGSV,3,3,11,13,14,342,26,21,10,148,,05,03,063,*43
$GPRMC,115333.000,A,6538.5474,N,01654.5124,W,13.50,70.86,030912,,,A*73
$GPGGA,115334.000,6538.5487,N,01654.5031,W,1,08,1.3,314.5,M,59.9,M,,0000*44
$GPGSA,A,3,02,29,25,16,31,13,23,30,,,,,2.8,1.3,2.5*36
$GPRMC,115334.000,A,6538.5487,N,01654.5031,W,14.59,71.79,030912,,,A*72
$GPGGA,115335.000,6538.5500,N,01654.4932,W,1,08,1.3,314.6,M,59.9,M,,0000*43
$GPGSA,A,3,02,29,25,16,31,13,23,30,,,,,2.8,1.3,2.5*36
$GPRMC,115335.000,A,6538.5500,N,01654.4932,W,15.59,72.35,030912,,,A*7C
$GPGGA,115336.000,6538.5512,N,01654.4827,W,1,08,1.3,314.7,M,59.9,M,,0000*47
$GPGSA,A,3,02,29,25,16,31,13,23,30,,,,,2.8,1.3,2.5*36
$GPRMC,115336.000,A,6538.5512,N,01654.4827,W,16.55,73.67,030912,,,A*70
$GPGGA,115337.000,6538.5524,N,01654.4715,W,1,08,1.3,314.7,M,59.9,M,,0000*4D
$GPGSA,A,3,02,29,25,16,31,13,23,30,,,,,2.8,1.3,2.5*36
$GPRMC,115337.000,A,6538.5524,N,01654.4715,W,17.37,75.67,030912,,,A*79
$GPGGA,115338.000,6538.5535,N,01654.4599,W,1,08,1.3,314.8,M,59.9,M,,0000*4B
$GPGSA,A,3,02,29,25,16,31,13,23,30,,,,,2.8,1.3,2.5*36
$GPGSV,3,1,11,29,60,101,41,31,56,192,46,30,48,260,30,25,33,104,27*75
$GPGSV,3,2,11,23,29,310,26,02,21,033,31,16,19,264,34,10,16,013,32*7A
$GPGSV,3,3,11,13,14,342,27,21,10,148,,05,03,063,*42
$GPRMC,115338.000,A,6538.5535,N,01654.4599,W,17.96,77.79,030912,,,A*76
$GPGGA,115339.000,6538.5543,N,01654.4478,W,1,07,1.7,314.9,M,59.9,M,,0000*4F
$GPGSA,A,3,02,29,16,31,13,23,30,,,,,,3.6,1.7,3.1*3F
$GPRMC,115339.000,A,6538.5543,N,01654.4478,W,18.51,80.45,030912,,,A*7B
$GPGGA,115340.000,6538.5550,N,01654.4351,W,1,08,1.3,314.9,M,59.9,M,,0000*44
$GPGSA,A,3,02,29,16,31,25,13,23,30,,,,,2.8,1.3,2.5*36
$GPRMC,115340.000,A,6538.5550,N,01654.4351,W,19.22,83.21,030912,,,A*7F
$GPGGA,115341.000,6538.5554,N,01654.4220,W,1,08,1.3,314.9,M,59.9,M,,0000*46
$GPGSA,A,3,02,29,16,31,25,13,23,30,,,,,2.8,1.3,2.5*36
$GPRMC,115341.000,A,6538.5554,N,01654.4220,W,19.77,86.17,030912,,,A*7D
$GPGGA,115342.000,6538.5555,N,01654.4085,W,1,08,1.3,314.9,M,59.9,M,,0000*49
$GPGSA,A,3,02,29,16,31,25,13,23,30,,,,,2.8,1.3,2.5*36
$GPRMC,115342.000,A,6538.5555,N,01654.4085,W,20.32,89.15,030912,,,A*74
$GPGGA,115343.000,6538.5554,N,01654.3947,W,1,08,1.3,314.9,M,59.9,M,,0000*49
$GPGSA,A,3,02,29,16,31,25,13,23,30,,,,,2.8,1.3,2.5*36
$GPGSV,3,1,11,29,60,101,33,31,56,192,46,30,48,260,35,25,33,104,34*77
$GPGSV,3,2,11,23,29,310,24,02,21,033,29,16,19,264,28,10,16,013,29*76
$GPGSV,3,3,11,13,14,342,21,21,10,148,,05,03,063,*44
$GPRMC,115343.000,A,6538.5554,N,01654.3947,W,20.73,91.33,030912,,,A*7C
$GPGGA,115344.000,6538.5551,N,01654.3807,W,1,09,0.9,315.0,M,59.9,M,,0000*4C
$GPGSA,A,3,02,29,21,16,31,25,13,23,30,,,,1.7,0.9,1.5*31
$GPRMC,115344.000,A,6538.5551,N,01654.3807,W,21.03,93.17,030912,,,A*79
$GPGGA,115345.000,6538.5546,N,01654.3665,W,1,09,0.9,315.2,M,59.9,M,,0000*43
$GPGSA,A,3,02,29,21,16,31,25,13,23,30,,,,1.7,0.9,1.5*31
$GPRMC,115345.000,A,6538.5546,N,01654.3665,W,21.24,94.90,030912,,,A*79
$GPGGA,115346.000,6538.5540,N,01654.3523,W,1,08,1.3,315.3,M,59.9,M,,0000*4C
$GPGSA,A,3,02,29,16,31,25,13,23,30,,,,,2.8,1.3,2.5*36
$GPRMC,115346.000,A,6538.5540,N,01654.3523,W,21.47,96.67,030912,,,A*72
$GPGGA,115347.000,6538.5531,N,01654.3379,W,1,08,1.3,315.3,M,59.9,M,,0000*42
$GPGSA,A,3,02,29,16,31,25,13,23,30,,,,,2.8,1.3,2.5*36
$GPRMC,115347.000,A,6538.5531,N,01654.3379,W,21.69,98.22,030912,,,A*7F
$GPGGA,115348.000,6538.5522,N,01654.3234,W,1,09,0.9,315.3,M,59.9,M,,0000*4D
$GPGSA,A,3,02,29,21,16,31,25,13,23,30,,,,1.7,0.9,1.5*31
$GPGSV,3,1,11,29,60,101,33,31,56,192,44,30,48,260,35,25,33,104,26*76
$GPGSV,3,2,11,23,29,310,27,02,21,033,31,16,19,264,28,10,16,013,22*77
$GPGSV,3,3,11,13,14,342,31,21,10,148,28,05,03,063,*4F
$GPRMC,115348.000,A,6538.5522,N,01654.3234,W,21.90,99.22,030912,,,A*7D
$GPGGA,115349.000,6538.5512,N,01654.3090,W,1,09,0.9,315.2,M,59.9,M,,0000*42
$GPGSA,A,3,02,29,21,16,31,25,13,23,30,,,,1.7,0.9,1.5*31
$GPRMC,115349.000,A,6538.5512,N,01654.3090,W,21.83,99.61,030912,,,A*76
$GPGGA,115350.000,6538.5502,N,01654.2943,W,1,09,0.9,315.1,M,59.9,M,,0000*4E
$GPGSA,A,3,02,29,21,16,31,25,13,23,30,,,,1.7,0.9,1.5*31
$GPRMC,115350.000,A,6538.5502,N,01654.2943,W,22.19,99.20,030912,,,A*7C
$GPGGA,115351.000,6538.5493,N,01654.2794,W,1,09,0.9,315.0,M,59.9,M,,0000*43
$GPGSA,A,3,02,29,21,16,31,25,13,23,30,,,,1.7,0.9,1.5*31
$GPRMC,115351.000,A,6538.5493,N,01654.2794,W,22.53,98.46,030912,,,A*7F
$GPGGA,115352.000,6538.5484,N,01654.2643,W,1,09,0.9,314.9,M,59.9,M,,0000*45
$GPGSA,A,3,02,29,21,16,31,25,13,23,30,,,,1.7,0.9,1.5*31
$GPRMC,115352.000,A,6538.5484,N,01654.2643,W,22.72,97.77,030912,,,A*7F
$GPGGA,115353.000,6538.5476,N,01654.2491,W,1,08,1.0,314.7,M,59.9,M,,0000*43
$GPGSA,A,3,02,29,21,31,25,13,23,30,,,,,1.9,1.0,1.6*33
$GPGSV,3,1,11,29,60,101,34,31,56,192,43,30,48,260,36,25,33,104,25*76
$GPGSV,3,2,11,23,29,310,36,02,21,033,31,16,19,264,,10,16,013,31*7F
$GPGSV,3,3,11,13,14,342,35,21,10,148,23,05,03,063,*40
$GPRMC,115353.000,A,6538.5476,N,01654.2491,W,22.75,97.14,030912,,,A*7C
$GPGGA,115354.000,6538.5468,N,01654.2340,W,1,08,1.3,314.5,M,59.9,M,,0000*41
$GPGSA,A,3,02,29,16,31,25,13,23,30,,,,,2.8,1.3,2.5*36
$GPRMC,115354.000,A,6538.5468,N,01654.2340,W,22.73,97.21,030912,,,A*7F
$GPGGA,115355.000,6538.5460,N,01654.2190,W,1,08,1.3,314.3,M,59.9,M,,0000*41
$GPGSA,A,3,02,29,16,31,25,13,23,30,,,,,2.8,1.3,2.5*36
$GPRMC,115355.000,A,6538.5460,N,01654.2190,W,22.58,98.06,030912,,,A*7A
$GPGGA,115356.000,6538.5450,N,01654.2041,W,1,09,0.9,314.1,M,59.9,M,,0000*44
$GPGSA,A,3,02,29,21,16,31,25,13,23,30,,,,1.7,0.9,1.5*31
$GPRMC,115356.000,A,6538.5450,N,01654.2041,W,22.35,98.60,030912,,,A*7C
$GPGGA,115357.000,6538.5441,N,01654.1892,W,1,09,0.9,314.0,M,59.9,M,,0000*41
$GPGSA,A,3,02,29,21,16,31,25,13,23,30,,,,1.7,0.9,1.5*31
$GPRMC,115357.000,A,6538.5441,N,01654.1892,W,22.33,98.59,030912,,,A*74
$GPGGA,115358.000,6538.5430,N,01654.1745,W,1,09,0.9,313.8,M,59.9,M,,0000*42
$GPGSA,A,3,02,29,21,16,31,25,13,23,30,,,,1.7,0.9,1.5*31
$GPGSV,3,1,11,29,60,101,35,31,56,192,43,30,48,260,36,25,33,104,21*73
$GPGSV,3,2,11,23,29,310,28,02,21,033,32,16,19,264,29,10,16,013,22*7A
$GPGSV,3,3,11,13,14,342,31,21,10,148,23,05,03,063,*44
$GPRMC,115358.000,A,6538.5430,N,01654.1745,W,22.15,99.39,030912,,,A*7B
$GPGGA,115359.000,6538.5420,N,01654.1599,W,1,09,0.9,313.4,M,59.9,M,,0000*4D
$GPGSA,A,3,02,29,21,16,31,25,13,23,30,,,,1.7,0.9,1.5*31
$GPRMC,115359.000,A,6538.5420,N,01654.1599,W,21.94,99.50,030912,,,A*7D
$GPGGA,115400.000,6538.5410,N,01654.1453,W,1,09,0.9,313.0,M,59.9,M,,0000*46
$GPGSA,A,3,02,29,21,16,31,25,13,23,30,,,,1.7,0.9,1.5*31
$GPRMC,115400.000,A,6538.5410,N,01654.1453,W,21.84,98.86,030912,,,A*79
$GPGGA,115401.000,6538.5400,N,01654.1311,W,1,09,0.9,312.5,M,59.9,M,,0000*43
$GPGSA,A,3,02,29,21,16,31,25,13,23,30,,,,1.7,0.9,1.5*31
$GPRMC,115401.000,A,6538.5400,N,01654.1311,W,21.32,98.74,030912,,,A*78
$GPGGA,115402.000,6538.5390,N,01654.1171,W,1,09,0.9,312.1,M,59.9,M,,0000*4E
$GPGSA,A,3,02,29,21,16,31,25,13,23,30,,,,1.7,0.9,1.5*31
$GPRMC,115402.000,A,6538.5390,N,01654.1171,W,20.98,99.07,030912,,,A*75
$GPGGA,115403.000,6538.5380,N,01654.1033,W,1,09,0.9,311.6,M,59.9,M,,0000*4D
$GPGSA,A,3,02,29,21,16,31,25,13,23,30,,,,1.7,0.9,1.5*31
$GPGSV,3,1,11,29,60,101,36,31,56,192,44,30,48,260,35,25,33,104,23*76
$GPGSV,3,2,11,23,29,310,24,02,21,033,32,16,19,264,32,10,16,013,22*7C
$GPGSV,3,3,11,13,14,342,33,21,10,148,24,05,03,063,*41
$GPRMC,115403.000,A,6538.5380,N,01654.1033,W,20.72,99.16,030912,,,A*76
$GPGGA,115404.000,6538.5371,N,01654.0898,W,1,09,0.9,311.2,M,59.9,M,,0000*48
$GPGSA,A,3,02,29,21,16,31,25,13,23,30,,,,1.7,0.9,1.5*31
$GPRMC,115404.000,A,6538.5371,N,01654.0898,W,20.28,98.42,030912,,,A*78
$GPGGA,115405.000,6538.5363,N,01654.0763,W,1,07,1.4,310.9,M,59.9,M,,0000*49
$GPGSA,A,3,02,29,16,31,25,13,30,,,,,,3.0,1.4,2.6*3A
$GPRMC,115405.000,A,6538.5363,N,01654.0763,W,20.19,97.99,030912,,,A*7A
$GPGGA,115406.000,6538.5354,N,01654.0628,W,1,08,1.2,310.5,M,59.9,M,,0000*45
$GPGSA,A,3,02,29,16,31,25,13,23,30,,,,,2.8,1.2,2.5*37
$GPRMC,115406.000,A,6538.5354,N,01654.0628,W,20.31,98.11,030912,,,A*76
$GPGGA,115407.000,6538.5345,N,01654.0494,W,1,09,0.9,310.0,M,59.9,M,,0000*4F
$GPGSA,A,3,02,29,21,16,31,25,13,23,30,,,,1.7,0.9,1.5*31
$GPRMC,115407.000,A,6538.5345,N,01654.0494,W,20.20,98.38,030912,,,A*79
$GPGGA,115408.000,6538.5336,N,01654.0361,W,1,09,0.9,309.6,M,59.9,M,,0000*47
$GPGSA,A,3,02,29,21,16,31,25,13,23,30,,,,1.7,0.9,1.5*31
$GPGSV,3,1,11,29,60,101,35,31,56,192,43,30,48,260,35,25,33,104,24*75
$GPGSV,3,2,11,23,29,310,31,02,21,033,32,16,19,264,28,10,16,013,26*77
$GPGSV,3,3,11,13,14,342,34,21,10,148,26,05,03,063,24*42
$GPRMC,115408.000,A,6538.5336,N,01654.0361,W,19.96,99.39,030912,,,A*78
$GPGGA,115409.000,6538.5325,N,01654.0229,W,1,09,0.9,309.4,M,59.9,M,,0000*4B
$GPGSA,A,3,02,29,21,16,31,25,13,23,30,,,,1.7,0.9,1.5*31
$GPRMC,115409.000,A,6538.5325,N,01654.0229,W,19.80,99.85,030912,,,A*76
$GPGGA,115410.000,6538.5316,N,01654.0097,W,1,09,0.9,309.2,M,59.9,M,,0000*42
$GPGSA,A,3,02,29,21,16,31,25,13,23,30,,,,1.7,0.9,1.5*31
$GPRMC,115410.000,A,6538.5316,N,01654.0097,W,19.78,99.58,030912,,,A*7E
$GPGGA,115411.000,6538.5307,N,01653.9966,W,1,09,0.9,309.2,M,59.9,M,,0000*4A
$GPGSA,A,3,02,29,21,16,31,25,13,23,30,,,,1.7,0.9,1.5*31
$GPRMC,115411.000,A,6538.5307,N,01653.9966,W,19.70,99.13,030912,,,A*71
$GPGGA,115412.000,6538.5299,N,01653.9837,W,1,09,0.9,309.4,M,59.9,M,,0000*4C
$GPGSA,A,3,02,29,21,16,31,25,13,23,30,,,,1.7,0.9,1.5*31
$GPRMC,115412.000,A,6538.5299,N,01653.9837,W,19.53,98.48,030912,,,A*7F
$GPGGA,115413.000,6538.5291,N,01653.9708,W,1,09,0.9,309.8,M,59.9,M,,0000*4A
$GPGSA,A,3,02,29,21,16,31,25,13,23,30,,,,1.7,0.9,1.5*31
$GPGSV,3,1,11,29,60,101,35,31,56,192,43,30,48,260,36,25,33,104,31*72
$GPGSV,3,2,11,23,29,310,34,02,21,033,32,16,19,264,28,10,16,013,24*70
$GPGSV,3,3,11,13,14,342,33,21,10,148,26,05,03,063,25*44
$GPRMC,115413.000,A,6538.5291,N,01653.9708,W,19.38,97.51,030912,,,A*7F
$GPGGA,115414.000,6538.5285,N,01653.9581,W,1,08,1.2,310.1,M,59.9,M,,0000*41
$GPGSA,A,3,02,29,16,31,25,13,23,30,,,,,2.8,1.2,2.5*37
$GPRMC,115414.000,A,6538.5285,N,01653.9581,W,19.18,96.88,030912,,,A*79
$GPGGA,115415.000,6538.5279,N,01653.9455,W,1,08,1.2,310.7,M,59.9,M,,0000*4D
$GPGSA,A,3,02,29,16,31,25,13,23,30,,,,,2.8,1.2,2.5*37
$GPRMC,115415.000,A,6538.5279,N,01653.9455,W,18.97,96.59,030912,,,A*79
$GPGGA,115416.000,6538.5274,N,01653.9331,W,1,08,1.2,311.4,M,59.9,M,,0000*44
$GPGSA,A,3,02,29,16,31,25,13,23,30,,,,,2.8,1.2,2.5*37
$GPRMC,115416.000,A,6538.5274,N,01653.9331,W,18.84,96.48,030912,,,A*70
$GPGGA,115417.000,6538.5269,N,01653.9207,W,1,07,1.3,312.1,M,59.9,M,,0000*45
$GPGSA,A,3,02,16,31,25,13,23,30,,,,,,3.3,1.3,3.0*33
$GPRMC,115417.000,A,6538.5269,N,01653.9207,W,18.76,96.65,030912,,,A*7B
$GPGGA,115418.000,6538.5263,N,01653.9085,W,1,08,1.2,312.8,M,59.9,M,,0000*4F
$GPGSA,A,3,02,29,16,31,25,13,23,30,,,,,2.8,1.2,2.5*37
$GPGSV,3,1,11,29,60,101,36,31,56,192,43,30,48,260,37,25,33,104,30*71
$GPGSV,3,2,11,23,29,310,36,02,21,033,31,16,19,264,28,10,16,013,29*7C
$GPGSV,3,3,11,13,14,342,33,21,10,148,,05,03,063,26*43
$GPRMC,115418.000,A,6538.5263,N,01653.9085,W,18.57,97.78,030912,,,A*78
$GPGGA,115419.000,6538.5256,N,01653.8963,W,1,09,0.9,313.4,M,59.9,M,,0000*4E
$GPGSA,A,3,02,29,16,31,25,13,21,23,30,,,,1.7,0.9,1.5*31
$GPRMC,115419.000,A,6538.5256,N,01653.8963,W,18.58,98.54,030912,,,A*71
$GPGGA,115420.000,6538.5248,N,01653.8842,W,1,09,0.9,313.9,M,59.9,M,,0000*44
$GPGSA,A,3,02,29,16,31,25,13,21,23,30,,,,1.7,0.9,1.5*31
$GPRMC,115420.000,A,6538.5248,N,01653.8842,W,18.42,98.65,030912,,,A*7F
$GPGGA,115421.000,6538.5242,N,01653.8723,W,1,09,0.9,314.3,M,59.9,M,,0000*4A
$GPGSA,A,3,02,29,16,31,25,13,21,23,30,,,,1.7,0.9,1.5*31
$GPRMC,115421.000,A,6538.5242,N,01653.8723,W,18.04,98.35,030912,,,A*7B
$GPGGA,115422.000,6538.5235,N,01653.8607,W,1,09,0.9,314.7,M,59.9,M,,0000*4A
$GPGSA,A,3,02,29,16,31,25,13,21,23,30,,,,1.7,0.9,1.5*31
$GPRMC,115422.000,A,6538.5235,N,01653.8607,W,17.60,98.14,030912,,,A*71
$GPGGA,115423.000,6538.5229,N,01653.8492,W,1,09,0.9,315.2,M,59.9,M,,0000*4C
$GPGSA,A,3,02,29,16,31,25,13,21,23,30,,,,1.7,0.9,1.5*31
$GPGSV,3,1,11,29,60,101,36,31,56,192,43,30,48,260,37,25,33,104,29*79
$GPGSV,3,2,11,23,29,310,35,02,21,033,29,16,19,264,19,10,16,013,29*74
$GPGSV,3,3,11,13,14,342,33,21,10,148,28,05,03,063,31*4F
$GPRMC,115423.000,A,6538.5229,N,01653.8492,W,17.43,98.22,030912,,,A*77
$GPGGA,115424.000,6538.5223,N,01653.8377,W,1,09,0.9,315.7,M,59.9,M,,0000*48
$GPGSA,A,3,02,29,16,31,25,13,21,23,30,,,,1.7,0.9,1.5*31
$GPRMC,115424.000,A,6538.5223,N,01653.8377,W,17.44,97.68,030912,,,A*70
$GPGGA,115425.000,6538.5217,N,01653.8262,W,1,09,0.9,316.0,M,59.9,M,,0000*4F
$GPGSA,A,3,02,29,16,31,25,13,21,23,30,,,,1.7,0.9,1.5*31
$GPRMC,115425.000,A,6538.5217,N,01653.8262,W,17.43,97.15,030912,,,A*7E
$GPGGA,115426.000,6538.5212,N,01653.8147,W,1,09,0.9,316.4,M,59.9,M,,0000*49
$GPGSA,A,3,02,29,16,31,25,13,21,23,30,,,,1.7,0.9,1.5*31
$GPRMC,115426.000,A,6538.5212,N,01653.8147,W,17.32,96.82,030912,,,A*75
$GPGGA,115427.000,6538.5207,N,01653.8034,W,1,09,0.9,316.6,M,59.9,M,,0000*4B
$GPGSA,A,3,02,29,16,31,25,13,21,23,30,,,,1.7,0.9,1.5*31
$GPRMC,115427.000,A,6538.5207,N,01653.8034,W,17.12,96.72,030912,,,A*78
$GPGGA,115428.000,6538.5201,N,01653.7924,W,1,09,0.9,316.9,M,59.9,M,,0000*4A
$GPGSA,A,3,02,29,16,31,25,13,21,23,30,,,,1.7,0.9,1.5*31
$GPGSV,3,1,11,29,60,101,36,31,56,192,43,30,48,260,37,25,33,104,29*79
$GPGSV,3,2,11,23,29,310,35,02,21,033,33,16,19,264,29,10,16,013,30*74
$GPGSV,3,3,11,13,14,342,33,21,10,148,28,05,03,063,30*4E
$GPRMC,115428.000,A,6538.5201,N,01653.7924,W,16.57,97.17,030912,,,A*74
$GPGGA,115429.000,6538.5196,N,01653.7821,W,1,09,0.9,317.2,M,59.9,M,,0000*48
$GPGSA,A,3,02,29,16,31,25,13,21,23,30,,,,1.7,0.9,1.5*31
$GPRMC,115429.000,A,6538.5196,N,01653.7821,W,15.59,97.56,030912,,,A*74
$GPGGA,115430.000,6538.5191,N,01653.7723,W,1,09,0.9,317.5,M,59.9,M,,0000*4D
$GPGSA,A,3,02,29,16,31,25,13,21,23,30,,,,1.7,0.9,1.5*31
$GPRMC,115430.000,A,6538.5191,N,01653.7723,W,14.63,97.32,030912,,,A*7C
$GPGGA,115431.000,6538.5187,N,01653.7633,W,1,09,0.9,317.7,M,59.9,M,,0000*49
$GPGSA,A,3,02,29,16,31,25,13,21,23,30,,,,1.7,0.9,1.5*31
$GPRMC,115431.000,A,6538.5187,N,01653.7633,W,13.51,95.05,030912,,,A*7A
$GPGGA,115432.000,6538.5186,N,01653.7549,W,1,09,0.9,317.8,M,59.9,M,,0000*4A
$GPGSA,A,3,02,29,16,31,25,13,21,23,30,,,,1.7,0.9,1.5*31
$GPRMC,115432.000,A,6538.5186,N,01653.7549,W,12.42,92.71,030912,,,A*71
$GPGGA,115433.000,6538.5187,N,01653.7474,W,1,08,1.0,318.1,M,59.9,M,,0000*4A
$GPGSA,A,3,02,29,31,25,13,21,23,30,,,,,1.9,1.0,1.6*33
$GPGSV,3,1,11,29,60,101,35,31,56,192,43,30,48,260,36,25,33,104,29*7B
$GPGSV,3,2,11,23,29,310,27,02,21,033,33,16,19,264,,10,16,013,25*78
$GPGSV,3,3,11,13,14,342,33,21,10,148,28,05,03,063,23*4C
$GPRMC,115433.000,A,6538.5187,N,01653.7474,W,11.24,87.85,030912,,,A*72
$GPGGA,115434.000,6538.5193,N,01653.7408,W,1,09,0.9,318.3,M,59.9,M,,0000*48
$GPGSA,A,3,02,29,16,31,25,13,21,23,30,,,,1.7,0.9,1.5*31
$GPRMC,115434.000,A,6538.5193,N,01653.7408,W,10.09,76.36,030912,,,A*73
$GPGGA,115435.000,6538.5207,N,01653.7355,W,1,08,1.2,318.7,M,59.9,M,,0000*47
$GPGSA,A,3,02,29,16,31,25,13,23,30,,,,,2.8,1.2,2.5*37
$GPRMC,115435.000,A,6538.5207,N,01653.7355,W,9.33,57.42,030912,,,A*42
$GPGGA,115436.000,6538.5224,N,01653.7318,W,1,08,1.2,319.0,M,59.9,M,,0000*4A
$GPGSA,A,3,02,29,16,31,25,13,23,30,,,,,2.8,1.2,2.5*37
$GPRMC,115436.000,A,6538.5224,N,01653.7318,W,8.32,40.88,030912,,,A*49
$GPGGA,115437.000,6538.5246,N,01653.7296,W,1,09,0.9,319.4,M,59.9,M,,0000*47
$GPGSA,A,3,02,29,16,31,25,13,21,23,30,,,,1.7,0.9,1.5*31
$GPRMC,115437.000,A,6538.5246,N,01653.7296,W,8.58,22.62,030912,,,A*47
$GPGGA,115438.000,6538.5272,N,01653.7286,W,1,09,0.9,319.6,M,59.9,M,,0000*4C
$GPGSA,A,3,02,29,16,31,25,13,21,23,30,,,,1.7,0.9,1.5*31
$GPGSV,3,1,11,29,60,101,39,31,56,192,33,30,48,260,33,25,33,104,35*78
$GPGSV,3,2,11,23,29,310,32,02,21,033,32,16,19,264,35,10,16,013,29*77
$GPGSV,3,3,11,13,14,342,33,21,10,148,28,05,03,063,28*47
$GPRMC,115438.000,A,6538.5272,N,01653.7286,W,9.52,9.27,030912,,,A*7D
$GPGGA,115439.000,6538.5299,N,01653.7279,W,1,09,0.9,319.6,M,59.9,M,,0000*48
$GPGSA,A,3,02,29,16,31,25,13,21,23,30,,,,1.7,0.9,1.5*31
$GPRMC,115439.000,A,6538.5299,N,01653.7279,W,10.02,5.90,030912,,,A*44
$GPGGA,115440.000,6538.5326,N,01653.7263,W,1,09,0.9,319.7,M,59.9,M,,0000*49
$GPGSA,A,3,02,29,16,31,25,13,21,23,30,,,,1.7,0.9,1.5*31
$GPRMC,115440.000,A,6538.5326,N,01653.7263,W,10.12,14.27,030912,,,A*79
$GPGGA,115441.000,6538.5349,N,01653.7234,W,1,09,0.9,319.7,M,59.9,M,,0000*43
$GPGSA,A,3,02,29,16,31,25,13,21,23,30,,,,1.7,0.9,1.5*31
$GPRMC,115441.000,A,6538.5349,N,01653.7234,W,9.59,28.12,030912,,,A*4D
$GPGGA,115442.000,6538.5368,N,01653.7191,W,1,09,0.9,319.7,M,59.9,M,,0000*4F
$GPGSA,A,3,02,29,16,31,25,13,21,23,30,,,,1.7,0.9,1.5*31
$GPRMC,115442.000,A,6538.5368,N,01653.7191,W,9.58,43.32,030912,,,A*4F
$GPGGA,115443.000,6538.5382,N,01653.7136,W,1,09,0.9,319.8,M,59.9,M,,0000*48
$GPGSA,A,3,02,29,16,31,25,13,21,23,30,,,,1.7,0.9,1.5*31
$GPGSV,3,1,11,29,60,101,41,31,56,192,42,30,48,260,31,25,33,104,30*76
$GPGSV,3,2,11,23,29,310,42,02,21,033,30,16,19,264,28,10,16,013,28*7F
$GPGSV,3,3,11,13,14,342,30,21,10,148,30,05,03,063,28*4D
$GPRMC,115443.000,A,6538.5382,N,01653.7136,W,10.00,58.57,030912,,,A*7B
$GPGGA,115444.000,6538.5394,N,01653.7073,W,1,09,0.9,319.8,M,59.9,M,,0000*48
$GPGSA,A,3,02,29,16,31,25,13,21,23,30,,,,1.7,0.9,1.5*31
$GPRMC,115444.000,A,6538.5394,N,01653.7073,W,10.52,66.49,030912,,,A*7E
$GPGGA,115445.000,6538.5405,N,01653.7005,W,1,08,1.2,319.7,M,59.9,M,,0000*43
$GPGSA,A,3,02,29,16,31,25,13,23,30,,,,,2.8,1.2,2.5*37
$GPRMC,115445.000,A,6538.5405,N,01653.7005,W,11.01,70.24,030912,,,A*7A
$GPGGA,115446.000,6538.5415,N,01653.6934,W,1,07,1.7,319.7,M,59.9,M,,0000*41
$GPGSA,A,3,02,29,16,31,13,23,30,,,,,,3.6,1.7,3.2*3C
$GPRMC,115446.000,A,6538.5415,N,01653.6934,W,11.55,70.97,030912,,,A*7B
$GPGGA,115447.000,6538.5427,N,01653.6861,W,1,08,1.2,319.7,M,59.9,M,,0000*4A
$GPGSA,A,3,02,29,16,31,25,13,23,30,,,,,2.8,1.2,2.5*37
$GPRMC,115447.000,A,6538.5427,N,01653.6861,W,11.85,68.71,030912,,,A*76
$GPGGA,115448.000,6538.5441,N,01653.6793,W,1,08,0.9,319.7,M,59.9,M,,0000*4D
$GPGSA,A,3,02,29,16,31,13,21,23,30,,,,,1.7,0.9,1.5*36
$GPGSV,3,1,11,29,59,098,42,31,55,191,44,30,49,260,31,25,32,104,*7B
$GPGSV,3,2,11,23,29,309,31,16,21,265,29,02,20,032,30,10,16,012,22*73
$GPGSV,3,3,11,13,15,341,31,21,11,148,25,05,04,062,27*42
$GPRMC,115448.000,A,6538.5441,N,01653.6793,W,11.57,64.27,030912,,,A*7B
$GPGGA,115449.000,6538.5458,N,01653.6728,W,1,07,1.3,319.8,M,59.9,M,,0000*4F
$GPGSA,A,3,29,16,31,25,13,23,30,,,,,,2.8,1.3,2.5*34
$GPRMC,115449.000,A,6538.5458,N,01653.6728,W,11.52,58.50,030912,,,A*78
$GPGGA,115450.000,6538.5479,N,01653.6663,W,1,09,0.9,319.8,M,59.9,M,,0000*4F
$GPGSA,A,3,02,29,16,31,25,13,21,23,30,,,,1.7,0.9,1.5*31
$GPRMC,115450.000,A,6538.5479,N,01653.6663,W,12.47,52.96,030912,,,A*7A
$GPGGA,115451.000,6538.5502,N,01653.6596,W,1,09,0.9,319.5,M,59.9,M,,0000*47
$GPGSA,A,3,02,29,16,31,25,13,21,23,30,,,,1.7,0.9,1.5*31
$GPRMC,115451.000,A,6538.5502,N,01653.6596,W,13.17,49.92,030912,,,A*75
$GPGGA,115452.000,6538.5527,N,01653.6528,W,1,09,0.9,319.3,M,59.9,M,,0000*40
$GPGSA,A,3,02,29,16,31,25,13,21,23,30,,,,1.7,0.9,1.5*31
$GPRMC,115452.000,A,6538.5527,N,01653.6528,W,13.81,48.36,030912,,,A*74
$GPGGA,115453.000,6538.5553,N,01653.6456,W,1,09,0.9,319.1,M,59.9,M,,0000*48
$GPGSA,A,3,02,29,16,31,25,13,21,23,30,,,,1.7,0.9,1.5*31
$GPGSV,3,1,11,29,59,098,39,31,55,191,43,30,49,260,32,25,32,104,28*79
$GPGSV,3,2,11,23,29,309,40,16,21,265,28,02,20,032,32,10,16,012,27*73
$GPGSV,3,3,11,13,15,341,28,21,11,148,31,05,04,062,22*4A
$GPRMC,115453.000,A,6538.5553,N,01653.6456,W,14.35,48.70,030912,,,A*74
$GPGGA,115454.000,6538.5578,N,01653.6381,W,1,09,0.9,318.9,M,59.9,M,,0000*42
$GPGSA,A,3,02,29,16,31,25,13,21,23,30,,,,1.7,0.9,1.5*31
$GPRMC,115454.000,A,6538.5578,N,01653.6381,W,14.66,50.81,030912,,,A*76
$GPGGA,115455.000,6538.5601,N,01653.6304,W,1,09,0.9,318.8,M,59.9,M,,0000*42
$GPGSA,A,3,02,29,16,31,25,13,21,23,30,,,,1.7,0.9,1.5*31
$GPRMC,115455.000,A,6538.5601,N,01653.6304,W,14.35,53.63,030912,,,A*7E
$GPGGA,115456.000,6538.5622,N,01653.6228,W,1,09,0.9,318.7,M,59.9,M,,0000*40
$GPGSA,A,3,02,29,16,31,25,13,21,23,30,,,,1.7,0.9,1.5*31
$GPRMC,115456.000,A,6538.5622,N,01653.6228,W,13.62,57.13,030912,,,A*75
$GPGGA,115457.000,6538.5639,N,01653.6155,W,1,09,0.9,318.7,M,59.9,M,,0000*42
$GPGSA,A,3,02,29,16,31,25,13,21,23,30,,,,1.7,0.9,1.5*31
$GPRMC,115457.000,A,6538.5639,N,01653.6155,W,12.71,60.58,030912,,,A*7F
$GPGGA,115458.000,6538.5654,N,01653.6084,W,1,09,0.9,318.6,M,59.9,M,,0000*4A
$GPGSA,A,3,02,29,16,31,25,13,21,23,30,,,,1.7,0.9,1.5*31
$GPGSV,3,1,11,29,59,098,39,31,55,191,43,30,49,260,32,25,32,104,25*74
$GPGSV,3,2,11,23,29,309,29,16,21,265,21,02,20,032,31,10,16,012,26*77
$GPGSV,3,3,11,13,15,341,29,21,11,148,31,05,04,062,21*48
$GPRMC,115458.000,A,6538.5654,N,01653.6084,W,11.94,63.09,030912,,,A*79
$GPGGA,115459.000,6538.5667,N,01653.6016,W,1,08,0.9,318.6,M,59.9,M,,0000*41
$GPGSA,A,3,02,29,16,31,25,13,21,30,,,,,1.7,0.9,1.5*30
$GPRMC,115459.000,A,6538.5667,N,01653.6016,W,11.17,65.56,030912,,,A*74
$GPGGA,115500.000,6538.5679,N,01653.5952,W,1,08,0.9,318.6,M,59.9,M,,0000*49
$GPGSA,A,3,02,29,16,31,25,13,21,30,,,,,1.7,0.9,1.5*30
$GPRMC,115500.000,A,6538.5679,N,01653.5952,W,10.45,65.66,030912,,,A*79
$GPGGA,115501.000,6538.5692,N,01653.5895,W,1,09,0.9,318.6,M,59.9,M,,0000*46
$GPGSA,A,3,02,29,16,31,25,13,21,23,30,,,,1.7,0.9,1.5*31
$GPRMC,115501.000,A,6538.5692,N,01653.5895,W,9.65,61.79,030912,,,A*47
$GPGGA,115502.000,6538.5705,N,01653.5846,W,1,08,0.9,318.6,M,59.9,M,,0000*45
$GPGSA,A,3,02,29,16,31,25,13,21,30,,,,,1.7,0.9,1.5*30
$GPRMC,115502.000,A,6538.5705,N,01653.5846,W,8.64,57.35,030912,,,A*48
$GPGGA,115503.000,6538.5720,N,01653.5809,W,1,09,0.9,318.5,M,59.9,M,,0000*4A
$GPGSA,A,3,02,29,16,31,25,13,21,23,30,,,,1.7,0.9,1.5*31
$GPGSV,3,1,11,29,59,098,36,31,55,191,44,30,49,260,33,25,32,104,28*70
$GPGSV,3,2,11,23,29,309,40,16,21,265,24,02,20,032,31,10,16,012,31*7B
$GPGSV,3,3,11,13,15,341,29,21,11,148,31,05,04,062,23*4A
$GPRMC,115503.000,A,6538.5720,N,01653.5809,W,7.44,46.54,030912,,,A*4F
$GPGGA,115504.000,6538.5734,N,01653.5785,W,1,09,0.9,318.5,M,59.9,M,,0000*43
$GPGSA,A,3,02,29,16,31,25,13,21,23,30,,,,1.7,0.9,1.5*31
$GPRMC,115504.000,A,6538.5734,N,01653.5785,W,6.16,32.95,030912,,,A*4E
$GPGGA,115505.000,6538.5748,N,01653.5772,W,1,09,0.9,318.5,M,59.9,M,,0000*41
$GPGSA,A,3,02,29,16,31,25,13,21,23,30,,,,1.7,0.9,1.5*31
$GPRMC,115505.000,A,6538.5748,N,01653.5772,W,5.24,19.23,030912,,,A*4A
$GPGGA,115506.000,6538.5760,N,01653.5767,W,1,09,0.9,318.6,M,59.9,M,,0000*4F
$GPGSA,A,3,02,29,16,31,25,13,21,23,30,,,,1.7,0.9,1.5*31
$GPRMC,115506.000,A,6538.5760,N,01653.5767,W,4.52,6.19,030912,,,A*70
$GPGGA,115507.000,6538.5771,N,01653.5770,W,1,09,0.9,318.7,M,59.9,M,,0000*49
$GPGSA,A,3,02,29,16,31,25,13,21,23,30,,,,1.7,0.9,1.5*31
$GPRMC,115507.000,A,6538.5771,N,01653.5770,W,3.65,352.00,030912,,,A*7E
$GPGGA,115508.000,6538.5778,N,01653.5772,W,1,09,0.9,318.7,M,59.9,M,,0000*4D
$GPGSA,A,3,02,29,16,31,25,13,21,23,30,,,,1.7,0.9,1.5*31
$GPGSV,3,1,11,29,59,098,43,31,55,191,32,30,49,260,38,25,32,104,43*75
$GPGSV,3,2,11,23,29,309,33,16,21,265,32,02,20,032,37,10,16,012,26*78
$GPGSV,3,3,11,13,15,341,20,21,11,148,29,05,04,062,24*4D
$GPRMC,115508.000,A,6538.5778,N,01653.5772,W,2.79,348.92,030912,,,A*76
$GPGGA,115509.000,6538.5785,N,01653.5775,W,1,09,0.9,318.8,M,59.9,M,,0000*46
$GPGSA,A,3,02,29,16,31,25,13,21,23,30,,,,1.7,0.9,1.5*31
$GPRMC,115509.000,A,6538.5785,N,01653.5775,W,2.19,350.51,030912,,,A*72
$GPGGA,115510.000,6538.5788,N,01653.5776,W,1,08,0.9,318.9,M,59.9,M,,0000*40
$GPGSA,A,3,02,29,16,31,25,13,21,30,,,,,1.7,0.9,1.5*30
$GPRMC,115510.000,A,6538.5788,N,01653.5776,W,1.12,348.25,030912,,,A*76
$GPGGA,115511.000,6538.5790,N,01653.5776,W,1,08,1.2,318.9,M,59.9,M,,0000*42
$GPGSA,A,3,02,29,16,31,25,13,23,30,,,,,2.8,1.2,2.5*37
$GPRMC,121504.000,A,6538.5810,N,01653.5780,W,1.10,170.27,030912,,,A*7A
$GPGGA,121505.000,6538.5807,N,01653.5779,W,1,10,0.9,315.9,M,59.9,M,,0000*40
$GPGSA,A,3,02,29,16,31,25,13,21,23,30,05,,,2.0,0.9,1.8*3D
$GPRMC,121505.000,A,6538.5807,N,01653.5779,W,1.33,169.28,030912,,,A*7D
$GPGGA,121506.000,6538.5802,N,01653.5776,W,1,10,0.9,315.8,M,59.9,M,,0000*48
$GPGSA,A,3,02,29,16,31,25,13,21,23,30,05,,,2.0,0.9,1.8*3D
$GPRMC,121506.000,A,6538.5802,N,01653.5776,W,1.72,166.39,030912,,,A*7E
$GPGGA,121507.000,6538.5798,N,01653.5773,W,1,10,0.9,315.8,M,59.9,M,,0000*40
$GPGSA,A,3,02,29,16,31,25,13,21,23,30,05,,,2.0,0.9,1.8*3D
$GPRMC,121507.000,A,6538.5798,N,01653.5773,W,1.33,154.54,030912,,,A*79
$GPGGA,121508.000,6538.5796,N,01653.5767,W,1,10,0.9,315.7,M,59.9,M,,0000*4B
$GPGSA,A,3,02,29,16,31,25,13,21,23,30,05,,,2.0,0.9,1.8*3D
$GPGSV,3,1,12,30,58,256,39,29,54,086,40,31,47,185,30,23,30,299,39*79
$GPGSV,3,2,12,16,29,267,35,25,24,106,31,13,20,335,29,21,19,145,25*74
$GPGSV,3,3,12,10,16,004,26,02,14,027,24,05,10,056,28,06,04,225,26*76
$GPRMC,121508.000,A,6538.5796,N,01653.5767,W,1.29,135.30,030912,,,A*73
$GPGGA,121509.000,6538.5792,N,01653.5761,W,1,10,0.9,315.7,M,59.9,M,,0000*48
$GPGSA,A,3,02,29,16,31,25,13,21,23,30,05,,,2.0,0.9,1.8*3D
$GPRMC,121509.000,A,6538.5792,N,01653.5761,W,1.55,141.54,030912,,,A*7A
$GPGGA,121510.000,6538.5790,N,01653.5757,W,1,09,1.0,315.6,M,59.9,M,,0000*46
$GPGSA,A,3,02,29,31,25,13,21,23,30,05,,,,2.1,1.0,1.9*32
$GPRMC,121510.000,A,6538.5790,N,01653.5757,W,1.06,139.62,030912,,,A*79
$GPGGA,121511.000,6538.5789,N,01653.5756,W,1,10,0.9,315.5,M,59.9,M,,0000*4D
$GPGSA,A,3,02,29,16,31,25,13,21,23,30,05,,,2.0,0.9,1.8*3D
$GPRMC,121546.000,A,6538.5771,N,01653.5803,W,1.68,284.82,030912,,,A*78
$GPGGA,121547.000,6538.5771,N,01653.5826,W,1,10,0.9,310.9,M,59.9,M,,0000*48
$GPGSA,A,3,02,29,16,31,25,13,21,23,30,05,,,2.0,0.9,1.8*3D
$GPRMC,121547.000,A,6538.5771,N,01653.5826,W,3.50,276.45,030912,,,A*71
$GPGGA,121548.000,6538.5770,N,01653.5856,W,1,09,0.9,310.6,M,59.9,M,,0000*46
$GPGSA,A,3,29,16,31,25,13,21,23,30,05,,,,2.0,0.9,1.8*3F
$GPGSV,3,1,12,30,58,256,37,29,54,086,40,31,47,185,34,23,30,299,34*7E
$GPGSV,3,2,12,16,29,267,33,25,24,106,25,13,20,335,32,21,19,145,31*78
$GPGSV,3,3,12,10,16,004,26,02,14,027,,05,10,056,32,06,04,225,29*74
$GPRMC,121548.000,A,6538.5770,N,01653.5856,W,4.42,264.60,030912,,,A*78
$GPGGA,121549.000,6538.5766,N,01653.5885,W,1,09,0.9,310.4,M,59.9,M,,0000*4C
$GPGSA,A,3,29,16,31,25,13,21,23,30,05,,,,2.0,0.9,1.8*3F
$GPRMC,121549.000,A,6538.5766,N,01653.5885,W,4.53,255.37,030912,,,A*70
$GPGGA,121550.000,6538.5760,N,01653.5919,W,1,10,0.9,310.3,M,59.9,M,,0000*49
$GPGSA,A,3,02,29,16,31,25,13,21,23,30,05,,,2.0,0.9,1.8*3D
$GPRMC,121550.000,A,6538.5760,N,01653.5919,W,5.60,245.58,030912,,,A*73
$GPGGA,121551.000,6538.5752,N,01653.5957,W,1,10,0.9,310.2,M,59.9,M,,0000*42
$GPGSA,A,3,02,29,16,31,25,13,21,23,30,05,,,2.0,0.9,1.8*3D
