$GPGGA,144250.000,6418.8563,N,02016.2635,W,1,10,0.9,109.2,M,60.4,M,,0000*4C
$GPGSA,A,3,30,07,13,19,16,06,21,05,03,18,,,1.5,0.9,1.3*3E
$GPGSV,3,1,12,16,72,185,35,06,64,219,31,03,49,239,29,21,47,082,35*7D
$GPGSV,3,2,12,30,44,148,32,07,30,312,20,19,19,240,32,13,14,278,23*7E
$GPGSV,3,3,12,18,10,109,27,05,10,004,29,08,02,336,,26,00,027,*79
$GPRMC,144250.000,A,6418.8563,N,02016.2635,W,30.34,93.91,300812,,,A*70
$GPGGA,144251.000,6418.8556,N,02016.2448,W,1,10,0.9,109.4,M,60.4,M,,0000*45
$GPGSA,A,3,30,07,13,19,16,06,21,05,03,18,,,1.5,0.9,1.3*3E
$GPRMC,144251.000,A,6418.8556,N,02016.2448,W,29.60,95.13,300812,,,A*7A
$GPGGA,144252.000,6418.8548,N,02016.2263,W,1,10,0.9,109.8,M,60.4,M,,0000*4A
$GPGSA,A,3,30,07,13,19,16,06,21,05,03,18,,,1.5,0.9,1.3*3E
$GPRMC,144252.000,A,6418.8548,N,02016.2263,W,29.02,95.73,300812,,,A*7B
$GPGGA,144253.000,6418.8540,N,02016.2083,W,1,10,0.9,110.3,M,60.4,M,,0000*4C
$GPGSA,A,3,30,07,13,19,16,06,21,05,03,18,,,1.5,0.9,1.3*3E
$GPRMC,144253.000,A,6418.8540,N,02016.2083,W,28.55,96.66,300812,,,A*7A
$GPGGA,144254.000,6418.8529,N,02016.1905,W,1,09,0.9,110.7,M,60.4,M,,0000*4C
$GPGSA,A,3,30,07,13,19,16,06,21,05,18,,,,1.6,0.9,1.3*3E
$GPRMC,144254.000,A,6418.8529,N,02016.1905,W,28.15,97.84,300812,,,A*7F
$GPGGA,144255.000,6418.8517,N,02016.1731,W,1,10,0.9,111.3,M,60.4,M,,0000*44
$GPGSA,A,3,30,07,13,19,16,06,21,05,03,18,,,1.5,0.9,1.3*3E
$GPGSV,3,1,12,16,72,185,31,06,64,219,31,03,49,239,15,21,47,082,25*77
$GPGSV,3,2,12,30,44,148,31,07,30,312,31,19,19,240,35,13,14,278,32*7A
$GPGSV,3,3,12,18,10,109,29,05,10,004,26,08,02,336,,26,00,027,*78
$GPRMC,144255.000,A,6418.8517,N,02016.1731,W,27.60,99.80,300812,,,A*7D
$GPGGA,144256.000,6418.8503,N,02016.1559,W,1,10,0.9,111.8,M,60.4,M,,0000*45
$GPGSA,A,3,30,07,13,19,16,06,21,05,03,18,,,1.5,0.9,1.3*3E
$GPRMC,144256.000,A,6418.8503,N,02016.1559,W,27.45,101.37,300812,,,A*4C
$GPGGA,144257.000,6418.8487,N,02016.1388,W,1,09,0.9,112.4,M,60.4,M,,0000*44
$GPGSA,A,3,30,07,13,19,16,06,21,05,18,,,,1.6,0.9,1.3*3E
$GPRMC,144257.000,A,6418.8487,N,02016.1388,W,27.33,102.30,300812,,,A*4F
$GPGGA,144258.000,6418.8471,N,02016.1218,W,1,10,0.9,113.0,M,60.4,M,,0000*47
$GPGSA,A,3,30,07,13,19,16,06,21,05,03,18,,,1.5,0.9,1.3*3E
$GPRMC,144258.000,A,6418.8471,N,02016.1218,W,27.18,102.64,300812,,,A*49
$GPGGA,144259.000,6418.8454,N,02016.1049,W,1,10,0.9,113.6,M,60.4,M,,0000*41
$GPGSA,A,3,30,07,13,19,16,06,21,05,03,18,,,1.5,0.9,1.3*3E
$GPRMC,144259.000,A,6418.8454,N,02016.1049,W,27.20,103.31,300812,,,A*43
$GPGGA,144300.000,6418.8437,N,02016.0879,W,1,10,0.9,114.2,M,60.4,M,,0000*40
$GPGSA,A,3,30,07,13,19,16,06,21,05,03,18,,,1.5,0.9,1.3*3E
$GPGSV,3,1,12,16,72,185,31,06,64,219,33,03,49,239,35,21,47,082,32*71
$GPGSV,3,2,12,30,44,148,31,07,30,312,38,19,19,240,37,13,14,278,34*77
$GPGSV,3,3,12,18,10,109,29,05,10,004,26,08,02,336,,26,00,027,*78
$GPRMC,144300.000,A,6418.8437,N,02016.0879,W,27.24,103.37,300812,,,A*43
$GPGGA,144301.000,6418.8421,N,02016.0709,W,1,10,0.9,114.7,M,60.4,M,,0000*4B
$GPGSA,A,3,30,07,13,19,16,06,21,05,03,18,,,1.5,0.9,1.3*3E
$GPRMC,144301.000,A,6418.8421,N,02016.0709,W,27.30,103.15,300812,,,A*48
$GPGGA,144302.000,6418.8404,N,02016.0538,W,1,10,0.9,115.3,M,60.4,M,,0000*4A
$GPGSA,A,3,30,07,13,19,16,06,21,05,03,18,,,1.5,0.9,1.3*3E
$GPRMC,144302.000,A,6418.8404,N,02016.0538,W,27.34,102.77,300812,,,A*4D
$GPGGA,144303.000,6418.8389,N,02016.0367,W,1,10,0.9,115.8,M,60.4,M,,0000*4E
$GPGSA,A,3,30,07,13,19,16,06,21,05,03,18,,,1.5,0.9,1.3*3E
$GPRMC,144303.000,A,6418.8389,N,02016.0367,W,27.34,102.30,300812,,,A*41
$GPGGA,144304.000,6418.8374,N,02016.0195,W,1,10,0.9,116.3,M,60.4,M,,0000*4C
$GPGSA,A,3,30,07,13,19,16,06,21,05,03,18,,,1.5,0.9,1.3*3E
$GPRMC,144304.000,A,6418.8374,N,02016.0195,W,27.36,101.59,300812,,,A*45
$GPGGA,144305.000,6418.8358,N,02016.0022,W,1,10,0.9,116.8,M,60.4,M,,0000*45
$GPGSA,A,3,30,07,13,19,16,06,21,05,03,18,,,1.5,0.9,1.3*3E
$GPGSV,3,1,12,16,72,185,30,06,64,219,33,03,49,239,31,21,47,082,23*74
$GPGSV,3,2,12,30,44,148,25,07,30,312,31,19,19,240,33,13,14,278,35*7E
$GPGSV,3,3,12,18,10,109,30,05,10,004,30,08,02,336,,26,00,027,*77
$GPRMC,144305.000,A,6418.8358,N,02016.0022,W,27.40,102.16,300812,,,A*4E
$GPGGA,144306.000,6418.8341,N,02015.9850,W,1,09,1.0,117.2,M,60.4,M,,0000*42
$GPGSA,A,3,30,07,19,16,06,21,05,03,18,,,,1.7,1.0,1.4*31
$GPRMC,144306.000,A,6418.8341,N,02015.9850,W,27.53,102.94,300812,,,A*4A
$GPGGA,144307.000,6418.8324,N,02015.9680,W,1,10,0.9,117.6,M,60.4,M,,0000*47
$GPGSA,A,3,30,07,13,19,16,06,21,05,03,18,,,1.5,0.9,1.3*3E
$GPRMC,144307.000,A,6418.8324,N,02015.9680,W,27.30,103.64,300812,,,A*40
$GPGGA,144308.000,6418.8306,N,02015.9512,W,1,10,0.9,117.9,M,60.4,M,,0000*4F
$GPGSA,A,3,30,07,13,19,16,06,21,05,03,18,,,1.5,0.9,1.3*3E
$GPRMC,144308.000,A,6418.8306,N,02015.9512,W,26.83,103.97,300812,,,A*42
$GPGGA,144309.000,6418.8289,N,02015.9349,W,1,10,0.9,118.2,M,60.4,M,,0000*44
$GPGSA,A,3,30,07,13,19,16,06,21,05,03,18,,,1.5,0.9,1.3*3E
$GPRMC,144309.000,A,6418.8289,N,02015.9349,W,26.18,103.76,300812,,,A*40
$GPGGA,144310.000,6418.8273,N,02015.9190,W,1,10,0.9,118.5,M,60.4,M,,0000*48
$GPGSA,A,3,30,07,13,19,16,06,21,05,03,18,,,1.5,0.9,1.3*3E
$GPGSV,3,1,12,16,72,185,30,06,64,219,34,03,49,239,35,21,47,082,26*72
$GPGSV,3,2,12,30,44,148,29,07,30,312,33,19,19,240,27,13,14,278,20*71
$GPGSV,3,3,12,18,10,109,30,05,10,004,35,08,02,336,,26,00,027,*72
$GPRMC,144310.000,A,6418.8273,N,02015.9190,W,25.50,103.55,300812,,,A*45
$GPGGA,144311.000,6418.8257,N,02015.9035,W,1,10,0.9,118.8,M,60.4,M,,0000*4C
$GPGSA,A,3,30,07,13,19,16,06,21,05,03,18,,,1.5,0.9,1.3*3E
$GPRMC,144311.000,A,6418.8257,N,02015.9035,W,24.78,103.73,300812,,,A*43
$GPGGA,144312.000,6418.8241,N,02015.8882,W,1,10,0.9,119.1,M,60.4,M,,0000*45
$GPGSA,A,3,30,07,13,19,16,06,21,05,03,18,,,1.5,0.9,1.3*3E
$GPRMC,144312.000,A,6418.8241,N,02015.8882,W,24.44,103.93,300812,,,A*43
$GPGGA,144313.000,6418.8225,N,02015.8731,W,1,10,0.9,119.3,M,60.4,M,,0000*43
$GPGSA,A,3,30,07,13,19,16,06,21,05,03,18,,,1.5,0.9,1.3*3E
$GPRMC,144313.000,A,6418.8225,N,02015.8731,W,24.31,103.75,300812,,,A*4D
$GPGGA,144314.000,6418.8208,N,02015.8580,W,1,10,0.9,119.5,M,60.4,M,,0000*45
$GPGSA,A,3,30,07,13,19,16,06,21,05,03,18,,,1.5,0.9,1.3*3E
$GPRMC,144314.000,A,6418.8208,N,02015.8580,W,24.16,104.28,300812,,,A*47
$GPGGA,144315.000,6418.8191,N,02015.8430,W,1,09,0.9,119.7,M,60.4,M,,0000*47
$GPGSA,A,3,30,07,13,19,06,21,05,03,18,,,,1.7,0.9,1.4*3C
$GPGSV,3,1,12,16,71,181,,06,66,218,34,03,50,239,34,21,47,081,34*7C
$GPGSV,3,2,12,30,43,148,30,07,31,311,34,19,20,240,26,13,13,277,27*7F
$GPGSV,3,3,12,18,11,108,27,05,09,003,34,08,03,336,,26,01,026,*7B
$GPRMC,144315.000,A,6418.8191,N,02015.8430,W,24.13,104.84,300812,,,A*4C
$GPGGA,144316.000,6418.8175,N,02015.8284,W,1,10,0.9,119.8,M,60.4,M,,0000*40
$GPGSA,A,3,30,07,13,19,16,06,21,05,03,18,,,1.5,0.9,1.3*3E
$GPRMC,144316.000,A,6418.8175,N,02015.8284,W,23.45,104.29,300812,,,A*4F
$GPGGA,144317.000,6418.8159,N,02015.8140,W,1,10,0.9,119.9,M,60.4,M,,0000*45
$GPGSA,A,3,30,07,13,19,16,06,21,05,03,18,,,1.6,0.9,1.3*3D
$GPRMC,144317.000,A,6418.8159,N,02015.8140,W,23.17,104.06,300812,,,A*41
$GPGGA,144318.000,6418.8143,N,02015.7997,W,1,10,0.9,120.1,M,60.4,M,,0000*4E
$GPGSA,A,3,30,07,13,19,16,06,21,05,03,18,,,1.6,0.9,1.3*3D
$GPRMC,144318.000,A,6418.8143,N,02015.7997,W,23.12,104.46,300812,,,A*49
$GPGGA,144319.000,6418.8126,N,02015.7852,W,1,10,0.9,120.4,M,60.4,M,,0000*41
$GPGSA,A,3,30,07,13,19,16,06,21,05,03,18,,,1.6,0.9,1.3*3D
$GPRMC,144319.000,A,6418.8126,N,02015.7852,W,23.37,104.84,300812,,,A*4A
$GPGGA,144320.000,6418.8109,N,02015.7705,W,1,10,0.9,120.5,M,60.4,M,,0000*4A
$GPGSA,A,3,30,07,13,19,16,06,21,05,03,18,,,1.6,0.9,1.3*3D
$GPGSV,3,1,12,16,71,181,34,06,66,218,35,03,50,239,35,21,47,081,35*7A
$GPGSV,3,2,12,30,43,148,27,07,31,311,35,19,20,240,25,13,13,277,23*7F
$GPGSV,3,3,12,18,11,108,19,05,09,003,30,08,03,336,,26,01,026,*72
$GPRMC,144320.000,A,6418.8109,N,02015.7705,W,23.85,105.17,300812,,,A*42
$GPGGA,144321.000,6418.8091,N,02015.7555,W,1,10,0.9,120.5,M,60.4,M,,0000*4C
$GPGSA,A,3,30,07,13,19,16,06,21,05,03,18,,,1.6,0.9,1.3*3D
$GPRMC,144321.000,A,6418.8091,N,02015.7555,W,24.44,105.36,300812,,,A*4D
$GPGGA,144322.000,6418.8071,N,02015.7404,W,1,09,1.0,120.7,M,60.4,M,,0000*46
$GPGSA,A,3,30,07,19,16,06,21,05,03,18,,,,1.7,1.0,1.4*31
$GPRMC,144322.000,A,6418.8071,N,02015.7404,W,24.78,106.16,300812,,,A*4B
$GPGGA,144323.000,6418.8050,N,02015.7250,W,1,08,1.2,120.7,M,60.4,M,,0000*40
$GPGSA,A,3,30,07,19,16,06,21,03,18,,,,,1.9,1.2,1.4*38
$GPRMC,144323.000,A,6418.8050,N,02015.7250,W,25.33,106.99,300812,,,A*47
$GPGGA,144324.000,6418.8027,N,02015.7096,W,1,10,0.9,120.8,M,60.4,M,,0000*43
$GPGSA,A,3,30,07,05,19,16,06,21,13,03,18,,,1.6,0.9,1.3*3D
$GPRMC,144324.000,A,6418.8027,N,02015.7096,W,25.59,108.93,300812,,,A*40
$GPGGA,144325.000,6418.8004,N,02015.6941,W,1,10,0.9,120.8,M,60.4,M,,0000*41
$GPGSA,A,3,30,07,05,19,16,06,21,13,03,18,,,1.6,0.9,1.3*3D
$GPGSV,3,1,12,16,71,181,34,06,66,218,34,03,50,239,36,21,47,081,28*74
$GPGSV,3,2,12,30,43,148,22,07,31,311,27,19,20,240,27,13,13,277,24*7C
$GPGSV,3,3,12,18,11,108,29,05,09,003,31,08,03,336,,26,01,026,*70
$GPRMC,144325.000,A,6418.8004,N,02015.6941,W,25.70,108.67,300812,,,A*42
$GPGGA,144326.000,6418.7980,N,02015.6785,W,1,10,0.9,120.6,M,60.4,M,,0000*40
$GPGSA,A,3,30,07,05,19,16,06,21,13,03,18,,,1.6,0.9,1.3*3D
$GPRMC,144326.000,A,6418.7980,N,02015.6785,W,25.89,109.01,300812,,,A*4A
$GPGGA,144327.000,6418.7956,N,02015.6626,W,1,08,1.6,120.5,M,60.4,M,,0000*46
$GPGSA,A,3,30,19,16,06,21,13,03,18,,,,,2.0,1.6,1.3*34
$GPRMC,144327.000,A,6418.7956,N,02015.6626,W,26.39,109.35,300812,,,A*47
$GPGGA,144328.000,6418.7929,N,02015.6465,W,1,08,1.6,120.2,M,60.4,M,,0000*43
$GPGSA,A,3,30,19,16,06,21,13,03,18,,,,,2.0,1.6,1.3*34
$GPRMC,144328.000,A,6418.7929,N,02015.6465,W,26.90,111.15,300812,,,A*4D
$GPGGA,144329.000,6418.7900,N,02015.6303,W,1,08,1.2,120.0,M,60.4,M,,0000*48
$GPGSA,A,3,30,07,19,16,06,21,03,18,,,,,1.9,1.2,1.4*38
$GPRMC,144329.000,A,6418.7900,N,02015.6303,W,27.52,112.11,300812,,,A*48
$GPGGA,144330.000,6418.7869,N,02015.6138,W,1,09,1.1,119.7,M,60.4,M,,0000*4B
$GPGSA,A,3,30,07,19,16,06,21,13,03,18,,,,1.7,1.1,1.3*30
$GPGSV,3,1,12,16,71,181,41,06,66,218,35,03,50,239,36,21,47,081,30*7E
$GPGSV,3,2,12,30,43,148,28,07,31,311,33,19,20,240,33,13,13,277,12*73
$GPGSV,3,3,12,18,11,108,30,05,09,003,19,08,03,336,,26,01,026,*72
$GPRMC,144330.000,A,6418.7869,N,02015.6138,W,28.04,112.89,300812,,,A*49
$GPGGA,144331.000,6418.7836,N,02015.5972,W,1,09,1.1,119.3,M,60.4,M,,0000*41
$GPGSA,A,3,30,07,19,16,06,21,13,03,18,,,,1.7,1.1,1.3*30
$GPRMC,144331.000,A,6418.7836,N,02015.5972,W,28.53,113.85,300812,,,A*48
$GPGGA,144332.000,6418.7802,N,02015.5805,W,1,09,1.1,119.0,M,60.4,M,,0000*47
$GPGSA,A,3,30,07,19,16,06,21,13,03,18,,,,1.7,1.1,1.3*30
$GPRMC,144332.000,A,6418.7802,N,02015.5805,W,28.95,114.59,300812,,,A*41
$GPGGA,144333.000,6418.7766,N,02015.5637,W,1,09,1.1,118.6,M,60.4,M,,0000*43
$GPGSA,A,3,30,07,19,16,06,21,13,03,18,,,,1.7,1.1,1.3*30
$GPRMC,144333.000,A,6418.7766,N,02015.5637,W,29.33,115.35,300812,,,A*44
$GPGGA,144334.000,6418.7728,N,02015.5466,W,1,09,1.1,118.2,M,60.4,M,,0000*4C
$GPGSA,A,3,30,07,19,16,06,21,13,03,18,,,,1.7,1.1,1.3*30
$GPRMC,144334.000,A,6418.7728,N,02015.5466,W,29.98,116.20,300812,,,A*49
$GPGGA,144335.000,6418.7689,N,02015.5292,W,1,09,1.1,117.8,M,60.4,M,,0000*4F
$GPGSA,A,3,30,07,19,16,06,21,13,03,18,,,,1.7,1.1,1.3*30
$GPGSV,3,1,12,16,71,181,42,06,66,218,35,03,50,239,35,21,47,081,22*7D
$GPGSV,3,2,12,30,43,148,21,07,31,311,34,19,20,240,34,13,13,277,28*73
$GPGSV,3,3,12,18,11,108,23,05,09,003,,08,03,336,,26,01,026,*78
$GPRMC,144335.000,A,6418.7689,N,02015.5292,W,30.62,116.73,300812,,,A*44
$GPGGA,144336.000,6418.7649,N,02015.5117,W,1,09,1.1,117.3,M,60.4,M,,0000*45
$GPGSA,A,3,30,07,19,16,06,21,13,03,18,,,,1.7,1.1,1.3*30
$GPRMC,144336.000,A,6418.7649,N,02015.5117,W,31.05,117.17,300812,,,A*46
$GPGGA,144337.000,6418.7607,N,02015.4946,W,1,08,1.3,116.9,M,60.4,M,,0000*4B
$GPGSA,A,3,30,07,16,06,21,13,03,18,,,,,2.0,1.3,1.4*39
$GPRMC,144337.000,A,6418.7607,N,02015.4946,W,30.73,118.35,300812,,,A*4F
$GPGGA,144338.000,6418.7564,N,02015.4774,W,1,09,1.1,116.5,M,60.4,M,,0000*42
$GPGSA,A,3,30,07,19,16,06,21,13,03,18,,,,1.7,1.1,1.3*30
$GPRMC,144338.000,A,6418.7564,N,02015.4774,W,31.17,119.13,300812,,,A*4F
$GPGGA,144339.000,6418.7521,N,02015.4598,W,1,09,1.1,116.1,M,60.4,M,,0000*46
$GPGSA,A,3,30,07,19,16,06,21,13,03,18,,,,1.7,1.1,1.3*30
$GPRMC,144339.000,A,6418.7521,N,02015.4598,W,31.83,119.31,300812,,,A*42
$GPGGA,144340.000,6418.7477,N,02015.4419,W,1,09,1.1,115.8,M,60.4,M,,0000*48
$GPGSA,A,3,30,07,19,16,06,21,13,03,18,,,,1.7,1.1,1.3*30
$GPGSV,3,1,12,16,71,181,42,06,66,218,35,03,50,239,31,21,47,081,23*78
$GPGSV,3,2,12,30,43,148,35,07,31,311,24,19,20,240,32,13,13,277,28*71
$GPGSV,3,3,12,18,11,108,28,05,09,003,35,08,03,336,,26,01,026,*75
$GPRMC,144340.000,A,6418.7477,N,02015.4419,W,32.43,118.95,300812,,,A*46
$GPGGA,144341.000,6418.7433,N,02015.4237,W,1,09,1.1,115.5,M,60.4,M,,0000*4E
$GPGSA,A,3,30,07,19,16,06,21,13,03,18,,,,1.7,1.1,1.3*30
$GPRMC,144341.000,A,6418.7433,N,02015.4237,W,32.76,118.30,300812,,,A*44
$GPGGA,144342.000,6418.7389,N,02015.4053,W,1,09,1.1,115.3,M,60.4,M,,0000*4D
$GPGSA,A,3,30,07,19,16,06,21,13,03,18,,,,1.7,1.1,1.3*30
$GPRMC,144342.000,A,6418.7389,N,02015.4053,W,33.10,118.65,300812,,,A*40
$GPGGA,144343.000,6418.7343,N,02015.3867,W,1,09,1.1,115.2,M,60.4,M,,0000*43
$GPGSA,A,3,30,07,19,16,06,21,13,03,18,,,,1.7,1.1,1.3*30
$GPRMC,144343.000,A,6418.7343,N,02015.3867,W,33.68,118.79,300812,,,A*4D
$GPGGA,144344.000,6418.7295,N,02015.3677,W,1,09,1.1,115.1,M,60.4,M,,0000*42
$GPGSA,A,3,30,07,19,16,06,21,13,03,18,,,,1.7,1.1,1.3*30
$GPRMC,144344.000,A,6418.7295,N,02015.3677,W,34.53,119.35,300812,,,A*49
$GPGGA,144345.000,6418.7247,N,02015.3483,W,1,09,1.1,115.0,M,60.4,M,,0000*44
$GPGSA,A,3,30,07,19,16,06,21,13,03,18,,,,1.7,1.1,1.3*30
$GPGSV,3,1,12,16,71,181,32,06,66,218,32,03,50,239,38,21,47,081,23*71
$GPGSV,3,2,12,30,43,148,34,07,31,311,29,19,20,240,32,13,13,277,27*72
$GPGSV,3,3,12,18,11,108,28,05,09,003,36,08,03,336,,26,01,026,*76
$GPRMC,144345.000,A,6418.7247,N,02015.3483,W,35.15,119.08,300812,,,A*43
$GPGGA,144346.000,6418.7199,N,02015.3287,W,1,09,1.1,115.0,M,60.4,M,,0000*45
$GPGSA,A,3,30,07,19,16,06,21,13,03,18,,,,1.7,1.1,1.3*30
$GPRMC,144346.000,A,6418.7199,N,02015.3287,W,35.43,118.72,300812,,,A*4D
$GPGGA,144347.000,6418.7151,N,02015.3090,W,1,09,1.1,115.1,M,60.4,M,,0000*45
$GPGSA,A,3,30,07,19,16,06,21,13,03,18,,,,1.7,1.1,1.3*30
$GPRMC,144347.000,A,6418.7151,N,02015.3090,W,35.46,118.53,300812,,,A*4A
$GPGGA,144348.000,6418.7104,N,02015.2892,W,1,09,1.1,115.2,M,60.4,M,,0000*42
$GPGSA,A,3,30,07,19,16,06,21,13,03,18,,,,1.7,1.1,1.3*30
$GPRMC,144348.000,A,6418.7104,N,02015.2892,W,35.48,118.20,300812,,,A*44
$GPGGA,144349.000,6418.7057,N,02015.2694,W,1,09,1.1,115.3,M,60.4,M,,0000*4D
$GPGSA,A,3,30,07,19,16,06,21,13,03,18,,,,1.7,1.1,1.3*30
$GPRMC,144349.000,A,6418.7057,N,02015.2694,W,35.40,117.98,300812,,,A*4E
$GPGGA,144350.000,6418.7012,N,02015.2494,W,1,09,1.1,115.4,M,60.4,M,,0000*41
$GPGSA,A,3,30,07,19,16,06,21,13,03,18,,,,1.7,1.1,1.3*30
$GPGSV,3,1,12,16,71,181,31,06,66,218,34,03,50,239,39,21,47,081,32*75
$GPGSV,3,2,12,30,43,148,28,07,31,311,26,19,20,240,33,13,13,277,26*70
$GPGSV,3,3,12,18,11,108,27,05,09,003,36,08,03,336,,26,01,026,*79
$GPRMC,144350.000,A,6418.7012,N,02015.2494,W,35.38,117.33,300812,,,A*4B
$GPGGA,144351.000,6418.6969,N,02015.2293,W,1,09,1.1,115.6,M,60.4,M,,0000*47
$GPGSA,A,3,30,07,19,16,06,21,13,03,18,,,,1.7,1.1,1.3*30
$GPRMC,144351.000,A,6418.6969,N,02015.2293,W,35.15,116.09,300812,,,A*48
$GPGGA,144352.000,6418.6928,N,02015.2091,W,1,09,1.1,115.7,M,60.4,M,,0000*40
$GPGSA,A,3,30,07,19,16,06,21,13,03,18,,,,1.7,1.1,1.3*30
$GPRMC,144352.000,A,6418.6928,N,02015.2091,W,35.02,115.14,300812,,,A*47
$GPGGA,144353.000,6418.6889,N,02015.1887,W,1,09,1.1,115.9,M,60.4,M,,0000*49
$GPGSA,A,3,30,07,19,16,06,21,13,03,18,,,,1.7,1.1,1.3*30
$GPRMC,144353.000,A,6418.6889,N,02015.1887,W,35.08,113.87,300812,,,A*46
$GPGGA,144354.000,6418.6849,N,02015.1680,W,1,09,1.1,116.1,M,60.4,M,,0000*40
$GPGSA,A,3,30,07,19,16,06,21,13,03,18,,,,1.7,1.1,1.3*30
$GPRMC,144354.000,A,6418.6849,N,02015.1680,W,35.46,113.35,300812,,,A*47
$GPGGA,144355.000,6418.6812,N,02015.1471,W,1,09,1.1,116.3,M,60.4,M,,0000*41
$GPGSA,A,3,30,07,19,16,06,21,13,03,18,,,,1.7,1.1,1.3*30
$GPGSV,3,1,12,16,71,181,31,06,66,218,34,03,50,239,35,21,47,081,26*7C
$GPGSV,3,2,12,30,43,148,29,07,31,311,30,19,20,240,33,13,13,277,19*7A
$GPGSV,3,3,12,18,11,108,27,05,09,003,26,08,03,336,,26,01,026,*78
$GPRMC,144355.000,A,6418.6812,N,02015.1471,W,35.49,112.21,300812,,,A*4F
$GPGGA,144356.000,6418.6776,N,02015.1261,W,1,09,1.1,116.6,M,60.4,M,,0000*4D
$GPGSA,A,3,30,07,19,16,06,21,13,03,18,,,,1.7,1.1,1.3*30
$GPRMC,144356.000,A,6418.6776,N,02015.1261,W,35.38,111.21,300812,,,A*43
$GPGGA,144357.000,6418.6742,N,02015.1051,W,1,09,1.1,116.8,M,60.4,M,,0000*44
$GPGSA,A,3,30,07,19,16,06,21,13,03,18,,,,1.7,1.1,1.3*30
$GPRMC,144357.000,A,6418.6742,N,02015.1051,W,35.23,110.20,300812,,,A*4E
$GPGGA,144358.000,6418.6710,N,02015.0839,W,1,09,1.1,117.0,M,60.4,M,,0000*42
$GPGSA,A,3,30,07,19,16,06,21,13,03,18,,,,1.7,1.1,1.3*30
$GPRMC,144358.000,A,6418.6710,N,02015.0839,W,35.03,109.09,300812,,,A*40
$GPGGA,144359.000,6418.6679,N,02015.0627,W,1,09,1.1,117.2,M,60.4,M,,0000*4E
$GPGSA,A,3,30,07,19,16,06,21,13,03,18,,,,1.7,1.1,1.3*30
$GPRMC,144359.000,A,6418.6679,N,02015.0627,W,35.03,108.21,300812,,,A*45
$GPGGA,144400.000,6418.6651,N,02015.0413,W,1,09,1.1,117.4,M,60.4,M,,0000*4C
$GPGSA,A,3,30,07,19,16,06,21,13,03,18,,,,1.7,1.1,1.3*30
$GPGSV,3,1,12,16,71,181,33,06,66,218,33,03,50,239,37,21,47,081,33*7F
$GPGSV,3,2,12,30,43,148,30,07,31,311,24,19,20,240,20,13,13,277,27*78
$GPGSV,3,3,12,18,11,108,28,05,09,003,38,08,03,336,,26,01,026,*78
$GPRMC,144400.000,A,6418.6651,N,02015.0413,W,34.90,106.70,300812,,,A*40
$GPGGA,144401.000,6418.6624,N,02015.0198,W,1,09,1.1,117.5,M,60.4,M,,0000*48
$GPGSA,A,3,30,07,19,16,06,21,13,03,18,,,,1.7,1.1,1.3*30
$GPRMC,144401.000,A,6418.6624,N,02015.0198,W,34.99,106.29,300812,,,A*40
$GPGGA,144402.000,6418.6598,N,02014.9981,W,1,09,1.1,117.6,M,60.4,M,,0000*44
$GPGSA,A,3,30,07,19,16,06,21,13,03,18,,,,1.7,1.1,1.3*30
$GPRMC,144402.000,A,6418.6598,N,02014.9981,W,35.35,105.93,300812,,,A*4A
$GPGGA,144403.000,6418.6572,N,02014.9760,W,1,09,1.1,117.6,M,60.4,M,,0000*40
$GPGSA,A,3,30,07,19,16,06,21,13,03,18,,,,1.7,1.1,1.3*30
$GPRMC,144403.000,A,6418.6572,N,02014.9760,W,35.81,105.17,300812,,,A*4D
$GPGGA,144404.000,6418.6549,N,02014.9534,W,1,09,1.1,117.7,M,60.4,M,,0000*4D
$GPGSA,A,3,30,07,19,16,06,21,13,03,18,,,,1.7,1.1,1.3*30
$GPRMC,144404.000,A,6418.6549,N,02014.9534,W,36.30,103.30,300812,,,A*4B
$GPGGA,144405.000,6418.6529,N,02014.9304,W,1,09,1.1,117.9,M,60.4,M,,0000*41
$GPGSA,A,3,30,07,19,16,06,21,13,03,18,,,,1.7,1.1,1.3*30
$GPGSV,3,1,12,16,71,181,32,06,66,218,39,03,50,239,32,21,47,081,32*70
$GPGSV,3,2,12,30,43,148,30,07,31,311,34,19,20,240,33,13,13,277,28*74
$GPGSV,3,3,12,18,11,108,29,05,09,003,37,08,03,336,,26,01,026,*76
$GPRMC,144405.000,A,6418.6529,N,02014.9304,W,36.65,101.79,300812,,,A*46
$GPGGA,144406.000,6418.6510,N,02014.9070,W,1,09,1.1,118.1,M,60.4,M,,0000*4F
$GPGSA,A,3,30,07,19,16,06,21,13,03,18,,,,1.7,1.1,1.3*30
$GPRMC,144406.000,A,6418.6510,N,02014.9070,W,37.11,100.95,300812,,,A*4E
$GPGGA,144407.000,6418.6491,N,02014.8835,W,1,09,1.1,118.2,M,60.4,M,,0000*4D
$GPGSA,A,3,30,07,19,16,06,21,13,03,18,,,,1.7,1.1,1.3*30
$GPRMC,144407.000,A,6418.6491,N,02014.8835,W,37.46,100.73,300812,,,A*45
$GPGGA,144408.000,6418.6473,N,02014.8596,W,1,09,1.1,118.4,M,60.4,M,,0000*4C
$GPGSA,A,3,30,07,19,16,06,21,13,03,18,,,,1.7,1.1,1.3*30
$GPRMC,144408.000,A,6418.6473,N,02014.8596,W,37.81,100.13,300812,,,A*4F
$GPGGA,144409.000,6418.6455,N,02014.8358,W,1,09,1.1,118.6,M,60.4,M,,0000*4F
$GPGSA,A,3,30,07,19,16,06,21,13,03,18,,,,1.7,1.1,1.3*30
$GPRMC,144409.000,A,6418.6455,N,02014.8358,W,37.83,99.78,300812,,,A*70
$GPGGA,144410.000,6418.6438,N,02014.8120,W,1,09,1.1,118.9,M,60.4,M,,0000*4E
$GPGSA,A,3,30,07,19,16,06,21,13,03,18,,,,1.7,1.1,1.3*30
$GPGSV,3,1,12,16,71,181,32,06,66,218,37,03,50,239,28,21,47,081,23*75
$GPGSV,3,2,12,30,43,148,30,07,31,311,28,19,20,240,36,13,13,277,35*70
$GPGSV,3,3,12,18,11,108,29,05,09,003,31,08,03,336,,26,01,026,*70
$GPRMC,144410.000,A,6418.6438,N,02014.8120,W,37.62,99.82,300812,,,A*74
$GPGGA,144411.000,6418.6421,N,02014.7884,W,1,09,1.1,119.2,M,60.4,M,,0000*45
$GPGSA,A,3,30,07,19,16,06,21,13,03,18,,,,1.7,1.1,1.3*30
$GPRMC,144411.000,A,6418.6421,N,02014.7884,W,37.34,99.57,300812,,,A*7E
$GPGGA,144412.000,6418.6404,N,02014.7651,W,1,09,1.1,119.6,M,60.4,M,,0000*43
$GPGSA,A,3,30,07,19,16,06,21,13,03,18,,,,1.7,1.1,1.3*30
$GPRMC,144412.000,A,6418.6404,N,02014.7651,W,36.95,99.75,300812,,,A*76
$GPGGA,144413.000,6418.6387,N,02014.7421,W,1,09,1.1,120.1,M,60.4,M,,0000*46
$GPGSA,A,3,30,07,19,16,06,21,13,03,18,,,,1.7,1.1,1.3*30
$GPRMC,144413.000,A,6418.6387,N,02014.7421,W,36.38,100.08,300812,,,A*42
$GPGGA,144414.000,6418.6370,N,02014.7194,W,1,09,1.1,120.6,M,60.4,M,,0000*45
$GPGSA,A,3,30,07,19,16,06,21,13,03,18,,,,1.7,1.1,1.3*30
$GPRMC,144414.000,A,6418.6370,N,02014.7194,W,35.86,100.16,300812,,,A*4F
$GPGGA,144415.000,6418.6354,N,02014.6969,W,1,09,1.1,121.1,M,60.4,M,,0000*4F
$GPGSA,A,3,30,07,19,16,06,21,13,03,18,,,,1.7,1.1,1.3*30
$GPGSV,3,1,12,16,71,181,25,06,66,218,32,03,50,239,34,21,47,081,23*7B
$GPGSV,3,2,12,30,43,148,30,07,31,311,29,19,20,240,36,13,13,277,35*71
$GPGSV,3,3,12,18,11,108,30,05,09,003,31,08,03,336,17,26,01,026,*7E
$GPRMC,144415.000,A,6418.6354,N,02014.6969,W,35.50,99.94,300812,,,A*73
$GPGGA,144416.000,6418.6338,N,02014.6745,W,1,09,1.2,121.7,M,60.4,M,,0000*43
$GPGSA,A,3,30,07,19,16,06,21,13,03,18,,,,1.7,1.2,1.3*33
$GPRMC,144416.000,A,6418.6338,N,02014.6745,W,35.29,99.52,300812,,,A*7E
$GPGGA,144417.000,6418.6322,N,02014.6522,W,1,08,1.3,122.3,M,60.4,M,,0000*4D
$GPGSA,A,3,30,07,19,16,06,13,03,18,,,,,1.9,1.3,1.3*3F
$GPRMC,144417.000,A,6418.6322,N,02014.6522,W,35.13,99.69,300812,,,A*76
$GPGGA,144418.000,6418.6306,N,02014.6300,W,1,09,1.2,122.8,M,60.4,M,,0000*49
$GPGSA,A,3,30,07,19,16,06,21,13,03,18,,,,1.7,1.2,1.3*33
$GPRMC,144418.000,A,6418.6306,N,02014.6300,W,35.12,99.85,300812,,,A*7A
$GPGGA,144419.000,6418.6291,N,02014.6077,W,1,09,1.2,123.3,M,60.4,M,,0000*4E
$GPGSA,A,3,30,07,19,16,06,21,13,03,18,,,,1.7,1.2,1.3*33
$GPRMC,144419.000,A,6418.6291,N,02014.6077,W,35.19,99.67,300812,,,A*70
$GPGGA,144420.000,6418.6275,N,02014.5854,W,1,09,1.2,123.8,M,60.4,M,,0000*4F
$GPGSA,A,3,30,07,19,16,06,21,13,03,18,,,,1.7,1.2,1.3*33
$GPGSV,3,1,12,16,71,181,29,06,66,218,34,03,50,239,28,21,47,081,15*79
$GPGSV,3,2,12,30,43,148,30,07,31,311,28,19,20,240,37,13,13,277,35*71
$GPGSV,3,3,12,18,11,108,30,05,09,003,31,08,03,336,19,26,01,026,*70
$GPRMC,144420.000,A,6418.6275,N,02014.5854,W,35.21,99.60,300812,,,A*76
$GPGGA,144421.000,6418.6260,N,02014.5630,W,1,09,1.2,124.2,M,60.4,M,,0000*4B
$GPGSA,A,3,30,07,19,16,06,21,13,03,18,,,,1.7,1.2,1.3*33
$GPRMC,144421.000,A,6418.6260,N,02014.5630,W,35.28,99.56,300812,,,A*73
$GPGGA,144422.000,6418.6244,N,02014.5407,W,1,09,1.2,124.7,M,60.4,M,,0000*4D
$GPGSA,A,3,30,07,19,16,06,21,13,03,18,,,,1.7,1.2,1.3*33
$GPRMC,144422.000,A,6418.6244,N,02014.5407,W,35.29,99.71,300812,,,A*74
$GPGGA,144423.000,6418.6229,N,02014.5184,W,1,09,1.2,125.1,M,60.4,M,,0000*4E
$GPGSA,A,3,30,07,19,16,06,21,13,03,18,,,,1.7,1.2,1.3*33
$GPRMC,144423.000,A,6418.6229,N,02014.5184,W,35.20,99.44,300812,,,A*7F
$GPGGA,144424.000,6418.6214,N,02014.4962,W,1,08,1.2,125.5,M,60.4,M,,0000*43
$GPGSA,A,3,30,07,19,16,06,21,13,18,,,,,1.8,1.2,1.3*3F
$GPRMC,144424.000,A,6418.6214,N,02014.4962,W,35.01,99.04,300812,,,A*70
$GPGGA,144425.000,6418.6200,N,02014.4740,W,1,09,1.2,126.1,M,60.4,M,,0000*4F
$GPGSA,A,3,30,07,19,16,06,21,13,03,18,,,,1.7,1.2,1.3*33
$GPGSV,3,1,12,16,71,181,19,06,66,218,34,03,50,239,35,21,47,081,21*71
$GPGSV,3,2,12,30,43,148,31,07,31,311,29,19,20,240,37,13,13,277,35*71
$GPGSV,3,3,12,18,11,108,31,05,09,003,31,08,03,336,23,26,01,026,*78
$GPRMC,144425.000,A,6418.6200,N,02014.4740,W,34.91,99.15,300812,,,A*72
$GPGGA,144426.000,6418.6184,N,02014.4521,W,1,09,1.2,126.6,M,60.4,M,,0000*41
$GPGSA,A,3,30,07,19,16,06,21,13,03,18,,,,1.7,1.2,1.3*33
$GPRMC,144426.000,A,6418.6184,N,02014.4521,W,34.71,99.74,300812,,,A*72
$GPGGA,144427.000,6418.6168,N,02014.4303,W,1,09,1.2,127.3,M,60.4,M,,0000*40
$GPGSA,A,3,30,07,19,16,06,21,13,03,18,,,,1.7,1.2,1.3*33
$GPRMC,144427.000,A,6418.6168,N,02014.4303,W,34.46,99.88,300812,,,A*70
$GPGGA,144428.000,6418.6153,N,02014.4091,W,1,09,1.2,127.9,M,60.4,M,,0000*45
$GPGSA,A,3,30,07,19,16,06,21,13,03,18,,,,1.7,1.2,1.3*33
$GPRMC,144428.000,A,6418.6153,N,02014.4091,W,33.45,99.76,300812,,,A*7A
$GPGGA,144429.000,6418.6139,N,02014.3889,W,1,09,1.2,128.6,M,60.4,M,,0000*4E
$GPGSA,A,3,30,07,19,16,06,21,13,03,18,,,,1.7,1.2,1.3*33
$GPRMC,144429.000,A,6418.6139,N,02014.3889,W,31.85,99.92,300812,,,A*75
$GPGGA,144430.000,6418.6125,N,02014.3693,W,1,09,1.2,129.2,M,60.4,M,,0000*4B
$GPGSA,A,3,30,07,19,16,06,21,13,03,18,,,,1.7,1.2,1.3*33
$GPGSV,3,1,12,16,71,181,32,06,66,218,34,03,50,239,36,21,47,081,30*7B
$GPGSV,3,2,12,30,43,148,31,07,31,311,35,19,20,240,36,13,13,277,34*7C
$GPGSV,3,3,12,18,11,108,28,05,09,003,30,08,03,336,23,26,01,026,*71
$GPRMC,144430.000,A,6418.6125,N,02014.3693,W,30.97,99.81,300812,,,A*75
$GPGGA,144431.000,6418.6111,N,02014.3499,W,1,09,1.2,129.9,M,60.4,M,,0000*4E
$GPGSA,A,3,30,07,19,16,06,21,13,03,18,,,,1.7,1.2,1.3*33
$GPRMC,144431.000,A,6418.6111,N,02014.3499,W,30.74,99.56,300812,,,A*7C
$GPGGA,144432.000,6418.6097,N,02014.3304,W,1,09,1.2,130.7,M,60.4,M,,0000*47
$GPGSA,A,3,30,07,19,16,06,21,13,03,18,,,,1.7,1.2,1.3*33
$GPRMC,144432.000,A,6418.6097,N,02014.3304,W,30.87,99.67,300812,,,A*7D
$GPGGA,144433.000,6418.6082,N,02014.3108,W,1,09,1.2,131.4,M,60.4,M,,0000*4E
$GPGSA,A,3,30,07,19,16,06,21,13,03,18,,,,1.7,1.2,1.3*33
$GPRMC,144433.000,A,6418.6082,N,02014.3108,W,31.09,99.94,300812,,,A*7D
$GPGGA,144434.000,6418.6067,N,02014.2912,W,1,09,1.2,132.2,M,60.4,M,,0000*45
$GPGSA,A,3,30,07,19,16,06,21,13,03,18,,,,1.7,1.2,1.3*33
$GPRMC,144434.000,A,6418.6067,N,02014.2912,W,31.06,100.01,300812,,,A*41
$GPGGA,144435.000,6418.6053,N,02014.2719,W,1,09,1.2,133.0,M,60.4,M,,0000*45
$GPGSA,A,3,30,07,19,16,06,21,13,03,18,,,,1.7,1.2,1.3*33
$GPGSV,3,1,12,16,71,180,32,06,66,217,33,03,51,239,37,21,47,080,30*73
$GPGSV,3,2,12,30,42,148,27,07,31,311,32,19,21,241,36,13,13,277,20*78
$GPGSV,3,3,12,18,12,108,26,05,09,003,30,08,04,336,30,26,01,026,*79
$GPRMC,144435.000,A,6418.6053,N,02014.2719,W,30.63,99.61,300812,,,A*77
$GPGGA,144436.000,6418.6039,N,02014.2529,W,1,09,1.2,133.9,M,60.4,M,,0000*42
$GPGSA,A,3,30,07,19,16,06,21,13,03,18,,,,1.7,1.2,1.3*33
$GPRMC,144436.000,A,6418.6039,N,02014.2529,W,30.29,99.58,300812,,,A*7D
$GPGGA,144437.000,6418.6026,N,02014.2341,W,1,09,1.2,134.8,M,60.4,M,,0000*43
$GPGSA,A,3,30,07,19,16,06,21,13,03,18,,,,1.7,1.2,1.3*33
$GPRMC,144437.000,A,6418.6026,N,02014.2341,W,29.86,99.46,300812,,,A*78
$GPGGA,144438.000,6418.6012,N,02014.2156,W,1,09,1.2,135.7,M,60.4,M,,0000*41
$GPGSA,A,3,30,07,19,16,06,21,13,03,18,,,,1.7,1.2,1.3*33
$GPRMC,144438.000,A,6418.6012,N,02014.2156,W,29.49,99.57,300812,,,A*77
$GPGGA,144439.000,6418.5998,N,02014.1973,W,1,09,1.2,136.6,M,60.4,M,,0000*46
$GPGSA,A,3,30,07,19,16,06,21,13,03,18,,,,1.7,1.2,1.3*33
$GPRMC,144439.000,A,6418.5998,N,02014.1973,W,29.21,99.75,300812,,,A*7C
$GPGGA,144440.000,6418.5985,N,02014.1792,W,1,09,1.2,137.5,M,60.4,M,,0000*47
$GPGSA,A,3,30,07,19,16,06,21,13,03,18,,,,1.7,1.2,1.3*33
$GPGSV,3,1,12,16,71,180,28,06,66,217,33,03,51,239,38,21,47,080,30*77
$GPGSV,3,2,12,30,42,148,27,07,31,311,33,19,21,241,36,13,13,277,28*71
$GPGSV,3,3,12,18,12,108,28,05,09,003,30,08,04,336,31,26,01,026,*76
$GPRMC,144440.000,A,6418.5985,N,02014.1792,W,28.89,99.64,300812,,,A*7C
$GPGGA,144441.000,6418.5971,N,02014.1612,W,1,09,1.2,138.4,M,60.4,M,,0000*4A
$GPGSA,A,3,30,07,19,16,06,21,13,03,18,,,,1.7,1.2,1.3*33
$GPRMC,144441.000,A,6418.5971,N,02014.1612,W,28.77,99.72,300812,,,A*79
$GPGGA,144442.000,6418.5958,N,02014.1432,W,1,09,1.2,139.2,M,60.4,M,,0000*45
$GPGSA,A,3,30,07,19,16,06,21,13,03,18,,,,1.7,1.2,1.3*33
$GPRMC,144442.000,A,6418.5958,N,02014.1432,W,28.71,99.64,300812,,,A*70
$GPGGA,144443.000,6418.5944,N,02014.1253,W,1,09,1.2,140.1,M,60.4,M,,0000*45
$GPGSA,A,3,30,07,19,16,06,21,13,03,18,,,,1.7,1.2,1.3*33
$GPRMC,144443.000,A,6418.5944,N,02014.1253,W,28.58,99.57,300812,,,A*76
$GPGGA,144444.000,6418.5931,N,02014.1075,W,1,08,1.3,140.9,M,60.4,M,,0000*4E
$GPGSA,A,3,30,07,19,16,06,21,13,03,,,,,2.3,1.3,1.9*36
$GPRMC,144444.000,A,6418.5931,N,02014.1075,W,28.45,99.60,300812,,,A*7D
$GPGGA,144445.000,6418.5918,N,02014.0900,W,1,09,1.2,141.8,M,60.4,M,,0000*4E
$GPGSA,A,3,30,07,19,16,06,21,13,03,18,,,,1.7,1.2,1.3*33
$GPGSV,3,1,12,16,71,180,31,06,66,217,33,03,51,239,37,21,47,080,30*70
$GPGSV,3,2,12,30,42,148,28,07,31,311,34,19,21,241,36,13,13,277,34*74
$GPGSV,3,3,12,18,12,108,31,05,09,003,29,08,04,336,31,26,01,026,24*70
$GPRMC,144445.000,A,6418.5918,N,02014.0900,W,28.03,99.48,300812,,,A*75
$GPGGA,144446.000,6418.5906,N,02014.0731,W,1,09,1.2,142.6,M,60.4,M,,0000*43
$GPGSA,A,3,30,07,19,16,06,21,13,03,18,,,,1.7,1.2,1.3*33
$GPRMC,144446.000,A,6418.5906,N,02014.0731,W,27.10,99.35,300812,,,A*72
$GPGGA,144447.000,6418.5895,N,02014.0568,W,1,09,1.2,143.4,M,60.4,M,,0000*44
$GPGSA,A,3,30,07,19,16,06,21,13,03,18,,,,1.7,1.2,1.3*33
$GPRMC,144447.000,A,6418.5895,N,02014.0568,W,26.25,99.60,300812,,,A*71
$GPGGA,144448.000,6418.5882,N,02014.0406,W,1,09,1.2,144.1,M,60.4,M,,0000*46
$GPGSA,A,3,30,07,19,16,06,21,13,03,18,,,,1.7,1.2,1.3*33
$GPRMC,144448.000,A,6418.5882,N,02014.0406,W,25.99,100.04,300812,,,A*46
$GPGGA,144449.000,6418.5870,N,02014.0243,W,1,09,1.2,144.6,M,60.4,M,,0000*4A
$GPGSA,A,3,30,07,19,16,06,21,13,03,18,,,,1.7,1.2,1.3*33
$GPRMC,144449.000,A,6418.5870,N,02014.0243,W,26.13,100.28,300812,,,A*42
$GPGGA,144450.000,6418.5857,N,02014.0079,W,1,09,1.2,145.1,M,60.4,M,,0000*4A
$GPGSA,A,3,30,07,19,16,06,21,13,03,18,,,,1.7,1.2,1.3*33
$GPGSV,3,1,12,16,71,180,31,06,66,217,33,03,51,239,34,21,47,080,23*71
$GPGSV,3,2,12,30,42,148,30,07,31,311,28,19,21,241,36,13,13,277,35*71
$GPGSV,3,3,12,18,12,108,31,05,09,003,32,08,04,336,31,26,01,026,23*7D
$GPRMC,144450.000,A,6418.5857,N,02014.0079,W,26.27,100.25,300812,,,A*4E
$GPGGA,144451.000,6418.5845,N,02013.9911,W,1,09,1.2,145.5,M,60.4,M,,0000*45
$GPGSA,A,3,30,07,19,16,06,21,13,03,18,,,,1.7,1.2,1.3*33
$GPRMC,144451.000,A,6418.5845,N,02013.9911,W,26.73,99.64,300812,,,A*70
$GPGGA,144452.000,6418.5833,N,02013.9741,W,1,09,1.2,145.8,M,60.4,M,,0000*41
$GPGSA,A,3,30,07,19,16,06,21,13,03,18,,,,1.7,1.2,1.3*33
$GPRMC,144452.000,A,6418.5833,N,02013.9741,W,27.14,99.40,300812,,,A*7F
$GPGGA,144453.000,6418.5821,N,02013.9568,W,1,09,1.2,146.1,M,60.4,M,,0000*40
$GPGSA,A,3,30,07,19,16,06,21,13,03,18,,,,1.7,1.2,1.3*33
$GPRMC,144453.000,A,6418.5821,N,02013.9568,W,27.58,99.25,300812,,,A*7F
$GPGGA,144454.000,6418.5808,N,02013.9392,W,1,09,1.2,146.3,M,60.4,M,,0000*4D
$GPGSA,A,3,30,07,19,16,06,21,13,03,18,,,,1.7,1.2,1.3*33
$GPRMC,144454.000,A,6418.5808,N,02013.9392,W,28.03,99.49,300812,,,A*7B
$GPGGA,144455.000,6418.5795,N,02013.9214,W,1,09,1.2,146.6,M,60.4,M,,0000*4D
$GPGSA,A,3,30,07,19,16,06,21,13,03,18,,,,1.7,1.2,1.3*33
$GPGSV,3,1,12,16,71,180,30,06,66,217,34,03,51,239,33,21,47,080,20*73
$GPGSV,3,2,12,30,42,148,31,07,31,311,28,19,21,241,36,13,13,277,35*70
$GPGSV,3,3,12,18,12,108,32,05,09,003,32,08,04,336,38,26,01,026,*76
$GPRMC,144455.000,A,6418.5795,N,02013.9214,W,28.38,99.30,300812,,,A*78
$GPGGA,144456.000,6418.5782,N,02013.9034,W,1,09,1.2,146.7,M,60.4,M,,0000*49
$GPGSA,A,3,30,07,19,16,06,21,13,03,18,,,,1.7,1.2,1.3*33
$GPRMC,144456.000,A,6418.5782,N,02013.9034,W,28.60,99.59,300812,,,A*7F
$GPGGA,144457.000,6418.5768,N,02013.8853,W,1,09,1.2,146.9,M,60.4,M,,0000*4A
$GPGSA,A,3,30,07,19,16,06,21,13,03,18,,,,1.7,1.2,1.3*33
$GPRMC,144457.000,A,6418.5768,N,02013.8853,W,28.70,99.89,300812,,,A*7E
$GPGGA,144458.000,6418.5755,N,02013.8670,W,1,09,1.2,147.0,M,60.4,M,,0000*4C
$GPGSA,A,3,30,07,19,16,06,21,13,03,18,,,,1.7,1.2,1.3*33
$GPRMC,144458.000,A,6418.5755,N,02013.8670,W,29.05,99.77,300812,,,A*72
$GPGGA,144459.000,6418.5741,N,02013.8485,W,1,09,1.2,147.1,M,60.4,M,,0000*41
$GPGSA,A,3,30,07,19,16,06,21,13,03,18,,,,1.7,1.2,1.3*33
$GPRMC,144459.000,A,6418.5741,N,02013.8485,W,29.39,99.70,300812,,,A*76
$GPGGA,144500.000,6418.5727,N,02013.8298,W,1,09,1.2,147.2,M,60.4,M,,0000*45
$GPGSA,A,3,30,07,19,16,06,21,13,03,18,,,,1.7,1.2,1.3*33
$GPGSV,3,1,12,16,71,180,30,06,66,217,34,03,51,239,33,21,47,080,28*7B
$GPGSV,3,2,12,30,42,148,31,07,31,311,28,19,21,241,36,13,13,277,36*73
$GPGSV,3,3,12,18,12,108,32,05,09,003,32,08,04,336,31,26,01,026,*7F
$GPRMC,144500.000,A,6418.5727,N,02013.8298,W,29.58,99.51,300812,,,A*75
$GPGGA,144501.000,6418.5713,N,02013.8112,W,1,09,1.2,147.3,M,60.4,M,,0000*43
$GPGSA,A,3,30,07,19,16,06,21,13,03,18,,,,1.7,1.2,1.3*33
$GPRMC,144501.000,A,6418.5713,N,02013.8112,W,29.57,99.66,300812,,,A*79
$GPGGA,144502.000,6418.5698,N,02013.7926,W,1,09,1.2,147.4,M,60.4,M,,0000*45
$GPGSA,A,3,30,07,19,16,06,21,13,03,18,,,,1.7,1.2,1.3*33
$GPRMC,144502.000,A,6418.5698,N,02013.7926,W,29.50,100.38,300812,,,A*45
$GPGGA,144503.000,6418.5683,N,02013.7741,W,1,09,1.2,147.5,M,60.4,M,,0000*40
$GPGSA,A,3,30,07,19,16,06,21,13,03,18,,,,1.7,1.2,1.3*33
$GPRMC,144503.000,A,6418.5683,N,02013.7741,W,29.30,100.61,300812,,,A*4B
$GPGGA,144504.000,6418.5669,N,02013.7557,W,1,09,1.2,147.6,M,60.4,M,,0000*45
$GPGSA,A,3,30,07,19,16,06,21,13,03,18,,,,1.7,1.2,1.3*33
$GPRMC,144504.000,A,6418.5669,N,02013.7557,W,29.10,100.06,300812,,,A*4E
$GPGGA,144505.000,6418.5655,N,02013.7375,W,1,09,1.2,147.7,M,60.4,M,,0000*4C
$GPGSA,A,3,30,07,19,16,06,21,13,03,18,,,,1.7,1.2,1.3*33
$GPGSV,3,1,12,16,71,180,29,06,66,217,35,03,51,239,36,21,47,080,29*76
$GPGSV,3,2,12,30,42,148,31,07,31,311,27,19,21,241,37,13,13,277,36*7D
$GPGSV,3,3,12,18,12,108,27,05,09,003,30,08,04,336,35,26,01,026,*7D
$GPRMC,144505.000,A,6418.5655,N,02013.7375,W,28.90,99.72,300812,,,A*7D
$GPGGA,144506.000,6418.5642,N,02013.7193,W,1,09,1.2,147.9,M,60.4,M,,0000*4D
$GPGSA,A,3,30,07,19,16,06,21,13,03,18,,,,1.7,1.2,1.3*33
$GPRMC,144506.000,A,6418.5642,N,02013.7193,W,28.72,99.49,300812,,,A*76
$GPGGA,144507.000,6418.5628,N,02013.7011,W,1,08,1.3,148.0,M,60.4,M,,0000*4D
$GPGSA,A,3,30,07,19,16,06,21,13,03,,,,,2.3,1.3,1.9*36
$GPRMC,144507.000,A,6418.5628,N,02013.7011,W,28.83,99.37,300812,,,A*77
$GPGGA,144508.000,6418.5615,N,02013.6827,W,1,08,1.3,148.2,M,60.4,M,,0000*42
$GPGSA,A,3,30,07,19,16,06,21,13,03,,,,,2.3,1.3,1.9*36
$GPRMC,144508.000,A,6418.5615,N,02013.6827,W,29.02,99.39,300812,,,A*7C
$GPGGA,144509.000,6418.5601,N,02013.6642,W,1,09,1.2,148.2,M,60.4,M,,0000*4B
$GPGSA,A,3,30,07,19,16,06,21,13,03,18,,,,1.7,1.2,1.3*33
$GPRMC,144509.000,A,6418.5601,N,02013.6642,W,29.28,99.57,300812,,,A*75
$GPGGA,144510.000,6418.5587,N,02013.6457,W,1,09,1.2,148.4,M,60.4,M,,0000*4E
$GPGSA,A,3,30,07,19,16,06,21,13,03,18,,,,1.7,1.2,1.3*33
$GPGSV,3,1,12,16,71,180,30,06,66,217,35,03,51,239,34,21,47,080,29*7C
$GPGSV,3,2,12,30,42,148,32,07,31,311,29,19,21,241,36,13,13,277,36*71
$GPGSV,3,3,12,18,12,108,28,05,09,003,30,08,04,336,23,26,01,026,*75
$GPRMC,144510.000,A,6418.5587,N,02013.6457,W,29.26,99.73,300812,,,A*7E
$GPGGA,144511.000,6418.5574,N,02013.6275,W,1,09,1.2,148.5,M,60.4,M,,0000*44
$GPGSA,A,3,30,07,19,16,06,21,13,03,18,,,,1.7,1.2,1.3*33
$GPRMC,144511.000,A,6418.5574,N,02013.6275,W,28.76,99.57,300812,,,A*77
$GPGGA,144512.000,6418.5561,N,02013.6099,W,1,09,1.2,148.6,M,60.4,M,,0000*40
$GPGSA,A,3,30,07,19,16,06,21,13,03,18,,,,1.7,1.2,1.3*33
$GPRMC,144512.000,A,6418.5561,N,02013.6099,W,27.89,99.75,300812,,,A*7F
$GPGGA,144513.000,6418.5547,N,02013.5922,W,1,09,1.2,148.7,M,60.4,M,,0000*4E
$GPGSA,A,3,30,07,19,16,06,21,13,03,18,,,,1.7,1.2,1.3*33
$GPRMC,144513.000,A,6418.5547,N,02013.5922,W,28.10,100.01,300812,,,A*4D
$GPGGA,144514.000,6418.5533,N,02013.5740,W,1,09,1.2,148.9,M,60.4,M,,0000*4E
$GPGSA,A,3,30,07,19,16,06,21,13,03,18,,,,1.7,1.2,1.3*33
$GPRMC,144514.000,A,6418.5533,N,02013.5740,W,28.75,99.65,300812,,,A*73
$GPGGA,144515.000,6418.5520,N,02013.5555,W,1,09,1.2,149.1,M,60.4,M,,0000*42
$GPGSA,A,3,30,07,19,16,06,21,13,03,18,,,,1.7,1.2,1.3*33
$GPGSV,3,1,12,16,71,180,31,06,66,217,34,03,51,239,34,21,47,080,30*74
$GPGSV,3,2,12,30,42,148,28,07,31,311,30,19,21,241,37,13,13,277,36*73
$GPGSV,3,3,12,18,12,108,29,05,09,003,30,08,04,336,34,26,01,026,*72
$GPRMC,144515.000,A,6418.5520,N,02013.5555,W,29.39,99.57,300812,,,A*7E
$GPGGA,144516.000,6418.5506,N,02013.5367,W,1,09,1.2,149.3,M,60.4,M,,0000*40
$GPGSA,A,3,30,07,19,16,06,21,13,03,18,,,,1.7,1.2,1.3*33
$GPRMC,144516.000,A,6418.5506,N,02013.5367,W,29.94,99.59,300812,,,A*77
$GPGGA,144517.000,6418.5492,N,02013.5176,W,1,09,1.2,149.6,M,60.4,M,,0000*4A
$GPGSA,A,3,30,07,19,16,06,21,13,03,18,,,,1.7,1.2,1.3*33
$GPRMC,144517.000,A,6418.5492,N,02013.5176,W,30.30,99.73,300812,,,A*76
$GPGGA,144518.000,6418.5478,N,02013.4984,W,1,09,1.2,150.0,M,60.4,M,,0000*4B
$GPGSA,A,3,30,07,19,16,06,21,13,03,18,,,,1.7,1.2,1.3*33
$GPRMC,144518.000,A,6418.5478,N,02013.4984,W,30.52,99.79,300812,,,A*77
$GPGGA,144519.000,6418.5463,N,02013.4792,W,1,09,1.2,150.4,M,60.4,M,,0000*4D
$GPGSA,A,3,30,07,19,16,06,21,13,03,18,,,,1.7,1.2,1.3*33
$GPRMC,144519.000,A,6418.5463,N,02013.4792,W,30.62,99.88,300812,,,A*78
$GPGGA,144520.000,6418.5448,N,02013.4602,W,1,09,1.2,151.0,M,60.4,M,,0000*43
$GPGSA,A,3,30,07,19,16,06,21,13,03,18,,,,1.7,1.2,1.3*33
$GPGSV,3,1,12,16,71,180,29,06,66,217,34,03,51,239,39,21,47,080,30*70
$GPGSV,3,2,12,30,42,148,27,07,31,311,32,19,21,241,37,13,13,277,35*7D
$GPGSV,3,3,12,18,12,108,29,05,09,003,30,08,04,336,33,26,01,026,*75
$GPRMC,144520.000,A,6418.5448,N,02013.4602,W,30.38,100.51,300812,,,A*49
$GPGGA,144521.000,6418.5433,N,02013.4411,W,1,09,1.2,151.7,M,60.4,M,,0000*49
$GPGSA,A,3,30,07,19,16,06,21,13,03,18,,,,1.7,1.2,1.3*33
$GPRMC,144521.000,A,6418.5433,N,02013.4411,W,30.36,100.11,300812,,,A*4E
$GPGGA,144522.000,6418.5419,N,02013.4222,W,1,09,1.2,152.3,M,60.4,M,,0000*43
$GPGSA,A,3,30,07,19,16,06,21,13,03,18,,,,1.7,1.2,1.3*33
$GPRMC,144522.000,A,6418.5419,N,02013.4222,W,30.26,99.92,300812,,,A*78
$GPGGA,144523.000,6418.5405,N,02013.4031,W,1,09,1.2,153.0,M,60.4,M,,0000*4D
$GPGSA,A,3,30,07,19,16,06,21,13,03,18,,,,1.7,1.2,1.3*33
$GPRMC,144523.000,A,6418.5405,N,02013.4031,W,30.30,99.60,300812,,,A*7E
$GPGGA,144524.000,6418.5391,N,02013.3842,W,1,09,1.2,153.7,M,60.4,M,,0000*4C
$GPGSA,A,3,30,07,19,16,06,21,13,03,18,,,,1.7,1.2,1.3*33
$GPRMC,144524.000,A,6418.5391,N,02013.3842,W,30.24,99.41,300812,,,A*7E
$GPGGA,144525.000,6418.5378,N,02013.3653,W,1,09,1.2,154.4,M,60.4,M,,0000*40
$GPGSA,A,3,30,07,19,16,06,21,13,03,18,,,,1.7,1.2,1.3*33
$GPGSV,3,1,12,16,71,179,25,06,66,217,33,03,51,239,39,21,46,080,32*7E
$GPGSV,3,2,12,30,42,148,27,07,31,311,32,19,21,241,37,13,12,277,35*7C
$GPGSV,3,3,12,18,12,108,26,05,09,002,30,08,04,336,31,26,01,026,25*7E
$GPRMC,144525.000,A,6418.5378,N,02013.3653,W,30.10,99.22,300812,,,A*74
$GPGGA,144526.000,6418.5363,N,02013.3465,W,1,09,1.2,155.1,M,60.4,M,,0000*4A
$GPGSA,A,3,30,07,19,16,06,21,13,03,18,,,,1.7,1.2,1.3*33
$GPRMC,144526.000,A,6418.5363,N,02013.3465,W,29.91,99.78,300812,,,A*74
$GPGGA,144527.000,6418.5349,N,02013.3279,W,1,09,1.2,155.8,M,60.4,M,,0000*41
$GPGSA,A,3,30,07,19,16,06,21,13,03,18,,,,1.7,1.2,1.3*33
$GPRMC,144527.000,A,6418.5349,N,02013.3279,W,29.74,99.68,300812,,,A*7C
$GPGGA,144528.000,6418.5336,N,02013.3093,W,1,09,1.2,156.5,M,60.4,M,,0000*4E
$GPGSA,A,3,30,07,19,16,06,21,13,03,18,,,,1.7,1.2,1.3*33
$GPRMC,144528.000,A,6418.5336,N,02013.3093,W,29.74,99.40,300812,,,A*77
$GPGGA,144529.000,6418.5322,N,02013.2906,W,1,09,1.2,157.3,M,60.4,M,,0000*49
$GPGSA,A,3,30,07,19,16,06,21,13,03,18,,,,1.7,1.2,1.3*33
$GPRMC,144529.000,A,6418.5322,N,02013.2906,W,29.78,99.41,300812,,,A*7A
$GPGGA,144530.000,6418.5308,N,02013.2720,W,1,09,1.2,158.0,M,60.4,M,,0000*4F
$GPGSA,A,3,30,07,19,16,06,21,13,03,18,,,,1.7,1.2,1.3*33
$GPGSV,3,1,12,16,71,179,31,06,66,217,33,03,51,239,39,21,46,080,34*7D
$GPGSV,3,2,12,30,41,148,33,07,31,311,29,19,21,241,37,13,12,277,35*70
$GPGSV,3,3,12,18,12,108,27,05,09,002,25,08,04,336,33,26,01,026,25*79
$GPRMC,144530.000,A,6418.5308,N,02013.2720,W,29.93,100.26,300812,,,A*45
$GPGGA,144531.000,6418.5292,N,02013.2533,W,1,09,1.2,158.7,M,60.4,M,,0000*4B
$GPGSA,A,3,30,07,19,16,06,21,13,03,18,,,,1.7,1.2,1.3*33
$GPRMC,144531.000,A,6418.5292,N,02013.2533,W,29.87,100.58,300812,,,A*4A
$GPGGA,144532.000,6418.5278,N,02013.2348,W,1,09,1.2,159.5,M,60.4,M,,0000*45
$GPGSA,A,3,30,07,19,16,06,21,13,03,18,,,,1.7,1.2,1.3*33
$GPRMC,144532.000,A,6418.5278,N,02013.2348,W,29.77,100.33,300812,,,A*45
$GPGGA,144533.000,6418.5264,N,02013.2162,W,1,09,1.2,160.2,M,60.4,M,,0000*4E
$GPGSA,A,3,30,07,19,16,06,21,13,03,18,,,,1.7,1.2,1.3*33
$GPRMC,144533.000,A,6418.5264,N,02013.2162,W,29.69,99.86,300812,,,A*73
$GPGGA,144534.000,6418.5250,N,02013.1977,W,1,09,1.2,160.9,M,60.4,M,,0000*4A
$GPGSA,A,3,30,07,19,16,06,21,13,03,18,,,,1.7,1.2,1.3*33
$GPRMC,144534.000,A,6418.5250,N,02013.1977,W,29.61,99.49,300812,,,A*77
$GPGGA,144535.000,6418.5236,N,02013.1791,W,1,09,1.2,161.6,M,60.4,M,,0000*43
$GPGSA,A,3,30,07,19,16,06,21,13,03,18,,,,1.7,1.2,1.3*33
$GPGSV,3,1,12,16,71,179,33,06,66,217,34,03,51,239,39,21,46,080,34*78
$GPGSV,3,2,12,30,41,148,33,07,31,311,29,19,21,241,37,13,12,277,35*70
$GPGSV,3,3,12,18,12,108,28,05,09,002,27,08,04,336,28,26,01,026,31*7B
$GPRMC,144535.000,A,6418.5236,N,02013.1791,W,29.69,99.56,300812,,,A*76
$GPGGA,144536.000,6418.5222,N,02013.1605,W,1,09,1.2,162.3,M,60.4,M,,0000*4F
$GPGSA,A,3,30,07,19,16,06,21,13,03,18,,,,1.7,1.2,1.3*33
$GPRMC,144536.000,A,6418.5222,N,02013.1605,W,29.85,99.82,300812,,,A*77
$GPGGA,144537.000,6418.5208,N,02013.1418,W,1,09,1.2,162.9,M,60.4,M,,0000*42
$GPGSA,A,3,30,07,19,16,06,21,13,03,18,,,,1.7,1.2,1.3*33
$GPRMC,144537.000,A,6418.5208,N,02013.1418,W,29.97,100.03,300812,,,A*4B
$GPGGA,144538.000,6418.5192,N,02013.1230,W,1,09,1.2,163.6,M,60.4,M,,0000*4F
$GPGSA,A,3,30,07,19,16,06,21,13,03,18,,,,1.7,1.2,1.3*33
$GPRMC,144538.000,A,6418.5192,N,02013.1230,W,30.08,100.62,300812,,,A*41
$GPGGA,144539.000,6418.5176,N,02013.1043,W,1,09,1.2,164.3,M,60.4,M,,0000*40
$GPGSA,A,3,30,07,19,16,06,21,13,03,18,,,,1.7,1.2,1.3*33
$GPRMC,144539.000,A,6418.5176,N,02013.1043,W,30.10,100.81,300812,,,A*48
$GPGGA,144540.000,6418.5164,N,02013.0854,W,1,09,1.2,164.9,M,60.4,M,,0000*48
$GPGSA,A,3,30,07,19,16,06,21,13,03,18,,,,1.7,1.2,1.3*33
$GPGSV,3,1,12,16,71,179,32,06,66,217,34,03,51,239,26,21,46,080,35*76
$GPGSV,3,2,12,30,41,148,32,07,31,311,28,19,21,241,36,13,12,277,35*71
$GPGSV,3,3,12,18,12,108,29,05,09,002,27,08,04,336,30,26,01,026,24*77
$GPRMC,144540.000,A,6418.5164,N,02013.0854,W,30.06,98.52,300812,,,A*73
$GPGGA,144541.000,6418.5151,N,02013.0666,W,1,09,1.2,165.6,M,60.4,M,,0000*4E
$GPGSA,A,3,30,07,19,16,06,21,13,03,18,,,,1.7,1.2,1.3*33
$GPRMC,144541.000,A,6418.5151,N,02013.0666,W,29.97,98.74,300812,,,A*7F
$GPGGA,144542.000,6418.5137,N,02013.0478,W,1,09,1.2,166.1,M,60.4,M,,0000*44
$GPGSA,A,3,30,07,19,16,06,21,13,03,18,,,,1.7,1.2,1.3*33
$GPRMC,144542.000,A,6418.5137,N,02013.0478,W,30.06,99.40,300812,,,A*77
$GPGGA,144543.000,6418.5123,N,02013.0289,W,1,09,1.2,166.8,M,60.4,M,,0000*41
$GPGSA,A,3,30,07,19,16,06,21,13,03,18,,,,1.7,1.2,1.3*33
$GPRMC,144543.000,A,6418.5123,N,02013.0289,W,30.10,99.73,300812,,,A*7C
$GPGGA,144544.000,6418.5109,N,02013.0101,W,1,09,1.2,167.4,M,60.4,M,,0000*40
$GPGSA,A,3,30,07,19,16,06,21,13,03,18,,,,1.7,1.2,1.3*33
$GPRMC,144544.000,A,6418.5109,N,02013.0101,W,30.11,99.72,300812,,,A*70
$GPGGA,144545.000,6418.5095,N,02012.9913,W,1,09,1.2,168.0,M,60.4,M,,0000*4D
$GPGSA,A,3,30,07,19,16,06,21,13,03,18,,,,1.7,1.2,1.3*33
$GPGSV,3,1,12,16,71,179,33,06,66,217,35,03,51,239,35,21,46,080,34*75
$GPGSV,3,2,12,30,41,148,33,07,31,311,28,19,21,241,37,13,12,277,35*71
$GPGSV,3,3,12,18,12,108,29,05,09,002,28,08,04,336,33,26,01,026,20*7F
$GPRMC,144545.000,A,6418.5095,N,02012.9913,W,30.04,99.49,300812,,,A*7A
$GPGGA,144546.000,6418.5081,N,02012.9725,W,1,09,1.2,168.7,M,60.4,M,,0000*47
$GPGSA,A,3,30,07,19,16,06,21,13,03,18,,,,1.7,1.2,1.3*33
$GPRMC,144546.000,A,6418.5081,N,02012.9725,W,29.88,99.59,300812,,,A*7A
$GPGGA,144547.000,6418.5067,N,02012.9539,W,1,09,1.2,169.4,M,60.4,M,,0000*43
$GPGSA,A,3,30,07,19,16,06,21,13,03,18,,,,1.7,1.2,1.3*33
$GPRMC,144547.000,A,6418.5067,N,02012.9539,W,29.69,99.65,300812,,,A*7C
$GPGGA,144548.000,6418.5053,N,02012.9355,W,1,09,1.2,170.2,M,60.4,M,,0000*49
$GPGSA,A,3,30,07,19,16,06,21,13,03,18,,,,1.7,1.2,1.3*33
$GPRMC,144548.000,A,6418.5053,N,02012.9355,W,29.44,99.93,300812,,,A*7E
$GPGGA,144549.000,6418.5038,N,02012.9172,W,1,09,1.2,171.0,M,60.4,M,,0000*41
$GPGSA,A,3,30,07,19,16,06,21,13,03,18,,,,1.7,1.2,1.3*33
$GPRMC,144549.000,A,6418.5038,N,02012.9172,W,29.21,100.19,300812,,,A*45
$GPGGA,144550.000,6418.5024,N,02012.8990,W,1,09,1.2,171.8,M,60.4,M,,0000*49
$GPGSA,A,3,30,07,19,16,06,21,13,03,18,,,,1.7,1.2,1.3*33
$GPGSV,3,1,12,16,71,179,35,06,66,217,32,03,51,239,38,21,46,080,34*79
$GPGSV,3,2,12,30,41,148,26,07,31,311,36,19,21,241,36,13,12,277,30*7E
$GPGSV,3,3,12,18,12,108,30,05,09,002,29,08,04,336,35,26,01,026,29*79
$GPRMC,144550.000,A,6418.5024,N,02012.8990,W,29.17,100.00,300812,,,A*48
$GPGGA,144551.000,6418.5010,N,02012.8807,W,1,09,1.2,172.6,M,60.4,M,,0000*4D
$GPGSA,A,3,30,07,19,16,06,21,13,03,18,,,,1.7,1.2,1.3*33
$GPRMC,144551.000,A,6418.5010,N,02012.8807,W,29.27,99.68,300812,,,A*7D
$GPGGA,144552.000,6418.4996,N,02012.8622,W,1,09,1.2,173.5,M,60.4,M,,0000*43
$GPGSA,A,3,30,07,19,16,06,21,13,03,18,,,,1.7,1.2,1.3*33
$GPRMC,144552.000,A,6418.4996,N,02012.8622,W,29.43,99.44,300812,,,A*7D
$GPGGA,144553.000,6418.4981,N,02012.8437,W,1,09,1.2,174.3,M,60.4,M,,0000*43
$GPGSA,A,3,30,07,19,16,06,21,13,03,18,,,,1.7,1.2,1.3*33
$GPRMC,144553.000,A,6418.4981,N,02012.8437,W,29.65,99.85,300812,,,A*75
$GPGGA,144554.000,6418.4966,N,02012.8250,W,1,09,1.2,175.1,M,60.4,M,,0000*49
$GPGSA,A,3,30,07,19,16,06,21,13,03,18,,,,1.7,1.2,1.3*33
$GPRMC,144554.000,A,6418.4966,N,02012.8250,W,29.88,100.19,300812,,,A*4B
$GPGGA,144555.000,6418.4951,N,02012.8062,W,1,09,1.2,175.9,M,60.4,M,,0000*47
$GPGSA,A,3,30,07,19,16,06,21,13,03,18,,,,1.7,1.2,1.3*33
$GPGSV,3,1,12,16,71,179,35,06,66,217,31,03,51,239,39,21,46,080,33*7C
$GPGSV,3,2,12,30,41,148,26,07,31,311,35,19,21,241,36,13,12,277,31*7C
$GPGSV,3,3,12,18,12,108,30,05,09,002,30,08,04,336,35,26,01,026,19*72
$GPRMC,144555.000,A,6418.4951,N,02012.8062,W,30.08,100.11,300812,,,A*45
$GPGGA,144556.000,6418.4936,N,02012.7872,W,1,09,1.2,176.7,M,60.4,M,,0000*4E
$GPGSA,A,3,30,07,19,16,06,21,13,03,18,,,,1.7,1.2,1.3*33
$GPRMC,144556.000,A,6418.4936,N,02012.7872,W,30.22,99.71,300812,,,A*7E
$GPGGA,144557.000,6418.4922,N,02012.7682,W,1,09,1.2,177.4,M,60.4,M,,0000*49
$GPGSA,A,3,30,07,19,16,06,21,13,03,18,,,,1.7,1.2,1.3*33
$GPRMC,144557.000,A,6418.4922,N,02012.7682,W,30.37,99.56,300812,,,A*7A
$GPGGA,144558.000,6418.4907,N,02012.7491,W,1,09,1.2,178.1,M,60.4,M,,0000*4B
$GPGSA,A,3,30,07,19,16,06,21,13,03,18,,,,1.7,1.2,1.3*33
$GPRMC,144558.000,A,6418.4907,N,02012.7491,W,30.58,99.74,300812,,,A*7B
$GPGGA,144559.000,6418.4892,N,02012.7298,W,1,09,1.2,178.8,M,60.4,M,,0000*41
$GPGSA,A,3,30,07,19,16,06,21,13,03,18,,,,1.7,1.2,1.3*33
$GPRMC,144559.000,A,6418.4892,N,02012.7298,W,30.75,99.85,300812,,,A*79
$GPGGA,144600.000,6418.4876,N,02012.7105,W,1,09,1.2,179.5,M,60.4,M,,0000*4F
$GPGSA,A,3,30,07,19,16,06,21,13,03,18,,,,1.7,1.2,1.3*33
$GPGSV,3,1,12,16,71,179,29,06,66,217,32,03,51,239,38,21,46,080,32*72
$GPGSV,3,2,12,30,41,148,26,07,31,311,33,19,21,241,36,13,12,277,33*78
$GPGSV,3,3,12,18,12,108,30,05,09,002,30,08,04,336,33,26,01,026,26*78
$GPRMC,144600.000,A,6418.4876,N,02012.7105,W,30.88,100.19,300812,,,A*4D
$GPGGA,144601.000,6418.4861,N,02012.6910,W,1,09,1.2,180.1,M,60.4,M,,0000*47
$GPGSA,A,3,30,07,19,16,06,21,13,03,18,,,,1.7,1.2,1.3*33
$GPRMC,144601.000,A,6418.4861,N,02012.6910,W,31.06,99.60,300812,,,A*7F
$GPGGA,144602.000,6418.4847,N,02012.6715,W,1,09,1.2,180.6,M,60.4,M,,0000*4C
$GPGSA,A,3,30,07,19,16,06,21,13,03,18,,,,1.7,1.2,1.3*33
$GPRMC,144602.000,A,6418.4847,N,02012.6715,W,31.19,99.32,300812,,,A*7A
$GPGGA,144603.000,6418.4832,N,02012.6517,W,1,09,1.2,181.2,M,60.4,M,,0000*4A
$GPGSA,A,3,30,07,19,16,06,21,13,03,18,,,,1.7,1.2,1.3*33
$GPRMC,144603.000,A,6418.4832,N,02012.6517,W,31.45,99.41,300812,,,A*74
$GPGGA,144604.000,6418.4817,N,02012.6318,W,1,09,1.2,181.7,M,60.4,M,,0000*46
$GPGSA,A,3,30,07,19,16,06,21,13,03,18,,,,1.7,1.2,1.3*33
$GPRMC,144604.000,A,6418.4817,N,02012.6318,W,31.75,99.57,300812,,,A*79
$GPGGA,144605.000,6418.4802,N,02012.6118,W,1,09,1.2,182.2,M,60.4,M,,0000*47
$GPGSA,A,3,30,07,19,16,06,21,13,03,18,,,,1.7,1.2,1.3*33
$GPGSV,3,1,12,16,71,179,30,06,66,217,33,03,51,239,37,21,46,080,31*77
$GPGSV,3,2,12,30,41,148,27,07,31,311,32,19,21,241,36,13,12,277,33*78
$GPGSV,3,3,12,18,12,108,30,05,09,002,31,08,04,336,29,26,01,026,26*72
$GPRMC,144605.000,A,6418.4802,N,02012.6118,W,31.95,99.72,300812,,,A*77
$GPGGA,144606.000,6418.4787,N,02012.5916,W,1,09,1.2,182.7,M,60.4,M,,0000*46
$GPGSA,A,3,30,07,19,16,06,21,13,03,18,,,,1.7,1.2,1.3*33
$GPRMC,144606.000,A,6418.4787,N,02012.5916,W,32.05,99.54,300812,,,A*7D
$GPGGA,144607.000,6418.4772,N,02012.5715,W,1,09,1.2,183.3,M,60.4,M,,0000*45
$GPGSA,A,3,30,07,19,16,06,21,13,03,18,,,,1.7,1.2,1.3*33
$GPRMC,144607.000,A,6418.4772,N,02012.5715,W,32.04,99.47,300812,,,A*78
$GPGGA,144608.000,6418.4756,N,02012.5514,W,1,09,1.2,183.8,M,60.4,M,,0000*44
$GPGSA,A,3,30,07,19,16,06,21,13,03,18,,,,1.7,1.2,1.3*33
$GPRMC,144608.000,A,6418.4756,N,02012.5514,W,31.97,99.51,300812,,,A*7C
$GPGGA,144609.000,6418.4741,N,02012.5313,W,1,09,1.2,184.2,M,60.4,M,,0000*4F
$GPGSA,A,3,30,07,19,16,06,21,13,03,18,,,,1.7,1.2,1.3*33
$GPRMC,144609.000,A,6418.4741,N,02012.5313,W,32.01,99.48,300812,,,A*7E
$GPGGA,144610.000,6418.4726,N,02012.5112,W,1,09,1.2,184.7,M,60.4,M,,0000*40
$GPGSA,A,3,30,07,19,16,06,21,13,03,18,,,,1.7,1.2,1.3*33
$GPGSV,3,1,12,16,71,179,29,06,66,217,33,03,51,239,37,21,46,080,31*7F
$GPGSV,3,2,12,30,41,148,23,07,31,311,33,19,21,241,36,13,12,277,34*7A
$GPGSV,3,3,12,18,12,108,30,05,09,002,31,08,04,336,36,26,01,026,26*7C
$GPRMC,144610.000,A,6418.4726,N,02012.5112,W,32.04,99.84,300812,,,A*71
$GPGGA,144611.000,6418.4710,N,02012.4912,W,1,09,1.2,185.2,M,60.4,M,,0000*49
$GPGSA,A,3,30,07,19,16,06,21,13,03,18,,,,1.7,1.2,1.3*33
$GPRMC,144611.000,A,6418.4710,N,02012.4912,W,31.74,99.99,300812,,,A*74
$GPGGA,144612.000,6418.4695,N,02012.4714,W,1,09,1.2,185.6,M,60.4,M,,0000*4A
$GPGSA,A,3,30,07,19,16,06,21,13,03,18,,,,1.7,1.2,1.3*33
$GPRMC,144612.000,A,6418.4695,N,02012.4714,W,31.51,99.95,300812,,,A*78
$GPGGA,144613.000,6418.4679,N,02012.4516,W,1,09,1.2,186.1,M,60.4,M,,0000*4D
$GPGSA,A,3,30,07,19,16,06,21,13,03,18,,,,1.7,1.2,1.3*33
$GPRMC,144613.000,A,6418.4679,N,02012.4516,W,31.53,99.85,300812,,,A*78
$GPGGA,144614.000,6418.4664,N,02012.4317,W,1,09,1.2,186.5,M,60.4,M,,0000*45
$GPGSA,A,3,30,07,19,16,06,21,13,03,18,,,,1.7,1.2,1.3*33
$GPRMC,144614.000,A,6418.4664,N,02012.4317,W,31.71,99.87,300812,,,A*76
$GPGGA,144615.000,6418.4649,N,02012.4117,W,1,09,1.2,186.9,M,60.4,M,,0000*45
$GPGSA,A,3,30,07,19,16,06,21,13,03,18,,,,1.7,1.2,1.3*33
$GPGSV,3,1,12,16,71,179,27,06,66,217,33,03,51,239,37,21,46,080,30*70
$GPGSV,3,2,12,30,41,148,25,07,31,311,33,19,21,241,36,13,12,277,34*7C
$GPGSV,3,3,12,18,12,108,30,05,09,002,29,08,04,336,31,26,01,026,27*73
$GPRMC,144615.000,A,6418.4649,N,02012.4117,W,31.82,99.76,300812,,,A*78
$GPGGA,144616.000,6418.4633,N,02012.3916,W,1,08,1.2,187.3,M,60.4,M,,0000*4F
$GPGSA,A,3,30,07,19,06,21,13,03,18,,,,,1.9,1.2,1.5*3C
$GPRMC,144616.000,A,6418.4633,N,02012.3916,W,32.00,99.77,300812,,,A*70
$GPGGA,144617.000,6418.4618,N,02012.3713,W,1,09,1.2,187.6,M,60.4,M,,0000*48
$GPGSA,A,3,30,07,19,16,06,21,13,03,18,,,,1.7,1.2,1.3*33
$GPRMC,144617.000,A,6418.4618,N,02012.3713,W,32.29,99.70,300812,,,A*7F
$GPGGA,144618.000,6418.4603,N,02012.3508,W,1,09,1.2,187.9,M,60.4,M,,0000*4A
$GPGSA,A,3,30,07,19,16,06,21,13,03,18,,,,1.7,1.2,1.3*33
$GPRMC,144618.000,A,6418.4603,N,02012.3508,W,32.53,99.68,300812,,,A*76
$GPGGA,144619.000,6418.4587,N,02012.3304,W,1,09,1.2,188.1,M,60.4,M,,0000*49
$GPGSA,A,3,30,07,19,16,06,21,13,03,18,,,,1.7,1.2,1.3*33
$GPRMC,144619.000,A,6418.4587,N,02012.3304,W,32.55,99.82,300812,,,A*70
$GPGGA,144620.000,6418.4571,N,02012.3098,W,1,09,1.2,188.2,M,60.4,M,,0000*4F
$GPGSA,A,3,30,07,19,16,06,21,13,03,18,,,,1.7,1.2,1.3*33
$GPGSV,3,1,12,16,71,179,32,06,66,217,33,03,51,239,32,21,46,080,30*71
$GPGSV,3,2,12,30,41,148,24,07,31,311,24,19,21,241,36,13,12,277,20*7E
$GPGSV,3,3,12,18,12,108,30,05,09,002,29,08,04,336,29,26,01,026,27*7A
$GPRMC,144620.000,A,6418.4571,N,02012.3098,W,32.72,99.84,300812,,,A*76
$GPGGA,144621.000,6418.4556,N,02012.2890,W,1,09,1.2,188.2,M,60.4,M,,0000*4A
$GPGSA,A,3,30,07,19,16,06,21,13,03,18,,,,1.7,1.2,1.3*33
$GPRMC,144621.000,A,6418.4556,N,02012.2890,W,32.97,99.56,300812,,,A*77
$GPGGA,144622.000,6418.4540,N,02012.2681,W,1,09,1.2,188.2,M,60.4,M,,0000*40
$GPGSA,A,3,30,07,19,16,06,21,13,03,18,,,,1.7,1.2,1.3*33
$GPRMC,144622.000,A,6418.4540,N,02012.2681,W,33.34,99.66,300812,,,A*76
$GPGGA,144623.000,6418.4526,N,02012.2470,W,1,09,1.2,188.1,M,60.4,M,,0000*4E
$GPGSA,A,3,30,07,19,16,06,21,13,03,18,,,,1.7,1.2,1.3*33
$GPRMC,144623.000,A,6418.4526,N,02012.2470,W,33.53,98.98,300812,,,A*7A
$GPGGA,144624.000,6418.4512,N,02012.2255,W,1,09,1.2,188.0,M,60.4,M,,0000*4E
$GPGSA,A,3,30,07,19,16,06,21,13,03,18,,,,1.7,1.2,1.3*33
$GPRMC,144624.000,A,6418.4512,N,02012.2255,W,34.14,98.85,300812,,,A*73
$GPGGA,144625.000,6418.4498,N,02012.2040,W,1,09,1.2,187.9,M,60.4,M,,0000*4C
$GPGSA,A,3,30,07,19,16,06,21,13,03,18,,,,1.7,1.2,1.3*33
$GPGSV,3,1,12,16,71,179,33,06,66,217,34,03,51,239,24,21,46,080,30*70
$GPGSV,3,2,12,30,41,148,25,07,31,311,24,19,21,241,36,13,12,277,21*7E
$GPGSV,3,3,12,18,12,108,29,05,09,002,30,08,04,336,32,26,01,026,26*71
$GPRMC,144625.000,A,6418.4498,N,02012.2040,W,34.31,99.17,300812,,,A*7A
$GPGGA,144626.000,6418.4484,N,02012.1823,W,1,09,1.2,187.8,M,60.4,M,,0000*4D
$GPGSA,A,3,30,07,19,16,06,21,13,03,18,,,,1.7,1.2,1.3*33
$GPRMC,144626.000,A,6418.4484,N,02012.1823,W,34.51,99.41,300812,,,A*7F
$GPGGA,144627.000,6418.4468,N,02012.1606,W,1,09,1.2,187.7,M,60.4,M,,0000*48
$GPGSA,A,3,30,07,19,16,06,21,13,03,18,,,,1.7,1.2,1.3*33
$GPRMC,144627.000,A,6418.4468,N,02012.1606,W,34.67,99.71,300812,,,A*73
$GPGGA,144628.000,6418.4452,N,02012.1389,W,1,09,1.2,187.6,M,60.4,M,,0000*4D
$GPGSA,A,3,30,07,19,16,06,21,13,03,18,,,,1.7,1.2,1.3*33
$GPRMC,144628.000,A,6418.4452,N,02012.1389,W,34.47,99.90,300812,,,A*7A
$GPGGA,144629.000,6418.4436,N,02012.1176,W,1,09,1.2,187.5,M,60.4,M,,0000*4F
$GPGSA,A,3,30,07,19,16,06,21,13,03,18,,,,1.7,1.2,1.3*33
$GPRMC,144629.000,A,6418.4436,N,02012.1176,W,33.87,99.88,300812,,,A*79
$GPGGA,144630.000,6418.4420,N,02012.0960,W,1,09,1.2,187.4,M,60.4,M,,0000*4F
$GPGSA,A,3,30,07,19,16,06,21,13,03,18,,,,1.7,1.2,1.3*33
$GPGSV,3,1,12,16,71,179,25,06,66,217,33,03,51,239,33,21,46,080,24*73
$GPGSV,3,2,12,30,41,148,33,07,31,311,31,19,21,241,36,13,12,277,28*74
$GPGSV,3,3,12,18,12,108,21,05,09,002,30,08,04,336,34,26,01,026,21*78
$GPRMC,144630.000,A,6418.4420,N,02012.0960,W,34.37,99.95,300812,,,A*78
$GPGGA,144631.000,6418.4403,N,02012.0742,W,1,09,1.2,187.3,M,60.4,M,,0000*46
$GPGSA,A,3,30,07,19,16,06,21,13,03,18,,,,1.7,1.2,1.3*33
$GPRMC,144631.000,A,6418.4403,N,02012.0742,W,34.72,100.09,300812,,,A*43
$GPGGA,144632.000,6418.4387,N,02012.0522,W,1,09,1.2,187.1,M,60.4,M,,0000*48
$GPGSA,A,3,30,07,19,16,06,21,13,03,18,,,,1.7,1.2,1.3*33
$GPRMC,144632.000,A,6418.4387,N,02012.0522,W,35.02,100.00,300812,,,A*40
$GPGGA,144633.000,6418.4370,N,02012.0301,W,1,09,1.2,187.0,M,60.4,M,,0000*47
$GPGSA,A,3,30,07,19,16,06,21,13,03,18,,,,1.7,1.2,1.3*33
$GPRMC,144633.000,A,6418.4370,N,02012.0301,W,35.03,100.00,300812,,,A*4F
$GPGGA,144634.000,6418.4353,N,02012.0078,W,1,09,1.2,187.0,M,60.4,M,,0000*4C
$GPGSA,A,3,30,07,19,16,06,21,13,03,18,,,,1.7,1.2,1.3*33
$GPRMC,144634.000,A,6418.4353,N,02012.0078,W,35.36,99.60,300812,,,A*75
$GPGGA,144635.000,6418.4336,N,02011.9854,W,1,09,1.2,187.0,M,60.4,M,,0000*42
$GPGSA,A,3,30,07,19,16,06,21,13,03,18,,,,1.7,1.2,1.3*33
$GPGSV,3,1,12,16,71,179,29,06,66,217,34,03,51,239,35,21,46,080,24*7E
$GPGSV,3,2,12,30,41,148,33,07,31,311,29,19,21,241,36,13,12,277,34*70
$GPGSV,3,3,12,18,12,108,29,05,09,002,34,08,04,336,36,26,01,026,28*7F
$GPRMC,144635.000,A,6418.4336,N,02011.9854,W,35.50,99.85,300812,,,A*70
$GPGGA,144636.000,6418.4319,N,02011.9629,W,1,09,1.2,187.0,M,60.4,M,,0000*48
$GPGSA,A,3,30,07,19,16,06,21,13,03,18,,,,1.7,1.2,1.3*33
$GPRMC,144636.000,A,6418.4319,N,02011.9629,W,35.73,100.22,300812,,,A*47
$GPGGA,144637.000,6418.4301,N,02011.9401,W,1,09,1.2,187.0,M,60.4,M,,0000*48
$GPGSA,A,3,30,07,19,16,06,21,13,03,18,,,,1.7,1.2,1.3*33
$GPRMC,144637.000,A,6418.4301,N,02011.9401,W,36.09,100.21,300812,,,A*4A
$GPGGA,144638.000,6418.4282,N,02011.9172,W,1,09,1.2,187.1,M,60.4,M,,0000*4D
$GPGSA,A,3,30,07,19,16,06,21,13,03,18,,,,1.7,1.2,1.3*33
$GPRMC,144638.000,A,6418.4282,N,02011.9172,W,36.35,100.47,300812,,,A*41
$GPGGA,144639.000,6418.4264,N,02011.8941,W,1,09,1.2,187.3,M,60.4,M,,0000*4F
$GPGSA,A,3,30,07,19,16,06,21,13,03,18,,,,1.7,1.2,1.3*33
$GPRMC,144639.000,A,6418.4264,N,02011.8941,W,36.65,100.10,300812,,,A*46
$GPGGA,144640.000,6418.4246,N,02011.8708,W,1,09,1.2,187.5,M,60.4,M,,0000*44
$GPGSA,A,3,30,07,19,16,06,21,13,03,18,,,,1.7,1.2,1.3*33
$GPGSV,3,1,12,16,71,179,30,06,66,217,33,03,51,239,37,21,46,080,24*73
$GPGSV,3,2,12,30,41,148,32,07,31,311,30,19,21,241,36,13,12,277,34*79
$GPGSV,3,3,12,18,12,108,30,05,09,002,34,08,04,336,35,26,01,026,26*7A
$GPRMC,144640.000,A,6418.4246,N,02011.8708,W,36.73,100.02,300812,,,A*4F
$GPGGA,144641.000,6418.4227,N,02011.8477,W,1,08,1.6,187.8,M,60.4,M,,0000*41
$GPGSA,A,3,30,19,16,06,21,13,03,18,,,,,2.1,1.6,1.3*35
$GPRMC,144641.000,A,6418.4227,N,02011.8477,W,36.64,100.02,300812,,,A*44
$GPGGA,144642.000,6418.4210,N,02011.8247,W,1,09,1.2,188.3,M,60.4,M,,0000*42
$GPGSA,A,3,30,07,19,16,06,21,13,03,18,,,,1.7,1.2,1.3*33
$GPRMC,144642.000,A,6418.4210,N,02011.8247,W,36.39,99.87,300812,,,A*72
$GPGGA,144643.000,6418.4191,N,02011.8018,W,1,09,1.2,188.9,M,60.4,M,,0000*4B
$GPGSA,A,3,30,07,19,16,06,21,13,03,18,,,,1.7,1.2,1.3*33
$GPRMC,144643.000,A,6418.4191,N,02011.8018,W,36.22,100.29,300812,,,A*4E
$GPGGA,144644.000,6418.4172,N,02011.7791,W,1,09,1.2,189.5,M,60.4,M,,0000*45
$GPGSA,A,3,30,07,19,16,06,21,13,03,18,,,,1.7,1.2,1.3*33
$GPRMC,144644.000,A,6418.4172,N,02011.7791,W,36.02,100.81,300812,,,A*4D
$GPGGA,144645.000,6418.4152,N,02011.7566,W,1,09,1.2,190.2,M,60.4,M,,0000*43
$GPGSA,A,3,30,07,19,16,06,21,13,03,18,,,,1.7,1.2,1.3*33
$GPGSV,3,1,12,16,70,178,36,06,67,216,30,03,52,239,39,21,46,079,26*7F
$GPGSV,3,2,12,30,41,148,24,07,32,310,32,19,22,241,36,18,12,107,29*7E
$GPGSV,3,3,12,13,12,276,34,05,08,002,34,08,04,336,34,26,02,025,20*79
$GPRMC,144645.000,A,6418.4152,N,02011.7566,W,35.83,101.23,300812,,,A*47
$GPGGA,144646.000,6418.4132,N,02011.7341,W,1,09,1.2,190.8,M,60.4,M,,0000*4F
$GPGSA,A,3,30,07,19,16,06,21,13,03,18,,,,1.7,1.2,1.3*33
$GPRMC,144646.000,A,6418.4132,N,02011.7341,W,35.93,101.77,300812,,,A*41
$GPGGA,144647.000,6418.4111,N,02011.7118,W,1,09,1.2,191.5,M,60.4,M,,0000*4D
$GPGSA,A,3,30,07,19,16,06,21,13,03,18,,,,1.7,1.2,1.3*33
$GPRMC,144647.000,A,6418.4111,N,02011.7118,W,35.60,102.01,300812,,,A*41
$GPGGA,144648.000,6418.4090,N,02011.6897,W,1,09,1.2,192.2,M,60.4,M,,0000*41
$GPGSA,A,3,30,07,19,16,06,21,13,03,18,,,,1.7,1.2,1.3*33
$GPRMC,144648.000,A,6418.4090,N,02011.6897,W,35.32,102.06,300812,,,A*49
$GPGGA,144649.000,6418.4070,N,02011.6676,W,1,09,1.2,192.9,M,60.4,M,,0000*44
$GPGSA,A,3,30,07,19,16,06,21,13,03,18,,,,1.7,1.2,1.3*33
$GPRMC,144649.000,A,6418.4070,N,02011.6676,W,35.15,101.91,300812,,,A*4F
$GPGGA,144650.000,6418.4049,N,02011.6456,W,1,09,1.2,193.7,M,60.4,M,,0000*49
$GPGSA,A,3,30,07,19,16,06,21,13,03,18,,,,1.7,1.2,1.3*33
$GPGSV,3,1,12,16,70,178,37,06,67,216,28,03,52,239,39,21,46,079,27*76
$GPGSV,3,2,12,30,41,148,24,07,32,310,28,19,22,241,36,18,12,107,28*74
$GPGSV,3,3,12,13,12,276,34,05,08,002,34,08,04,336,34,26,02,025,21*78
$GPRMC,144650.000,A,6418.4049,N,02011.6456,W,35.29,101.98,300812,,,A*4B
