$GPRMC,080750.000,A,6405.1111,N,02140.7061,W,0.84,349.64,060912,,,A*7A
$GPGGA,080751.000,6405.1114,N,02140.7062,W,1,04,3.9,90.8,M,60.6,M,,0000*7C
$GPGSA,A,3,27,25,09,22,,,,,,,,,4.0,3.9,1.0*36
$GPRMC,080751.000,A,6405.1114,N,02140.7062,W,1.07,350.71,060912,,,A*7B
$GPGGA,080752.000,6405.1116,N,02140.7063,W,1,04,3.9,90.8,M,60.6,M,,0000*7C
$GPGSA,A,3,27,25,09,22,,,,,,,,,4.0,3.9,1.0*36
$GPRMC,080759.000,A,6405.1117,N,02140.7063,W,1.07,351.63,060912,,,A*73
$GPGGA,080800.000,6405.1119,N,02140.7064,W,1,04,3.9,91.7,M,60.6,M,,0000*72
$GPGSA,A,3,27,25,09,22,,,,,,,,,4.0,3.9,1.0*36
$GPGSV,3,1,12,12,66,155,19,14,59,268,24,09,38,104,30,25,36,206,27*76
$GPGSV,3,2,12,27,29,103,33,22,20,240,34,17,19,029,18,32,16,335,*7B
$GPGSV,3,3,12,01,09,331,21,31,07,270,18,04,01,068,,20,01,358,*7F
$GPRMC,080802.000,A,6405.1116,N,02140.7064,W,0.83,173.28,060912,,,A*74
$GPGGA,080803.000,6405.1112,N,02140.7063,W,1,04,3.9,92.0,M,60.6,M,,0000*79
$GPGSA,A,3,27,25,09,22,,,,,,,,,4.0,3.9,1.0*36
$GPRMC,080803.000,A,6405.1112,N,02140.7063,W,1.07,172.54,060912,,,A*71
$GPGGA,080804.000,6405.1111,N,02140.7062,W,1,04,3.9,92.1,M,60.6,M,,0000*7D
$GPGSA,A,3,27,25,09,22,,,,,,,,,4.1,3.9,1.0*37
$GPRMC,080845.000,A,6405.1132,N,02140.7077,W,0.91,351.49,060912,,,A*75
$GPGGA,080846.000,6405.1137,N,02140.7079,W,1,04,4.0,96.8,M,60.6,M,,0000*76
$GPGSA,A,3,27,25,09,22,,,,,,,,,4.1,4.0,1.0*39
$GPRMC,080846.000,A,6405.1137,N,02140.7079,W,1.28,349.65,060912,,,A*79
$GPGGA,080847.000,6405.1141,N,02140.7080,W,1,04,4.0,96.9,M,60.6,M,,0000*71
$GPGSA,A,3,27,25,09,22,,,,,,,,,4.1,4.0,1.0*39
$GPRMC,080847.000,A,6405.1141,N,02140.7080,W,1.07,349.34,060912,,,A*76
$GPGGA,080848.000,6405.1144,N,02140.7082,W,1,04,4.0,96.9,M,60.6,M,,0000*79
$GPGSA,A,3,27,25,09,22,,,,,,,,,4.1,4.0,1.0*39
$GPRMC,080852.000,A,6405.1156,N,02140.7087,W,1.20,349.98,060912,,,A*70
$GPGGA,080853.000,6405.1161,N,02140.7088,W,1,04,4.0,97.2,M,60.6,M,,0000*74
$GPGSA,A,3,27,25,09,22,,,,,,,,,4.1,4.0,1.0*39
$GPRMC,080853.000,A,6405.1161,N,02140.7088,W,1.03,349.08,060912,,,A*72
$GPGGA,080854.000,6405.1164,N,02140.7090,W,1,04,4.0,97.2,M,60.6,M,,0000*7F
$GPGSA,A,3,27,25,09,22,,,,,,,,,4.1,4.0,1.0*39
$GPRMC,081046.000,A,6405.1166,N,02140.7103,W,0.83,350.23,060912,,,A*72
$GPGGA,081047.000,6405.1169,N,02140.7104,W,1,04,4.2,98.3,M,60.6,M,,0000*79
$GPGSA,A,3,27,25,09,22,,,,,,,,,4.3,4.2,1.0*39
$GPRMC,081047.000,A,6405.1169,N,02140.7104,W,0.88,349.03,060912,,,A*7A
$GPGGA,081048.000,6405.1171,N,02140.7105,W,1,04,4.2,98.2,M,60.6,M,,0000*7F
$GPGSA,A,3,27,25,09,22,,,,,,,,,4.3,4.2,1.0*39
$GPRMC,081049.000,A,6405.1175,N,02140.7106,W,1.17,349.94,060912,,,A*72
$GPGGA,081050.000,6405.1177,N,02140.7107,W,1,04,4.2,98.0,M,60.6,M,,0000*70
$GPGSA,A,3,27,25,09,22,,,,,,,,,4.3,4.2,1.0*39
$GPGSV,3,1,12,12,66,151,17,14,59,265,27,25,37,206,27,09,37,104,35*79
$GPGSV,3,2,12,27,28,104,32,22,19,239,29,17,19,029,,32,17,334,*7D
$GPGSV,3,3,12,01,09,330,18,31,08,271,18,04,02,067,,20,02,358,*75
$GPRMC,081050.000,A,6405.1177,N,02140.7107,W,0.86,352.35,060912,,,A*71
$GPGGA,081051.000,6405.1178,N,02140.7108,W,1,04,4.2,97.8,M,60.6,M,,0000*76
$GPGSA,A,3,27,25,09,22,,,,,,,,,4.3,4.2,1.0*39
$GPRMC,081052.000,A,6405.1183,N,02140.7111,W,1.27,349.05,060912,,,A*7C
$GPGGA,081053.000,6405.1185,N,02140.7113,W,1,04,4.2,97.5,M,60.6,M,,0000*71
$GPGSA,A,3,27,25,09,22,,,,,,,,,4.3,4.2,1.0*39
$GPRMC,081058.000,A,6405.1182,N,02140.7116,W,0.96,168.56,060912,,,A*7C
$GPGGA,081059.000,6405.1180,N,02140.7116,W,1,04,4.2,96.7,M,60.6,M,,0000*78
$GPGSA,A,3,27,25,09,22,,,,,,,,,4.4,4.2,1.0*3E
$GPRMC,081101.000,A,6405.1174,N,02140.7115,W,0.82,170.59,060912,,,A*78
$GPGGA,081102.000,6405.1170,N,02140.7115,W,1,04,4.3,96.3,M,60.6,M,,0000*7E
$GPGSA,A,3,27,25,09,22,,,,,,,,,4.4,4.3,1.0*3F
$GPRMC,081112.000,A,6405.1185,N,02140.7131,W,1.50,349.60,060912,,,A*7E
$GPGGA,081113.000,6405.1191,N,02140.7134,W,1,04,4.3,94.6,M,60.6,M,,0000*75
$GPGSA,A,3,27,25,09,22,,,,,,,,,4.4,4.3,1.0*3F
$GPRMC,081113.000,A,6405.1191,N,02140.7134,W,1.68,350.98,060912,,,A*7B
$GPGGA,081114.000,6405.1196,N,02140.7136,W,1,04,4.3,94.4,M,60.6,M,,0000*75
$GPGSA,A,3,27,25,09,22,,,,,,,,,4.4,4.3,1.0*3F
$GPRMC,081114.000,A,6405.1196,N,02140.7136,W,1.23,348.66,060912,,,A*7E
$GPGGA,081115.000,6405.1201,N,02140.7139,W,1,04,4.3,94.2,M,60.6,M,,0000*70
$GPGSA,A,3,27,25,09,22,,,,,,,,,4.4,4.3,1.0*3F
$GPGSV,3,1,12,12,66,151,18,14,59,265,26,25,37,206,26,09,37,104,34*77
$GPGSV,3,2,12,27,28,104,33,22,19,239,28,17,19,029,,32,17,334,*7D
$GPGSV,3,3,12,01,09,330,19,31,08,271,20,04,02,067,,20,02,358,*7F
$GPRMC,081115.000,A,6405.1201,N,02140.7139,W,1.35,349.34,060912,,,A*7C
$GPGGA,081116.000,6405.1206,N,02140.7141,W,1,04,4.3,94.0,M,60.6,M,,0000*79
$GPGSA,A,3,27,25,09,22,,,,,,,,,4.4,4.3,1.0*3F
$GPRMC,081116.000,A,6405.1206,N,02140.7141,W,1.25,348.60,060912,,,A*76
$GPGGA,081117.000,6405.1211,N,02140.7143,W,1,04,4.3,93.9,M,60.6,M,,0000*72
$GPGSA,A,3,27,25,09,22,,,,,,,,,4.4,4.3,1.0*3F
$GPRMC,081117.000,A,6405.1211,N,02140.7143,W,0.96,348.03,060912,,,A*7F
$GPGGA,081118.000,6405.1214,N,02140.7145,W,1,04,4.3,93.7,M,60.6,M,,0000*70
$GPGSA,A,3,27,25,09,22,,,,,,,,,4.4,4.3,1.0*3F
$GPRMC,081127.000,A,6405.1204,N,02140.7140,W,1.82,172.08,060912,,,A*7F
$GPGGA,081128.000,6405.1198,N,02140.7137,W,1,04,4.3,92.6,M,60.6,M,,0000*71
$GPGSA,A,3,27,25,09,22,,,,,,,,,4.4,4.3,1.0*3F
$GPRMC,081128.000,A,6405.1198,N,02140.7137,W,1.37,169.30,060912,,,A*79
$GPGGA,081129.000,6405.1193,N,02140.7135,W,1,04,4.3,92.5,M,60.6,M,,0000*7A
$GPGSA,A,3,27,25,09,22,,,,,,,,,4.4,4.3,1.0*3F
$GPRMC,081129.000,A,6405.1193,N,02140.7135,W,0.82,167.25,060912,,,A*74
$GPGGA,081130.000,6405.1192,N,02140.7134,W,1,04,4.3,92.5,M,60.6,M,,0000*72
$GPGSA,A,3,27,25,09,22,,,,,,,,,4.4,4.3,1.0*3F
$GPGSV,3,1,12,12,66,151,17,14,59,265,26,25,37,206,25,09,37,104,34*7B
$GPGSV,3,2,12,27,28,104,33,22,19,239,28,17,19,029,,32,17,334,*7D
$GPGSV,3,3,12,01,09,330,19,31,08,271,20,04,02,067,,20,02,358,*7F
$GPRMC,081131.000,A,6405.1193,N,02140.7134,W,0.83,355.03,060912,,,A*7A
$GPGGA,081132.000,6405.1193,N,02140.7134,W,1,04,4.3,92.3,M,60.6,M,,0000*77
$GPGSA,A,3,27,25,09,22,,,,,,,,,4.4,4.3,1.0*3F
$GPRMC,081138.000,A,6405.1174,N,02140.7125,W,0.83,175.76,060912,,,A*78
$GPGGA,081139.000,6405.1170,N,02140.7123,W,1,04,4.3,92.2,M,60.6,M,,0000*76
$GPGSA,A,3,27,25,09,22,,,,,,,,,4.4,4.3,1.0*3F
$GPRMC,081139.000,A,6405.1170,N,02140.7123,W,0.82,167.75,060912,,,A*7A
$GPGGA,081140.000,6405.1168,N,02140.7121,W,1,04,4.3,92.2,M,60.6,M,,0000*73
$GPGSA,A,3,27,25,09,22,,,,,,,,,4.4,4.3,1.0*3F
$GPGSV,3,1,12,12,66,151,16,14,59,265,26,25,37,206,25,09,37,104,33*7D
$GPGSV,3,2,12,27,28,104,34,22,19,239,29,17,19,029,19,32,17,334,*73
$GPGSV,3,3,12,01,09,330,19,31,08,271,20,04,02,067,,20,02,358,*7F
$GPRMC,081141.000,A,6405.1169,N,02140.7121,W,0.81,349.40,060912,,,A*74
$GPGGA,081142.000,6405.1168,N,02140.7121,W,1,04,4.3,92.1,M,60.6,M,,0000*72
$GPGSA,A,3,27,25,09,22,,,,,,,,,4.4,4.3,1.0*3F
$GPRMC,081146.000,A,6405.1170,N,02140.7120,W,0.85,350.38,060912,,,A*79
$GPGGA,081147.000,6405.1172,N,02140.7120,W,1,04,4.3,92.1,M,60.6,M,,0000*7D
$GPGSA,A,3,27,25,09,22,,,,,,,,,4.5,4.3,1.0*3E
$GPRMC,081155.000,A,6405.1182,N,02140.7121,W,1.05,351.70,060912,,,A*73
$GPGGA,081156.000,6405.1186,N,02140.7123,W,1,04,4.4,92.2,M,60.6,M,,0000*71
$GPGSA,A,3,27,25,09,22,,,,,,,,,4.5,4.4,1.0*39
$GPRMC,081156.000,A,6405.1186,N,02140.7123,W,1.12,348.36,060912,,,A*7A
$GPGGA,081157.000,6405.1187,N,02140.7123,W,1,04,4.4,92.2,M,60.6,M,,0000*71
$GPGSA,A,3,27,25,09,22,,,,,,,,,4.5,4.4,1.0*39
$GPRMC,081209.000,A,6405.1194,N,02140.7123,W,1.28,352.64,060912,,,A*75
$GPGGA,081210.000,6405.1199,N,02140.7125,W,1,04,4.4,92.6,M,60.6,M,,0000*7C
$GPGSA,A,3,27,25,09,22,,,,,,,,,4.5,4.4,1.0*39
$GPGSV,3,1,12,12,67,150,18,14,59,265,26,25,38,206,25,09,36,104,32*7C
$GPGSV,3,2,12,27,27,104,34,22,18,239,30,17,18,028,20,32,17,333,*78
$GPGSV,3,3,12,01,09,329,20,31,08,271,20,04,02,067,,20,02,357,19*7A
$GPRMC,081210.000,A,6405.1199,N,02140.7125,W,1.33,349.02,060912,,,A*76
$GPGGA,081211.000,6405.1203,N,02140.7127,W,1,04,4.4,92.6,M,60.6,M,,0000*7F
$GPGSA,A,3,27,25,09,22,,,,,,,,,4.5,4.4,1.0*39
$GPRMC,081211.000,A,6405.1203,N,02140.7127,W,1.15,349.28,060912,,,A*79
$GPGGA,081212.000,6405.1207,N,02140.7128,W,1,04,4.4,92.6,M,60.6,M,,0000*77
$GPGSA,A,3,27,25,09,22,,,,,,,,,4.5,4.4,1.0*39
$GPRMC,081212.000,A,6405.1207,N,02140.7128,W,1.18,350.27,060912,,,A*7B
$GPGGA,081213.000,6405.1210,N,02140.7130,W,1,04,4.4,92.7,M,60.6,M,,0000*78
$GPGSA,A,3,27,25,09,22,,,,,,,,,4.5,4.4,1.0*39
$GPRMC,081213.000,A,6405.1210,N,02140.7130,W,0.82,349.14,060912,,,A*7F
$GPGGA,081214.000,6405.1212,N,02140.7130,W,1,04,4.4,92.7,M,60.6,M,,0000*7D
$GPGSA,A,3,27,25,09,22,,,,,,,,,4.5,4.4,1.0*39
$GPRMC,081216.000,A,6405.1219,N,02140.7133,W,1.44,351.49,060912,,,A*7A
$GPGGA,081217.000,6405.1223,N,02140.7135,W,1,04,4.4,92.8,M,60.6,M,,0000*76
$GPGSA,A,3,27,25,09,22,,,,,,,,,4.5,4.4,1.0*39
$GPRMC,081217.000,A,6405.1223,N,02140.7135,W,1.14,349.01,060912,,,A*74
$GPGGA,081218.000,6405.1226,N,02140.7136,W,1,04,4.4,92.8,M,60.6,M,,0000*7F
$GPGSA,A,3,27,25,09,22,,,,,,,,,4.5,4.4,1.0*39
$GPRMC,081230.000,A,6405.1199,N,02140.7125,W,1.03,169.86,060912,,,A*7B
$GPGGA,081231.000,6405.1195,N,02140.7123,W,1,04,4.4,93.8,M,60.6,M,,0000*7A
$GPGSA,A,3,27,25,09,22,,,,,,,,,4.5,4.4,1.0*39
$GPRMC,081232.000,A,6405.1195,N,02140.7123,W,0.98,354.82,060912,,,A*78
$GPGGA,081233.000,6405.1193,N,02140.7123,W,1,04,4.4,94.0,M,60.6,M,,0000*71
$GPGSA,A,3,27,25,09,22,,,,,,,,,4.6,4.4,1.0*3A
$GPRMC,081235.000,A,6405.1187,N,02140.7121,W,0.94,174.61,060912,,,A*7F
$GPGGA,081236.000,6405.1183,N,02140.7120,W,1,04,4.4,94.3,M,60.6,M,,0000*75
$GPGSA,A,3,27,25,09,22,,,,,,,,,4.6,4.4,1.0*3A
$GPRMC,081243.000,A,6405.1170,N,02140.7114,W,1.36,353.31,060912,,,A*7B
$GPGGA,081244.000,6405.1168,N,02140.7114,W,1,04,4.5,95.2,M,60.6,M,,0000*73
$GPGSA,A,3,27,25,09,22,,,,,,,,,4.6,4.5,1.0*3B
$GPRMC,081247.000,A,6405.1159,N,02140.7110,W,1.34,352.40,060912,,,A*75
$GPGGA,081248.000,6405.1161,N,02140.7111,W,1,04,4.5,95.6,M,60.6,M,,0000*77
$GPGSA,A,3,27,25,09,22,,,,,,,,,4.6,4.5,1.0*3B
$GPRMC,081248.000,A,6405.1161,N,02140.7111,W,1.52,348.32,060912,,,A*7E
$GPGGA,081249.000,6405.1162,N,02140.7113,W,1,04,4.5,95.7,M,60.6,M,,0000*76
$GPGSA,A,3,27,25,09,22,,,,,,,,,4.6,4.5,1.0*3B
$GPRMC,081249.000,A,6405.1162,N,02140.7113,W,1.08,346.02,060912,,,A*7C
$GPGGA,081250.000,6405.1160,N,02140.7112,W,1,04,4.5,95.8,M,60.6,M,,0000*72
$GPGSA,A,3,27,25,09,22,,,,,,,,,4.6,4.5,1.0*3B
$GPGSV,3,1,12,12,67,149,17,14,60,264,26,25,38,206,23,09,36,105,32*77
$GPGSV,3,2,12,27,27,104,34,17,18,028,21,22,18,238,32,32,17,333,*7A
$GPGSV,3,3,12,31,09,271,17,01,08,329,21,04,03,067,,20,02,357,18*7F
$GPRMC,081251.000,A,6405.1162,N,02140.7113,W,1.10,352.89,060912,,,A*7A
$GPGGA,081252.000,6405.1162,N,02140.7113,W,1,04,4.5,96.0,M,60.6,M,,0000*78
$GPGSA,A,3,27,25,09,22,,,,,,,,,4.6,4.5,1.0*3B
$GPRMC,081254.000,A,6405.1150,N,02140.7109,W,2.13,173.16,060912,,,A*72
$GPGGA,081255.000,6405.1140,N,02140.7105,W,1,04,4.5,96.3,M,60.6,M,,0000*7B
$GPGSA,A,3,27,25,09,22,,,,,,,,,4.6,4.5,1.0*3B
$GPGSV,3,1,12,12,67,149,18,14,60,264,27,25,38,206,23,09,36,105,32*79
$GPGSV,3,2,12,27,27,104,33,17,18,028,21,22,18,238,32,32,17,333,*7D
$GPGSV,3,3,12,31,09,271,18,01,08,329,22,04,03,067,,20,02,357,18*73
$GPRMC,081255.000,A,6405.1140,N,02140.7105,W,2.41,170.31,060912,,,A*7F
$GPGGA,081256.000,6405.1132,N,02140.7102,W,1,04,4.5,96.4,M,60.6,M,,0000*7D
$GPGSA,A,3,27,25,09,22,,,,,,,,,4.6,4.5,1.0*3B
$GPRMC,081256.000,A,6405.1132,N,02140.7102,W,1.54,168.00,060912,,,A*72
$GPGGA,081257.000,6405.1130,N,02140.7100,W,1,04,4.5,96.5,M,60.6,M,,0000*7D
$GPGSA,A,3,27,25,09,22,,,,,,,,,4.6,4.5,1.0*3B
$GPRMC,081259.000,A,6405.1130,N,02140.7100,W,1.03,352.55,060912,,,A*74
$GPGGA,081300.000,6405.1132,N,02140.7101,W,1,04,4.5,96.8,M,60.6,M,,0000*70
$GPGSA,A,3,27,25,09,22,,,,,,,,,4.6,4.5,1.0*3B
$GPGSV,3,1,12,12,67,149,18,14,60,264,27,25,38,206,23,09,36,105,32*79
$GPGSV,3,2,12,27,27,104,33,17,18,028,21,22,18,238,32,32,17,333,*7D
$GPGSV,3,3,12,31,09,271,18,01,08,329,22,04,03,067,,20,02,357,19*72
$GPRMC,081300.000,A,6405.1132,N,02140.7101,W,1.19,351.54,060912,,,A*73
$GPGGA,081301.000,6405.1128,N,02140.7100,W,1,04,4.5,96.9,M,60.6,M,,0000*7A
$GPGSA,A,3,27,25,09,22,,,,,,,,,4.6,4.5,1.0*3B
$GPRMC,081310.000,A,6405.1133,N,02140.7102,W,1.23,351.76,060912,,,A*79
$GPGGA,081311.000,6405.1135,N,02140.7102,W,1,04,4.5,97.3,M,60.6,M,,0000*7E
$GPGSA,A,3,27,25,09,22,,,,,,,,,4.6,4.5,1.0*3B
$GPRMC,081313.000,A,6405.1125,N,02140.7099,W,1.92,172.90,060912,,,A*7F
$GPGGA,081314.000,6405.1123,N,02140.7098,W,1,04,4.5,97.4,M,60.6,M,,0000*79
$GPGSA,A,3,27,25,09,22,,,,,,,,,4.6,4.5,1.0*3B
$GPRMC,081315.000,A,6405.1120,N,02140.7096,W,0.89,170.86,060912,,,A*7D
$GPGGA,081316.000,6405.1116,N,02140.7095,W,1,04,4.5,97.5,M,60.6,M,,0000*71
$GPGSA,A,3,27,25,09,22,,,,,,,,,4.6,4.5,1.0*3B
$GPRMC,081316.000,A,6405.1116,N,02140.7095,W,1.36,173.28,060912,,,A*7A
$GPGGA,081317.000,6405.1112,N,02140.7094,W,1,04,4.5,97.5,M,60.6,M,,0000*75
$GPGSA,A,3,27,25,09,22,,,,,,,,,4.6,4.5,1.0*3B
$GPRMC,081317.000,A,6405.1112,N,02140.7094,W,1.40,173.42,060912,,,A*73
$GPGGA,081318.000,6405.1110,N,02140.7093,W,1,04,4.5,97.5,M,60.6,M,,0000*7F
$GPGSA,A,3,27,25,09,22,,,,,,,,,4.6,4.5,1.0*3B
$GPRMC,081318.000,A,6405.1110,N,02140.7093,W,0.94,168.93,060912,,,A*77
$GPGGA,081319.000,6405.1108,N,02140.7091,W,1,04,4.5,97.5,M,60.6,M,,0000*75
$GPGSA,A,3,27,25,09,22,,,,,,,,,4.7,4.5,1.0*3A
$GPRMC,081321.000,A,6405.1114,N,02140.7093,W,1.20,350.67,060912,,,A*75
$GPGGA,081322.000,6405.1117,N,02140.7094,W,1,04,4.6,97.6,M,60.6,M,,0000*76
$GPGSA,A,3,27,25,09,22,,,,,,,,,4.7,4.6,1.0*39
$GPRMC,081322.000,A,6405.1117,N,02140.7094,W,0.94,353.37,060912,,,A*7A
$GPGGA,081323.000,6405.1119,N,02140.7094,W,1,04,4.6,97.6,M,60.6,M,,0000*79
$GPGSA,A,3,27,25,09,22,,,,,,,,,4.7,4.6,1.0*39
$GPRMC,081328.000,A,6405.1127,N,02140.7097,W,1.96,352.33,060912,,,A*76
$GPGGA,081329.000,6405.1132,N,02140.7099,W,1,04,4.6,97.7,M,60.6,M,,0000*76
$GPGSA,A,3,27,25,09,22,,,,,,,,,4.7,4.6,1.0*39
$GPRMC,081329.000,A,6405.1132,N,02140.7099,W,1.37,349.86,060912,,,A*72
$GPGGA,081330.000,6405.1135,N,02140.7100,W,1,04,4.6,97.7,M,60.6,M,,0000*78
$GPGSA,A,3,27,25,09,22,,,,,,,,,4.7,4.6,1.0*39
$GPGSV,3,1,12,12,67,149,18,14,60,263,27,25,39,206,22,09,35,105,33*7C
$GPGSV,3,2,12,27,27,104,32,17,18,028,17,22,18,238,32,32,18,333,*76
$GPGSV,3,3,12,31,09,271,15,01,08,329,22,04,03,067,,20,02,357,18*7E
$GPRMC,081333.000,A,6405.1129,N,02140.7098,W,1.22,171.63,060912,,,A*74
$GPGGA,081334.000,6405.1124,N,02140.7096,W,1,04,4.6,97.7,M,60.6,M,,0000*72
$GPGSA,A,3,27,25,09,22,,,,,,,,,4.7,4.6,1.0*39
$GPRMC,081334.000,A,6405.1124,N,02140.7096,W,1.40,169.82,060912,,,A*72
$GPGGA,081335.000,6405.1120,N,02140.7095,W,1,04,4.6,97.7,M,60.6,M,,0000*74
$GPGSA,A,3,27,25,09,22,,,,,,,,,4.7,4.6,1.0*39
$GPGSV,3,1,12,12,67,149,17,14,60,263,26,25,39,206,22,09,35,105,33*72
$GPGSV,3,2,12,27,27,104,32,17,18,028,17,22,18,238,32,32,18,333,*76
$GPGSV,3,3,12,31,09,271,14,01,08,329,22,04,03,067,,20,02,357,18*7F
$GPRMC,081335.000,A,6405.1120,N,02140.7095,W,1.33,172.12,060912,,,A*73
$GPGGA,081336.000,6405.1119,N,02140.7094,W,1,04,4.6,97.8,M,60.6,M,,0000*73
$GPGSA,A,3,27,25,09,22,,,,,,,,,4.7,4.6,1.0*39
$GPRMC,081337.000,A,6405.1114,N,02140.7092,W,1.29,171.00,060912,,,A*7A
$GPGGA,081338.000,6405.1110,N,02140.7090,W,1,04,4.6,97.8,M,60.6,M,,0000*70
$GPGSA,A,3,27,25,09,22,,,,,,,,,4.7,4.6,1.0*39
$GPRMC,081338.000,A,6405.1110,N,02140.7090,W,1.33,167.82,060912,,,A*75
$GPGGA,081339.000,6405.1107,N,02140.7089,W,1,04,4.6,97.8,M,60.6,M,,0000*7F
$GPGSA,A,3,27,25,09,22,,,,,,,,,4.7,4.6,1.0*39
$GPRMC,081341.000,A,6405.1103,N,02140.7087,W,0.96,172.37,060912,,,A*7B
$GPGGA,081342.000,6405.1093,N,02140.7083,W,1,04,4.6,98.0,M,60.6,M,,0000*72
$GPGSA,A,3,27,25,09,22,,,,,,,,,4.7,4.6,1.0*39
$GPRMC,081342.000,A,6405.1093,N,02140.7083,W,2.33,170.65,060912,,,A*7C
$GPGGA,081343.000,6405.1083,N,02140.7079,W,1,04,4.6,98.0,M,60.6,M,,0000*77
$GPGSA,A,3,27,25,09,22,,,,,,,,,4.7,4.6,1.0*39
$GPRMC,081343.000,A,6405.1083,N,02140.7079,W,2.37,169.62,060912,,,A*72
$GPGGA,081344.000,6405.1080,N,02140.7078,W,1,04,4.6,98.1,M,60.6,M,,0000*73
$GPGSA,A,3,27,25,09,22,,,,,,,,,4.7,4.6,1.0*39
$GPRMC,081351.000,A,6405.1078,N,02140.7077,W,0.82,174.73,060912,,,A*7B
$GPGGA,081352.000,6405.1074,N,02140.7076,W,1,04,4.6,98.2,M,60.6,M,,0000*72
$GPGSA,A,3,27,25,09,22,,,,,,,,,4.7,4.6,1.0*39
$GPRMC,081352.000,A,6405.1074,N,02140.7076,W,1.41,173.26,060912,,,A*7C
$GPGGA,081353.000,6405.1074,N,02140.7076,W,1,04,4.6,98.2,M,60.6,M,,0000*73
$GPGSA,A,3,27,25,09,22,,,,,,,,,4.7,4.6,1.0*39
$GPRMC,081402.000,A,6405.1067,N,02140.7072,W,1.54,170.19,060912,,,A*73
$GPGGA,081403.000,6405.1064,N,02140.7071,W,1,04,4.6,98.3,M,60.6,M,,0000*76
$GPGSA,A,3,27,25,09,22,,,,,,,,,4.8,4.6,1.0*36
$GPRMC,081403.000,A,6405.1064,N,02140.7071,W,0.83,167.69,060912,,,A*78
$GPGGA,081404.000,6405.1058,N,02140.7068,W,1,04,4.6,98.4,M,60.6,M,,0000*71
$GPGSA,A,3,27,25,09,22,,,,,,,,,4.8,4.6,1.0*36
$GPRMC,081404.000,A,6405.1058,N,02140.7068,W,1.10,167.86,060912,,,A*72
$GPGGA,081405.000,6405.1052,N,02140.7066,W,1,04,4.7,98.4,M,60.6,M,,0000*75
$GPGSA,A,3,27,25,09,22,,,,,,,,,4.8,4.7,1.0*37
$GPGSV,3,1,12,12,67,148,,14,60,263,26,25,39,206,21,09,35,105,33*76
$GPGSV,3,2,12,27,26,104,31,17,18,028,18,22,18,238,32,32,18,333,*7B
$GPGSV,3,3,12,31,09,271,14,01,08,329,23,04,03,067,,20,02,357,20*75
$GPRMC,081405.000,A,6405.1052,N,02140.7066,W,1.02,165.82,060912,,,A*72
$GPGGA,081406.000,6405.1048,N,02140.7063,W,1,04,4.7,98.5,M,60.6,M,,0000*79
$GPGSA,A,3,27,25,09,22,,,,,,,,,4.8,4.7,1.0*37
$GPRMC,081407.000,A,6405.1040,N,02140.7061,W,1.62,172.29,060912,,,A*75
$GPGGA,081408.000,6405.1033,N,02140.7059,W,1,04,4.7,98.6,M,60.6,M,,0000*71
$GPGSA,A,3,27,25,09,22,,,,,,,,,4.8,4.7,1.0*37
$GPRMC,081408.000,A,6405.1033,N,02140.7059,W,1.36,171.98,060912,,,A*7D
$GPGGA,081409.000,6405.1033,N,02140.7058,W,1,04,4.7,98.7,M,60.6,M,,0000*70
$GPGSA,A,3,27,25,09,22,,,,,,,,,4.8,4.7,1.0*37
$GPRMC,081410.000,A,6405.1036,N,02140.7059,W,1.38,353.46,060912,,,A*7E
$GPGGA,081411.000,6405.1041,N,02140.7061,W,1,04,4.7,98.8,M,60.6,M,,0000*79
$GPGSA,A,3,27,25,09,22,,,,,,,,,4.8,4.7,1.0*37
$GPRMC,081411.000,A,6405.1041,N,02140.7061,W,1.64,350.41,060912,,,A*79
$GPGGA,081412.000,6405.1048,N,02140.7064,W,1,04,4.7,98.8,M,60.6,M,,0000*76
$GPGSA,A,3,27,25,09,22,,,,,,,,,4.8,4.7,1.0*37
$GPRMC,081412.000,A,6405.1048,N,02140.7064,W,2.24,349.09,060912,,,A*75
$GPGGA,081413.000,6405.1052,N,02140.7066,W,1,04,4.7,98.8,M,60.6,M,,0000*7E
$GPGSA,A,3,27,25,09,22,,,,,,,,,4.8,4.7,1.0*37
$GPRMC,081413.000,A,6405.1052,N,02140.7066,W,0.92,344.67,060912,,,A*77
$GPGGA,081414.000,6405.1047,N,02140.7064,W,1,04,4.7,98.9,M,60.6,M,,0000*7E
$GPGSA,A,3,27,25,09,22,,,,,,,,,4.8,4.7,1.0*37
$GPRMC,081414.000,A,6405.1047,N,02140.7064,W,1.40,174.73,060912,,,A*7C
$GPGGA,081415.000,6405.1041,N,02140.7062,W,1,04,4.7,98.9,M,60.6,M,,0000*7F
$GPGSA,A,3,27,25,09,22,,,,,,,,,4.8,4.7,1.0*37
$GPGSV,3,1,12,12,67,148,,14,60,263,25,25,39,206,20,09,35,105,32*75
$GPGSV,3,2,12,27,26,104,32,32,18,333,,17,18,028,16,22,18,238,32*76
$GPGSV,3,3,12,31,09,271,12,01,08,328,23,04,03,066,,20,03,357,19*78
$GPRMC,081415.000,A,6405.1041,N,02140.7062,W,1.89,171.69,060912,,,A*76
$GPGGA,081416.000,6405.1043,N,02140.7062,W,1,04,4.7,98.9,M,60.6,M,,0000*7E
$GPGSA,A,3,27,25,09,22,,,,,,,,,4.8,4.7,1.0*37
$GPRMC,081417.000,A,6405.1053,N,02140.7066,W,2.90,352.31,060912,,,A*76
$GPGGA,081418.000,6405.1065,N,02140.7070,W,1,04,4.7,98.9,M,60.6,M,,0000*77
$GPGSA,A,3,27,25,09,22,,,,,,,,,4.8,4.7,1.0*37
$GPRMC,081418.000,A,6405.1065,N,02140.7070,W,3.13,349.94,060912,,,A*74
$GPGGA,081419.000,6405.1078,N,02140.7075,W,1,04,4.7,98.9,M,60.6,M,,0000*7F
$GPGSA,A,3,27,25,09,22,,,,,,,,,4.8,4.7,1.0*37
$GPRMC,081419.000,A,6405.1078,N,02140.7075,W,3.22,349.88,060912,,,A*73
$GPGGA,081420.000,6405.1089,N,02140.7079,W,1,04,4.7,98.9,M,60.6,M,,0000*77
$GPGSA,A,3,27,25,09,22,,,,,,,,,4.8,4.7,1.0*37
$GPGSV,3,1,12,12,67,148,,14,60,263,25,25,39,206,20,09,35,105,32*75
$GPGSV,3,2,12,27,26,104,32,32,18,333,,17,18,028,15,22,18,238,32*75
$GPGSV,3,3,12,31,09,271,12,01,08,328,23,04,03,066,,20,03,357,19*78
$GPRMC,081420.000,A,6405.1089,N,02140.7079,W,2.64,349.04,060912,,,A*7C
$GPGGA,081421.000,6405.1092,N,02140.7081,W,1,04,4.7,98.9,M,60.6,M,,0000*7B
$GPGSA,A,3,27,25,09,22,,,,,,,,,4.8,4.7,1.0*37
$GPRMC,081423.000,A,6405.1082,N,02140.7077,W,2.36,171.38,060912,,,A*7B
$GPGGA,081424.000,6405.1071,N,02140.7073,W,1,04,4.7,99.1,M,60.6,M,,0000*77
$GPGSA,A,3,27,25,09,22,,,,,,,,,4.8,4.7,1.0*37
$GPRMC,081424.000,A,6405.1071,N,02140.7073,W,2.90,169.77,060912,,,A*7A
$GPGGA,081425.000,6405.1061,N,02140.7068,W,1,04,4.7,99.1,M,60.6,M,,0000*7D
$GPGSA,A,3,27,25,09,22,,,,,,,,,4.8,4.7,1.0*37
$GPGSV,3,1,12,12,67,148,,14,60,263,24,25,39,206,19,09,35,105,32*7E
$GPGSV,3,2,12,27,26,104,32,32,18,333,,17,18,028,14,22,18,238,31*77
$GPGSV,3,3,12,31,09,271,12,01,08,328,22,04,03,066,,20,03,357,20*73
$GPRMC,081425.000,A,6405.1061,N,02140.7068,W,2.66,169.30,060912,,,A*7A
$GPGGA,081426.000,6405.1049,N,02140.7063,W,1,04,4.7,99.2,M,60.6,M,,0000*7C
$GPGSA,A,3,27,25,09,22,,,,,,,,,4.8,4.7,1.0*37
$GPRMC,081426.000,A,6405.1049,N,02140.7063,W,2.79,169.06,060912,,,A*73
$GPGGA,081427.000,6405.1041,N,02140.7060,W,1,04,4.7,99.3,M,60.6,M,,0000*77
$GPGSA,A,3,27,25,09,22,,,,,,,,,4.8,4.7,1.0*37
$GPRMC,081427.000,A,6405.1041,N,02140.7060,W,1.78,168.38,060912,,,A*77
$GPGGA,081428.000,6405.1032,N,02140.7057,W,0,03,,99.4,M,60.6,M,,0000*54
$GPGSA,A,1,27,09,22,,,,,,,,,,,,*12
$GPRMC,081429.000,A,6405.1018,N,02140.7052,W,3.62,171.16,060912,,,A*79
$GPGGA,081430.000,6405.1011,N,02140.7048,W,1,04,4.7,99.6,M,60.6,M,,0000*7B
$GPGSA,A,3,27,25,09,22,,,,,,,,,4.8,4.7,1.0*37
$GPGSV,3,1,12,12,67,148,,14,60,263,24,25,39,206,19,09,35,105,32*7E
$GPGSV,3,2,12,27,26,104,32,32,18,333,,17,18,028,,22,18,238,31*72
$GPGSV,3,3,12,31,09,271,12,01,08,328,23,04,03,066,,20,03,357,20*72
$GPRMC,081430.000,A,6405.1011,N,02140.7048,W,1.86,168.33,060912,,,A*74
$GPGGA,081431.000,6405.1006,N,02140.7047,W,1,04,4.7,99.6,M,60.6,M,,0000*73
$GPGSA,A,3,27,25,09,22,,,,,,,,,4.8,4.7,1.0*37
$GPRMC,081431.000,A,6405.1006,N,02140.7047,W,1.43,171.50,060912,,,A*78
$GPGGA,081432.000,6405.0999,N,02140.7044,W,0,03,,99.7,M,60.6,M,,0000*57
$GPGSA,A,1,27,09,22,,,,,,,,,,,,*12
$GPRMC,081434.000,A,6405.0996,N,02140.7043,W,0.93,173.02,060912,,,A*71
$GPGGA,081435.000,6405.0998,N,02140.7044,W,1,04,4.7,99.9,M,60.6,M,,0000*74
$GPGSA,A,3,27,25,09,22,,,,,,,,,4.8,4.7,1.0*37
$GPGSV,3,1,12,12,67,148,,14,60,263,24,25,39,206,19,09,35,105,32*7E
$GPGSV,3,2,12,27,26,104,32,32,18,333,,17,18,028,,22,18,238,31*72
$GPGSV,3,3,12,31,09,271,13,01,08,328,23,04,03,066,,20,03,357,20*73
$GPRMC,081438.000,A,6405.1009,N,02140.7048,W,0.99,353.07,060912,,,A*77
$GPGGA,081439.000,6405.1012,N,02140.7049,W,1,04,4.7,100.0,M,60.6,M,,0000*47
$GPGSA,A,3,27,25,09,22,,,,,,,,,4.8,4.7,1.0*37
$GPRMC,081443.000,A,6405.1025,N,02140.7054,W,0.95,350.28,060912,,,A*7A
$GPGGA,081444.000,6405.1035,N,02140.7057,W,1,04,4.7,100.2,M,60.6,M,,0000*45
$GPGSA,A,3,27,25,09,22,,,,,,,,,4.9,4.7,1.0*36
$GPRMC,081444.000,A,6405.1035,N,02140.7057,W,2.07,351.11,060912,,,A*7D
$GPGGA,081445.000,6405.1044,N,02140.7061,W,1,04,4.7,100.2,M,60.6,M,,0000*47
$GPGSA,A,3,27,25,09,22,,,,,,,,,4.9,4.7,1.0*36
$GPGSV,3,1,12,12,67,148,,14,60,263,24,25,39,206,18,09,35,105,32*7F
$GPGSV,3,2,12,27,26,104,32,32,18,333,,17,18,028,,22,18,238,31*72
$GPGSV,3,3,12,31,09,271,15,01,08,328,23,04,03,066,,20,03,357,20*75
$GPRMC,081445.000,A,6405.1044,N,02140.7061,W,1.64,349.47,060912,,,A*73
$GPGGA,081446.000,6405.1055,N,02140.7064,W,0,03,,100.2,M,60.6,M,,0000*6A
$GPGSA,A,1,27,09,22,,,,,,,,,,,,*12
$GPRMC,081451.000,A,6405.1086,N,02140.7076,W,0.87,171.67,060912,,,A*79
$GPGGA,081452.000,6405.1083,N,02140.7075,W,1,04,4.8,100.3,M,60.6,M,,0000*41
$GPGSA,A,3,27,25,09,22,,,,,,,,,4.9,4.8,1.0*39
$GPRMC,081453.000,A,6405.1079,N,02140.7074,W,0.99,170.40,060912,,,A*72
$GPGGA,081454.000,6405.1076,N,02140.7073,W,1,04,4.8,100.4,M,60.6,M,,0000*4C
$GPGSA,A,3,27,25,09,22,,,,,,,,,4.9,4.8,1.0*39
$GPRMC,081455.000,A,6405.1072,N,02140.7072,W,1.51,173.46,060912,,,A*79
$GPGGA,081456.000,6405.1064,N,02140.7069,W,0,03,,100.5,M,60.6,M,,0000*63
$GPGSA,A,1,27,09,22,,,,,,,,,,,,*12
$GPRMC,081459.000,A,6405.1031,N,02140.7057,W,4.43,170.49,060912,,,A*7F
$GPGGA,081500.000,6405.1018,N,02140.7052,W,0,03,,100.9,M,60.6,M,,0000*6E
$GPGSA,A,1,27,09,22,,,,,,,,,,,,*12
$GPGSV,3,1,12,12,67,148,,14,60,263,24,25,39,206,17,09,35,105,32*70
$GPGSV,3,2,12,27,26,104,33,32,18,333,,17,18,028,,22,18,238,31*73
$GPGSV,3,3,12,31,09,271,18,01,08,328,22,04,03,066,,20,03,357,20*79
$GPRMC,081501.000,A,6405.1004,N,02140.7046,W,3.94,169.25,060912,,,A*7A
$GPGGA,081502.000,6405.0989,N,02140.7040,W,1,04,4.8,101.1,M,60.6,M,,0000*42
$GPGSA,A,3,27,25,09,22,,,,,,,,,4.9,4.8,1.0*39
$GPRMC,081502.000,A,6405.0989,N,02140.7040,W,3.82,169.74,060912,,,A*71
$GPGGA,081503.000,6405.0973,N,02140.7034,W,1,04,4.8,101.2,M,60.6,M,,0000*46
$GPGSA,A,3,27,25,09,22,,,,,,,,,4.9,4.8,1.0*39
$GPRMC,081503.000,A,6405.0973,N,02140.7034,W,3.86,169.79,060912,,,A*7F
$GPGGA,081504.000,6405.0961,N,02140.7029,W,0,03,,101.4,M,60.6,M,,0000*6C
$GPGSA,A,1,27,09,22,,,,,,,,,,,,*12
$GPRMC,081505.000,A,6405.0950,N,02140.7024,W,2.62,169.32,060912,,,A*7D
$GPGGA,081506.000,6405.0947,N,02140.7023,W,1,04,4.8,101.6,M,60.6,M,,0000*46
$GPGSA,A,3,27,25,09,22,,,,,,,,,4.9,4.8,1.0*39
$GPRMC,081507.000,A,6405.0950,N,02140.7024,W,1.31,350.47,060912,,,A*70
$GPGGA,081508.000,6405.0955,N,02140.7026,W,0,03,,101.8,M,60.6,M,,0000*64
$GPGSA,A,1,27,09,22,,,,,,,,,,,,*12
$GPRMC,081509.000,A,6405.0964,N,02140.7030,W,2.81,351.03,060912,,,A*75
$GPGGA,081510.000,6405.0977,N,02140.7035,W,1,04,4.8,101.9,M,60.6,M,,0000*4A
$GPGSA,A,3,27,25,09,22,,,,,,,,,4.9,4.8,1.0*39
$GPGSV,3,1,12,12,67,148,,14,60,263,24,25,39,206,17,09,35,105,31*73
$GPGSV,3,2,12,27,26,104,33,32,18,333,,17,18,028,17,22,18,238,31*75
$GPGSV,3,3,12,31,09,271,20,01,08,328,22,04,03,066,,20,03,357,19*78
$GPRMC,081510.000,A,6405.0977,N,02140.7035,W,3.70,350.72,060912,,,A*72
$GPGGA,081511.000,6405.0986,N,02140.7039,W,1,04,4.8,102.0,M,60.6,M,,0000*43
$GPGSA,A,3,27,25,09,22,,,,,,,,,4.9,4.8,1.0*39
$GPRMC,081511.000,A,6405.0986,N,02140.7039,W,2.91,350.01,060912,,,A*7B
$GPGGA,081512.000,6405.0993,N,02140.7041,W,1,04,4.8,102.1,M,60.6,M,,0000*4A
$GPGSA,A,3,27,25,09,22,,,,,,,,,4.9,4.8,1.0*39
$GPRMC,081512.000,A,6405.0993,N,02140.7041,W,2.37,350.04,060912,,,A*7A
$GPGGA,081513.000,6405.1005,N,02140.7046,W,1,04,4.8,102.1,M,60.6,M,,0000*4B
$GPGSA,A,3,27,25,09,22,,,,,,,,,4.9,4.8,1.0*39
$GPRMC,081513.000,A,6405.1005,N,02140.7046,W,3.71,350.90,060912,,,A*75
$GPGGA,081514.000,6405.1017,N,02140.7051,W,0,03,,102.2,M,60.6,M,,0000*6E
$GPGSA,A,1,27,09,22,,,,,,,,,,,,*12
$GPRMC,081515.000,A,6405.1030,N,02140.7056,W,4.07,350.62,060912,,,A*7F
$GPGGA,081516.000,6405.1043,N,02140.7061,W,1,04,4.8,102.3,M,60.6,M,,0000*4B
$GPGSA,A,3,27,25,09,22,,,,,,,,,4.9,4.8,1.0*39
$GPRMC,081516.000,A,6405.1043,N,02140.7061,W,4.04,350.13,060912,,,A*79
$GPGGA,081517.000,6405.1049,N,02140.7064,W,1,04,4.8,102.3,M,60.6,M,,0000*45
$GPGSA,A,3,27,25,09,22,,,,,,,,,4.9,4.8,1.0*39
$GPRMC,081517.000,A,6405.1049,N,02140.7064,W,2.28,348.37,060912,,,A*70
$GPGGA,081518.000,6405.1051,N,02140.7065,W,1,04,4.8,102.4,M,60.6,M,,0000*45
$GPGSA,A,3,27,25,09,22,,,,,,,,,4.9,4.8,1.0*39
$GPRMC,081518.000,A,6405.1051,N,02140.7065,W,1.04,347.15,060912,,,A*75
$GPGGA,081519.000,6405.1047,N,02140.7064,W,1,04,4.8,102.5,M,60.6,M,,0000*43
$GPGSA,A,3,27,25,09,22,,,,,,,,,4.9,4.8,1.0*39
$GPRMC,081520.000,A,6405.1041,N,02140.7062,W,1.30,172.07,060912,,,A*78
$GPGGA,081521.000,6405.1039,N,02140.7061,W,1,04,4.8,102.7,M,60.6,M,,0000*46
$GPGSA,A,3,27,25,09,22,,,,,,,,,4.9,4.8,1.0*39
$GPRMC,081526.000,A,6405.1059,N,02140.7069,W,2.31,351.19,060912,,,A*72
$GPGGA,081527.000,6405.1068,N,02140.7073,W,1,04,4.9,103.0,M,60.6,M,,0000*40
$GPGSA,A,3,27,25,09,22,,,,,,,,,5.0,4.9,1.0*30
$GPRMC,081527.000,A,6405.1068,N,02140.7073,W,1.87,348.69,060912,,,A*7B
$GPGGA,081528.000,6405.1071,N,02140.7074,W,1,04,4.9,103.1,M,60.6,M,,0000*41
$GPGSA,A,3,27,25,09,22,,,,,,,,,5.0,4.9,1.0*30
$GPRMC,081530.000,A,6405.1079,N,02140.7077,W,1.27,350.86,060912,,,A*7B
$GPGGA,081531.000,6405.1088,N,02140.7081,W,1,04,4.9,103.2,M,60.6,M,,0000*46
$GPGSA,A,3,27,25,09,22,,,,,,,,,5.0,4.9,1.0*30
$GPRMC,081531.000,A,6405.1088,N,02140.7081,W,1.92,349.66,060912,,,A*75
$GPGGA,081532.000,6405.1100,N,02140.7085,W,1,04,4.9,103.2,M,60.6,M,,0000*40
$GPGSA,A,3,27,25,09,22,,,,,,,,,5.0,4.9,1.0*30
$GPRMC,081532.000,A,6405.1100,N,02140.7085,W,2.34,348.82,060912,,,A*77
$GPGGA,081533.000,6405.1112,N,02140.7090,W,1,04,4.9,103.3,M,60.6,M,,0000*47
$GPGSA,A,3,27,25,09,22,,,,,,,,,5.0,4.9,1.0*30
$GPRMC,081533.000,A,6405.1112,N,02140.7090,W,2.58,349.55,060912,,,A*70
$GPGGA,081534.000,6405.1119,N,02140.7093,W,1,04,4.9,103.3,M,60.6,M,,0000*48
$GPGSA,A,3,27,25,09,22,,,,,,,,,5.0,4.9,1.0*30
$GPRMC,081534.000,A,6405.1119,N,02140.7093,W,1.20,346.35,060912,,,A*7A
$GPGGA,081535.000,6405.1130,N,02140.7097,W,1,04,4.9,103.3,M,60.6,M,,0000*46
$GPGSA,A,3,27,25,09,22,,,,,,,,,5.0,4.9,1.0*30
$GPGSV,3,1,12,12,67,146,16,14,60,262,25,25,40,206,21,09,34,105,29*79
$GPGSV,3,2,12,27,26,104,34,32,18,332,,17,17,027,18,22,17,238,32*70
$GPGSV,3,3,12,31,10,272,21,01,08,328,23,04,03,066,,20,03,357,19*73
$GPRMC,081535.000,A,6405.1130,N,02140.7097,W,2.14,349.92,060912,,,A*72
$GPGGA,081536.000,6405.1139,N,02140.7101,W,1,04,4.9,103.3,M,60.6,M,,0000*42
$GPGSA,A,3,27,25,09,22,,,,,,,,,5.0,4.9,1.0*30
$GPRMC,081536.000,A,6405.1139,N,02140.7101,W,1.49,348.03,060912,,,A*74
$GPGGA,081537.000,6405.1141,N,02140.7102,W,1,04,4.9,103.4,M,60.6,M,,0000*48
$GPGSA,A,3,27,25,09,22,,,,,,,,,5.0,4.9,1.0*30
$GPRMC,081544.000,A,6405.1172,N,02140.7112,W,1.41,351.18,060912,,,A*76
$GPGGA,081545.000,6405.1181,N,02140.7116,W,1,04,4.9,105.5,M,60.6,M,,0000*43
$GPGSA,A,3,27,25,09,22,,,,,,,,,5.0,4.9,1.0*30
$GPGSV,3,1,12,12,68,146,15,14,60,261,25,25,40,206,21,09,34,105,29*76
$GPGSV,3,2,12,27,26,104,34,32,18,332,16,17,17,027,19,22,17,238,31*75
$GPGSV,3,3,12,31,10,272,22,01,08,328,23,04,04,066,,20,03,356,18*77
$GPRMC,081545.000,A,6405.1181,N,02140.7116,W,1.89,350.40,060912,,,A*77
$GPGGA,081546.000,6405.1189,N,02140.7119,W,1,04,4.9,105.9,M,60.6,M,,0000*4B
$GPGSA,A,3,27,25,09,22,,,,,,,,,5.0,4.9,1.0*30
$GPRMC,081546.000,A,6405.1189,N,02140.7119,W,1.86,350.84,060912,,,A*74
$GPGGA,081547.000,6405.1190,N,02140.7120,W,1,04,4.9,106.4,M,60.6,M,,0000*46
$GPGSA,A,3,27,25,09,22,,,,,,,,,5.0,4.9,1.0*30
$GPRMC,081548.000,A,6405.1185,N,02140.7119,W,1.97,173.25,060912,,,A*7E
$GPGGA,081549.000,6405.1181,N,02140.7118,W,1,04,4.9,107.2,M,60.6,M,,0000*44
$GPGSA,A,3,27,25,09,22,,,,,,,,,5.0,4.9,1.0*30
$GPRMC,081549.000,A,6405.1181,N,02140.7118,W,1.64,172.13,060912,,,A*72
$GPGGA,081550.000,6405.1180,N,02140.7118,W,1,04,4.9,107.6,M,60.6,M,,0000*49
$GPGSA,A,3,27,25,09,22,,,,,,,,,5.0,4.9,1.0*30
$GPGSV,3,1,12,12,68,146,15,14,60,261,25,25,40,206,21,09,34,105,29*76
$GPGSV,3,2,12,27,26,104,35,32,18,332,16,17,17,027,20,22,17,238,31*7E
$GPGSV,3,3,12,31,10,272,22,01,08,328,23,04,04,066,,20,03,356,18*77
$GPRMC,081550.000,A,6405.1180,N,02140.7118,W,0.88,170.32,060912,,,A*79
$GPGGA,081551.000,6405.1185,N,02140.7120,W,1,04,4.9,108.0,M,60.6,M,,0000*4F
$GPGSA,A,3,27,25,09,22,,,,,,,,,5.0,4.9,1.0*30
$GPRMC,081551.000,A,6405.1185,N,02140.7120,W,0.89,352.29,060912,,,A*7F
$GPGGA,081552.000,6405.1184,N,02140.7120,W,1,04,4.9,108.4,M,60.6,M,,0000*49
$GPGSA,A,3,27,25,09,22,,,,,,,,,5.0,4.9,1.0*30
$GPRMC,081555.000,A,6405.1182,N,02140.7119,W,0.91,173.46,060912,,,A*77
$GPGGA,081556.000,6405.1183,N,02140.7120,W,1,04,4.9,109.5,M,60.6,M,,0000*4A
$GPGSA,A,3,27,25,09,22,,,,,,,,,5.0,4.9,1.0*30
$GPRMC,081557.000,A,6405.1190,N,02140.7123,W,1.31,351.39,060912,,,A*7E
$GPGGA,081558.000,6405.1198,N,02140.7127,W,1,04,4.9,109.9,M,60.6,M,,0000*45
$GPGSA,A,3,27,25,09,22,,,,,,,,,5.0,4.9,1.0*30
$GPRMC,081558.000,A,6405.1198,N,02140.7127,W,1.86,350.83,060912,,,A*71
$GPGGA,081559.000,6405.1211,N,02140.7131,W,1,04,4.9,110.1,M,60.6,M,,0000*41
$GPGSA,A,3,27,25,09,22,,,,,,,,,5.0,4.9,1.0*30
$GPRMC,081559.000,A,6405.1211,N,02140.7131,W,2.95,351.02,060912,,,A*7C
$GPGGA,081600.000,6405.1217,N,02140.7134,W,1,04,4.9,110.3,M,60.6,M,,0000*4F
$GPGSA,A,3,27,25,09,22,,,,,,,,,5.0,4.9,1.0*30
$GPGSV,3,1,12,12,68,146,,14,60,261,24,25,40,206,21,09,34,105,28*72
$GPGSV,3,2,12,27,26,104,35,32,18,332,17,17,17,027,21,22,17,238,30*7F
$GPGSV,3,3,12,31,10,272,22,01,08,328,23,04,04,066,,20,03,356,17*78
$GPRMC,081600.000,A,6405.1217,N,02140.7134,W,1.51,348.38,060912,,,A*7A
$GPGGA,081601.000,6405.1224,N,02140.7138,W,1,04,4.9,110.5,M,60.6,M,,0000*44
$GPGSA,A,3,27,25,09,22,,,,,,,,,5.0,4.9,1.0*30
$GPRMC,081601.000,A,6405.1224,N,02140.7138,W,1.49,348.39,060912,,,A*7F
$GPGGA,081602.000,6405.1232,N,02140.7141,W,1,04,5.0,110.6,M,60.6,M,,0000*45
$GPGSA,A,3,27,25,09,22,,,,,,,,,5.0,5.0,1.0*38
$GPRMC,081602.000,A,6405.1232,N,02140.7141,W,1.92,350.13,060912,,,A*72
$GPGGA,081603.000,6405.1244,N,02140.7146,W,1,04,5.0,110.8,M,60.6,M,,0000*4C
$GPGSA,A,3,27,25,09,22,,,,,,,,,5.1,5.0,1.0*39
$GPRMC,081603.000,A,6405.1244,N,02140.7146,W,2.68,349.62,060912,,,A*7D
$GPGGA,081604.000,6405.1256,N,02140.7151,W,1,04,5.0,111.0,M,60.6,M,,0000*47
$GPGSA,A,3,27,25,09,22,,,,,,,,,5.1,5.0,1.0*39
$GPRMC,081604.000,A,6405.1256,N,02140.7151,W,2.65,350.64,060912,,,A*7C
$GPGGA,081605.000,6405.1266,N,02140.7155,W,1,04,5.0,111.3,M,60.6,M,,0000*42
$GPGSA,A,3,27,25,09,22,,,,,,,,,5.1,5.0,1.0*39
$GPGSV,3,1,12,12,68,146,,14,60,261,24,25,40,206,21,09,34,105,28*72
$GPGSV,3,2,12,27,26,104,35,32,18,332,18,17,17,027,22,22,17,238,31*72
$GPGSV,3,3,12,31,10,272,23,01,08,328,23,04,04,066,,20,03,356,16*78
$GPRMC,081605.000,A,6405.1266,N,02140.7155,W,2.26,349.68,060912,,,A*79
$GPGGA,081606.000,6405.1274,N,02140.7158,W,1,04,5.0,111.6,M,60.6,M,,0000*4A
$GPGSA,A,3,27,25,09,22,,,,,,,,,5.1,5.0,1.0*39
$GPRMC,081606.000,A,6405.1274,N,02140.7158,W,1.84,352.45,060912,,,A*7A
$GPGGA,081607.000,6405.1282,N,02140.7162,W,1,04,5.0,111.9,M,60.6,M,,0000*44
$GPGSA,A,3,27,25,09,22,,,,,,,,,5.1,5.0,1.0*39
$GPRMC,081607.000,A,6405.1282,N,02140.7162,W,1.92,351.53,060912,,,A*78
$GPGGA,081608.000,6405.1293,N,02140.7166,W,1,04,5.0,112.2,M,60.6,M,,0000*47
$GPGSA,A,3,27,25,09,22,,,,,,,,,5.1,5.0,1.0*39
$GPRMC,081608.000,A,6405.1293,N,02140.7166,W,2.86,351.35,060912,,,A*75
$GPGGA,081609.000,6405.1301,N,02140.7170,W,1,04,5.0,112.5,M,60.6,M,,0000*4C
$GPGSA,A,3,27,25,09,22,,,,,,,,,5.1,5.0,1.0*39
$GPRMC,081609.000,A,6405.1301,N,02140.7170,W,2.13,349.13,060912,,,A*78
$GPGGA,081610.000,6405.1308,N,02140.7173,W,1,04,5.0,113.0,M,60.6,M,,0000*4A
$GPGSA,A,3,27,25,09,22,,,,,,,,,5.1,5.0,1.0*39
$GPGSV,3,1,12,12,68,146,,14,60,261,23,25,40,206,22,09,34,105,28*76
$GPGSV,3,2,12,27,26,104,35,32,18,332,18,17,17,027,21,22,17,238,30*70
$GPGSV,3,3,12,31,10,272,23,01,08,328,23,04,04,066,,20,03,356,16*78
$GPRMC,081610.000,A,6405.1308,N,02140.7173,W,1.98,351.30,060912,,,A*72
$GPGGA,081611.000,6405.1313,N,02140.7178,W,1,04,5.0,113.4,M,60.6,M,,0000*4E
$GPGSA,A,3,27,25,09,22,,,,,,,,,5.1,5.0,1.0*39
$GPRMC,081611.000,A,6405.1313,N,02140.7178,W,1.61,332.68,060912,,,A*7C
$GPGGA,081612.000,6405.1320,N,02140.7181,W,1,04,5.0,113.9,M,60.6,M,,0000*46
$GPGSA,A,3,27,25,09,22,,,,,,,,,5.1,5.0,1.0*39
$GPRMC,081612.000,A,6405.1320,N,02140.7181,W,1.80,347.34,060912,,,A*7D
$GPGGA,081613.000,6405.1325,N,02140.7185,W,1,04,5.0,114.4,M,60.6,M,,0000*4C
$GPGSA,A,3,27,25,09,22,,,,,,,,,5.1,5.0,1.0*39
$GPRMC,081613.000,A,6405.1325,N,02140.7185,W,1.43,345.79,060912,,,A*79
$GPGGA,081614.000,6405.1329,N,02140.7187,W,1,04,5.0,114.9,M,60.6,M,,0000*48
$GPGSA,A,3,27,25,09,22,,,,,,,,,5.1,5.0,1.0*39
$GPRMC,081614.000,A,6405.1329,N,02140.7187,W,0.92,346.64,060912,,,A*72
$GPGGA,081615.000,6405.1333,N,02140.7189,W,1,04,5.0,115.4,M,60.6,M,,0000*40
$GPGSA,A,3,27,25,09,22,,,,,,,,,5.1,5.0,1.0*39
$GPGSV,3,1,12,12,68,145,,14,60,261,23,25,40,206,21,09,34,105,28*76
$GPGSV,3,2,12,27,25,104,35,32,18,332,18,17,17,027,21,22,17,237,30*7C
$GPGSV,3,3,12,31,10,272,23,01,07,328,23,04,04,066,,20,03,356,17*76
$GPRMC,081617.000,A,6405.1331,N,02140.7190,W,0.86,175.59,060912,,,A*77
$GPGGA,081618.000,6405.1328,N,02140.7190,W,1,04,5.0,117.1,M,60.6,M,,0000*48
$GPGSA,A,3,27,25,09,22,,,,,,,,,5.1,5.0,1.0*39
$GPRMC,081618.000,A,6405.1328,N,02140.7190,W,0.97,171.03,060912,,,A*7B
$GPGGA,081619.000,6405.1329,N,02140.7190,W,1,04,5.0,117.6,M,60.6,M,,0000*4F
$GPGSA,A,3,27,25,09,22,,,,,,,,,5.1,5.0,1.0*39
$GPRMC,081620.000,A,6405.1333,N,02140.7192,W,1.23,351.80,060912,,,A*7D
$GPGGA,081621.000,6405.1337,N,02140.7195,W,1,04,5.0,118.6,M,60.6,M,,0000*41
$GPGSA,A,3,27,25,09,22,,,,,,,,,5.1,5.0,1.0*39
$GPRMC,081621.000,A,6405.1337,N,02140.7195,W,1.13,349.21,060912,,,A*7E
$GPGGA,081622.000,6405.1340,N,02140.7196,W,1,04,5.0,119.1,M,60.6,M,,0000*47
$GPGSA,A,3,27,25,09,22,,,,,,,,,5.1,5.0,1.0*39
$GPRMC,081622.000,A,6405.1340,N,02140.7196,W,0.96,351.41,060912,,,A*7D
$GPGGA,081623.000,6405.1339,N,02140.7196,W,1,04,5.0,119.6,M,60.6,M,,0000*4F
$GPGSA,A,3,27,25,09,22,,,,,,,,,5.1,5.0,1.0*39
$GPRMC,081625.000,A,6405.1327,N,02140.7193,W,2.02,173.07,060912,,,A*71
$GPGGA,081626.000,6405.1314,N,02140.7190,W,1,04,5.0,121.0,M,60.6,M,,0000*4E
$GPGSA,A,3,27,25,09,22,,,,,,,,,5.1,5.0,1.0*39
$GPRMC,081626.000,A,6405.1314,N,02140.7190,W,2.84,171.14,060912,,,A*7F
$GPGGA,081627.000,6405.1305,N,02140.7186,W,1,04,5.0,121.4,M,60.6,M,,0000*4C
$GPGSA,A,3,27,25,09,22,,,,,,,,,5.1,5.0,1.0*39
$GPRMC,081627.000,A,6405.1305,N,02140.7186,W,2.06,170.16,060912,,,A*70
$GPGGA,081628.000,6405.1301,N,02140.7185,W,1,04,5.0,121.9,M,60.6,M,,0000*49
$GPGSA,A,3,27,25,09,22,,,,,,,,,5.1,5.0,1.0*39
$GPRMC,081633.000,A,6405.1301,N,02140.7189,W,1.34,351.17,060912,,,A*7C
$GPGGA,081634.000,6405.1307,N,02140.7192,W,1,04,5.0,123.7,M,60.6,M,,0000*48
$GPGSA,A,3,27,25,09,22,,,,,,,,,5.1,5.0,1.0*39
$GPRMC,081634.000,A,6405.1307,N,02140.7192,W,1.85,350.37,060912,,,A*7E
$GPGGA,081635.000,6405.1314,N,02140.7196,W,1,04,5.0,123.9,M,60.6,M,,0000*41
$GPGSA,A,3,27,25,09,22,,,,,,,,,5.1,5.0,1.0*39
$GPGSV,3,1,12,12,68,145,15,14,60,261,22,25,40,206,22,09,34,105,29*71
$GPGSV,3,2,12,27,25,104,35,32,18,332,19,17,17,027,21,22,17,237,29*75
$GPGSV,3,3,12,31,10,272,23,01,07,328,22,04,04,066,15,20,03,356,16*72
$GPRMC,081635.000,A,6405.1314,N,02140.7196,W,2.20,348.54,060912,,,A*79
$GPGGA,081636.000,6405.1320,N,02140.7199,W,1,04,5.0,124.0,M,60.6,M,,0000*44
$GPGSA,A,3,27,25,09,22,,,,,,,,,5.1,5.0,1.0*39
$GPRMC,081636.000,A,6405.1320,N,02140.7199,W,1.68,350.14,060912,,,A*70
$GPGGA,081637.000,6405.1322,N,02140.7200,W,1,04,5.0,124.2,M,60.6,M,,0000*46
$GPGSA,A,3,27,25,09,22,,,,,,,,,5.1,5.0,1.0*39
$GPRMC,081637.000,A,6405.1322,N,02140.7200,W,1.16,351.89,060912,,,A*7C
$GPGGA,081638.000,6405.1322,N,02140.7200,W,1,04,5.1,124.3,M,60.6,M,,0000*49
$GPGSA,A,3,27,25,09,22,,,,,,,,,5.1,5.1,1.0*38
$GPRMC,081639.000,A,6405.1324,N,02140.7202,W,1.18,350.04,060912,,,A*7C
$GPGGA,081640.000,6405.1323,N,02140.7203,W,1,04,5.1,124.4,M,60.6,M,,0000*43
$GPGSA,A,3,27,25,09,22,,,,,,,,,5.2,5.1,1.0*3B
$GPGSV,3,1,12,12,68,145,13,14,60,261,22,25,40,206,22,09,34,105,29*77
$GPGSV,3,2,12,27,25,104,35,32,18,332,19,17,17,027,20,22,17,237,29*74
$GPGSV,3,3,12,31,10,272,23,01,07,328,23,04,04,066,14,20,03,356,16*72
$GPRMC,081642.000,A,6405.1324,N,02140.7204,W,1.51,352.37,060912,,,A*79
$GPGGA,081643.000,6405.1330,N,02140.7207,W,1,04,5.1,124.5,M,60.6,M,,0000*47
$GPGSA,A,3,27,25,09,22,,,,,,,,,5.2,5.1,1.0*3B
$GPRMC,081643.000,A,6405.1330,N,02140.7207,W,1.82,349.17,060912,,,A*78
$GPGGA,081644.000,6405.1336,N,02140.7210,W,1,04,5.1,124.5,M,60.6,M,,0000*40
$GPGSA,A,3,27,25,09,22,,,,,,,,,5.2,5.1,1.0*3B
$GPRMC,081644.000,A,6405.1336,N,02140.7210,W,1.69,347.44,060912,,,A*72
$GPGGA,081645.000,6405.1344,N,02140.7213,W,1,04,5.1,124.4,M,60.6,M,,0000*46
$GPGSA,A,3,27,25,09,22,,,,,,,,,5.2,5.1,1.0*3B
$GPGSV,3,1,12,12,68,145,13,14,60,261,21,25,40,206,22,09,34,105,30*7C
$GPGSV,3,2,12,27,25,104,35,32,18,332,19,17,17,027,20,22,17,237,29*74
$GPGSV,3,3,12,31,10,272,23,01,07,328,23,04,04,066,13,20,03,356,15*76
$GPRMC,081645.000,A,6405.1344,N,02140.7213,W,2.40,351.15,060912,,,A*7E
$GPGGA,081646.000,6405.1348,N,02140.7215,W,1,04,5.1,124.3,M,60.6,M,,0000*48
$GPGSA,A,3,27,25,09,22,,,,,,,,,5.2,5.1,1.0*3B
$GPRMC,081646.000,A,6405.1348,N,02140.7215,W,1.42,349.45,060912,,,A*7A
$GPGGA,081647.000,6405.1353,N,02140.7217,W,1,04,5.1,124.3,M,60.6,M,,0000*41
$GPGSA,A,3,27,25,09,22,,,,,,,,,5.2,5.1,1.0*3B
$GPRMC,081647.000,A,6405.1353,N,02140.7217,W,1.60,350.70,060912,,,A*7D
$GPGGA,081648.000,6405.1362,N,02140.7221,W,1,04,5.1,124.2,M,60.6,M,,0000*48
$GPGSA,A,3,27,25,09,22,,,,,,,,,5.2,5.1,1.0*3B
$GPRMC,081648.000,A,6405.1362,N,02140.7221,W,3.07,351.84,060912,,,A*7C
$GPGGA,081649.000,6405.1368,N,02140.7223,W,1,04,5.1,124.0,M,60.6,M,,0000*43
$GPGSA,A,3,27,25,09,22,,,,,,,,,5.2,5.1,1.0*3B
$GPRMC,081649.000,A,6405.1368,N,02140.7223,W,2.52,351.81,060912,,,A*71
$GPGGA,081650.000,6405.1370,N,02140.7224,W,1,04,5.1,123.9,M,60.6,M,,0000*4B
$GPGSA,A,3,27,25,09,22,,,,,,,,,5.2,5.1,1.0*3B
$GPGSV,3,1,12,12,68,145,12,14,60,261,20,25,40,206,22,09,34,105,30*7C
$GPGSV,3,2,12,27,25,104,35,32,18,332,18,17,17,027,20,22,17,237,29*75
$GPGSV,3,3,12,31,10,272,23,01,07,328,24,04,04,066,,20,03,356,15*73
$GPRMC,081650.000,A,6405.1370,N,02140.7224,W,1.18,347.33,060912,,,A*74
$GPGGA,081651.000,6405.1372,N,02140.7226,W,1,04,5.1,123.8,M,60.6,M,,0000*4B
$GPGSA,A,3,27,25,09,22,,,,,,,,,5.2,5.1,1.0*3B
$GPRMC,081651.000,A,6405.1372,N,02140.7226,W,1.11,348.19,060912,,,A*7B
$GPGGA,081652.000,6405.1373,N,02140.7228,W,1,04,5.1,123.7,M,60.6,M,,0000*48
$GPGSA,A,3,27,25,09,22,,,,,,,,,5.2,5.1,1.0*3B
$GPRMC,081652.000,A,6405.1373,N,02140.7228,W,0.92,338.61,060912,,,A*75
$GPGGA,081653.000,6405.1368,N,02140.7227,W,1,04,5.1,123.5,M,60.6,M,,0000*4E
$GPGSA,A,3,27,25,09,22,,,,,,,,,5.2,5.1,1.0*3B
$GPRMC,081653.000,A,6405.1368,N,02140.7227,W,1.11,176.04,060912,,,A*70
$GPGGA,081654.000,6405.1359,N,02140.7223,W,1,04,5.1,123.4,M,60.6,M,,0000*4E
$GPGSA,A,3,27,25,09,22,,,,,,,,,5.2,5.1,1.0*3B
$GPRMC,081654.000,A,6405.1359,N,02140.7223,W,1.82,169.70,060912,,,A*76
$GPGGA,081655.000,6405.1355,N,02140.7221,W,1,04,5.1,123.3,M,60.6,M,,0000*46
$GPGSA,A,3,27,25,09,22,,,,,,,,,5.2,5.1,1.0*3B
$GPGSV,3,1,12,12,68,145,12,14,60,261,20,25,40,206,22,09,34,105,31*7D
$GPGSV,3,2,12,27,25,104,35,32,18,332,18,17,17,027,19,22,17,237,29*7F
$GPGSV,3,3,12,31,10,272,23,01,07,328,24,04,04,066,,20,03,356,14*72
$GPRMC,081656.000,A,6405.1360,N,02140.7223,W,2.20,353.22,060912,,,A*79
$GPGGA,081657.000,6405.1368,N,02140.7226,W,1,04,5.1,122.9,M,60.6,M,,0000*46
$GPGSA,A,3,27,25,09,22,,,,,,,,,5.2,5.1,1.0*3B
$GPRMC,081657.000,A,6405.1368,N,02140.7226,W,2.57,349.54,060912,,,A*7F
$GPGGA,081658.000,6405.1377,N,02140.7230,W,1,04,5.1,122.7,M,60.6,M,,0000*4E
$GPGSA,A,3,27,25,09,22,,,,,,,,,5.2,5.1,1.0*3B
$GPRMC,081658.000,A,6405.1377,N,02140.7230,W,2.95,349.07,060912,,,A*71
$GPGGA,081659.000,6405.1382,N,02140.7232,W,1,04,5.1,122.5,M,60.6,M,,0000*45
$GPGSA,A,3,27,25,09,22,,,,,,,,,5.2,5.1,1.0*3B
$GPRMC,081659.000,A,6405.1382,N,02140.7232,W,1.61,349.25,060912,,,A*70
$GPGGA,081700.000,6405.1378,N,02140.7231,W,1,04,5.1,122.3,M,60.6,M,,0000*48
$GPGSA,A,3,27,25,09,22,,,,,,,,,5.2,5.1,1.0*3B
$GPGSV,3,1,12,12,68,145,12,14,60,261,20,25,40,206,21,09,34,105,31*7E
$GPGSV,3,2,12,27,25,104,35,32,18,332,18,17,17,027,19,22,17,237,29*7F
$GPGSV,3,3,12,31,10,272,23,01,07,328,24,04,04,066,,20,03,356,13*75
$GPRMC,081701.000,A,6405.1372,N,02140.7228,W,1.25,167.66,060912,,,A*71
$GPGGA,081702.000,6405.1364,N,02140.7225,W,1,04,5.1,122.0,M,60.6,M,,0000*41
$GPGSA,A,3,27,25,09,22,,,,,,,,,5.2,5.1,1.0*3B
$GPRMC,081702.000,A,6405.1364,N,02140.7225,W,1.36,166.94,060912,,,A*76
$GPGGA,081703.000,6405.1355,N,02140.7221,W,1,04,5.1,121.8,M,60.6,M,,0000*4D
$GPGSA,A,3,27,25,09,22,,,,,,,,,5.2,5.1,1.0*3B
$GPRMC,081703.000,A,6405.1355,N,02140.7221,W,1.92,170.37,060912,,,A*71
$GPGGA,081704.000,6405.1343,N,02140.7216,W,1,04,5.1,121.6,M,60.6,M,,0000*47
$GPGSA,A,3,27,25,09,22,,,,,,,,,5.2,5.1,1.0*3B
$GPRMC,081704.000,A,6405.1343,N,02140.7216,W,2.92,171.14,060912,,,A*76
$GPGGA,081705.000,6405.1331,N,02140.7212,W,1,04,5.1,121.4,M,60.6,M,,0000*45
$GPGSA,A,3,27,25,09,22,,,,,,,,,5.2,5.1,1.0*3B
$GPGSV,3,1,12,12,68,145,12,14,60,261,20,25,40,206,21,09,34,105,31*7E
$GPGSV,3,2,12,27,25,104,35,32,18,332,17,17,17,027,20,22,17,237,29*7A
$GPGSV,3,3,12,31,10,272,23,01,07,328,24,04,04,066,,20,03,356,*77
$GPRMC,081705.000,A,6405.1331,N,02140.7212,W,2.76,170.79,060912,,,A*76
$GPGGA,081706.000,6405.1327,N,02140.7210,W,1,04,5.1,121.2,M,60.6,M,,0000*45
$GPGSA,A,3,27,25,09,22,,,,,,,,,5.2,5.1,1.0*3B
$GPRMC,081706.000,A,6405.1327,N,02140.7210,W,1.06,167.39,060912,,,A*76
$GPGGA,081707.000,6405.1327,N,02140.7210,W,1,04,5.1,121.0,M,60.6,M,,0000*46
$GPGSA,A,3,27,25,09,22,,,,,,,,,5.2,5.1,1.0*3B
$GPRMC,081712.000,A,6405.1311,N,02140.7203,W,1.32,174.37,060912,,,A*7F
$GPGGA,081713.000,6405.1305,N,02140.7200,W,1,04,5.2,119.8,M,60.6,M,,0000*42
$GPGSA,A,3,27,25,09,22,,,,,,,,,5.2,5.2,1.0*38
$GPRMC,081713.000,A,6405.1305,N,02140.7200,W,1.40,172.94,060912,,,A*72
$GPGGA,081714.000,6405.1299,N,02140.7198,W,1,04,5.2,119.6,M,60.6,M,,0000*4D
$GPGSA,A,3,27,25,09,22,,,,,,,,,5.2,5.2,1.0*38
$GPRMC,081714.000,A,6405.1299,N,02140.7198,W,1.43,169.38,060912,,,A*7C
$GPGGA,081715.000,6405.1297,N,02140.7197,W,1,04,5.2,119.4,M,60.6,M,,0000*4F
$GPGSA,A,3,27,25,09,22,,,,,,,,,5.3,5.2,1.0*39
$GPGSV,3,1,12,12,68,145,,14,60,261,21,25,40,206,20,09,34,105,31*7D
$GPGSV,3,2,12,27,25,104,35,32,18,332,16,17,17,027,19,22,17,237,28*70
$GPGSV,3,3,12,31,10,272,24,01,07,328,24,04,04,066,,20,03,356,*70
$GPRMC,081717.000,A,6405.1304,N,02140.7199,W,1.18,349.05,060912,,,A*7B
$GPGGA,081718.000,6405.1306,N,02140.7200,W,1,04,5.2,118.7,M,60.6,M,,0000*44
$GPGSA,A,3,27,25,09,22,,,,,,,,,5.3,5.2,1.0*39
$GPRMC,081719.000,A,6405.1311,N,02140.7199,W,1.35,358.71,060912,,,A*7D
$GPGGA,081720.000,6405.1321,N,02140.7201,W,1,04,5.2,118.3,M,60.6,M,,0000*4F
$GPGSA,A,3,27,25,09,22,,,,,,,,,5.3,5.2,1.0*39
$GPGSV,3,1,12,12,68,145,,14,60,261,21,25,40,206,20,09,34,105,32*7E
$GPGSV,3,2,12,27,25,104,35,32,18,332,16,17,17,027,19,22,17,237,28*70
$GPGSV,3,3,12,31,10,272,24,01,07,328,24,04,04,066,,20,03,356,*70
$GPRMC,081720.000,A,6405.1321,N,02140.7201,W,2.84,356.72,060912,,,A*72
$GPGGA,081721.000,6405.1326,N,02140.7202,W,1,04,5.2,118.1,M,60.6,M,,0000*48
$GPGSA,A,3,27,25,09,22,,,,,,,,,5.3,5.2,1.0*39
$GPRMC,081721.000,A,6405.1326,N,02140.7202,W,1.38,349.57,060912,,,A*7A
$GPGGA,081722.000,6405.1330,N,02140.7203,W,1,04,5.2,117.9,M,60.6,M,,0000*4A
$GPGSA,A,3,27,25,09,22,,,,,,,,,5.3,5.2,1.0*39
$GPRMC,081722.000,A,6405.1330,N,02140.7203,W,0.96,344.13,060912,,,A*77
$GPGGA,081723.000,6405.1334,N,02140.7204,W,1,04,5.2,117.7,M,60.6,M,,0000*46
$GPGSA,A,3,27,25,09,22,,,,,,,,,5.3,5.2,1.0*39
$GPRMC,081723.000,A,6405.1334,N,02140.7204,W,0.92,348.87,060912,,,A*70
$GPGGA,081724.000,6405.1339,N,02140.7207,W,1,04,5.2,117.5,M,60.6,M,,0000*4D
$GPGSA,A,3,27,25,09,22,,,,,,,,,5.3,5.2,1.0*39
$GPRMC,081724.000,A,6405.1339,N,02140.7207,W,1.09,338.39,060912,,,A*78
$GPGGA,081725.000,6405.1349,N,02140.7210,W,1,04,5.2,117.2,M,60.6,M,,0000*4A
$GPGSA,A,3,27,25,09,22,,,,,,,,,5.3,5.2,1.0*39
$GPGSV,3,1,12,12,68,145,,14,60,261,22,25,40,206,20,09,34,105,32*7D
$GPGSV,3,2,12,27,25,104,35,32,18,332,15,17,17,027,19,22,17,237,27*7C
$GPGSV,3,3,12,31,10,272,25,01,07,328,24,04,04,066,,20,03,356,*71
$GPRMC,081725.000,A,6405.1349,N,02140.7210,W,2.39,351.07,060912,,,A*7A
$GPGGA,081726.000,6405.1367,N,02140.7216,W,1,04,5.2,116.9,M,60.6,M,,0000*49
$GPGSA,A,3,27,25,09,22,,,,,,,,,5.3,5.2,1.0*39
$GPRMC,081726.000,A,6405.1367,N,02140.7216,W,4.72,351.43,060912,,,A*7A
$GPGGA,081727.000,6405.1382,N,02140.7221,W,1,04,5.2,116.7,M,60.6,M,,0000*49
$GPGSA,A,3,27,25,09,22,,,,,,,,,5.3,5.2,1.0*39
$GPRMC,081727.000,A,6405.1382,N,02140.7221,W,3.89,349.33,060912,,,A*79
$GPGGA,081728.000,6405.1395,N,02140.7226,W,1,04,5.2,116.4,M,60.6,M,,0000*44
$GPGSA,A,3,27,25,09,22,,,,,,,,,5.3,5.2,1.0*39
$GPRMC,081728.000,A,6405.1395,N,02140.7226,W,3.23,348.16,060912,,,A*71
$GPGGA,081729.000,6405.1413,N,02140.7234,W,1,04,5.2,116.1,M,60.6,M,,0000*4A
$GPGSA,A,3,27,25,09,22,,,,,,,,,5.3,5.2,1.0*39
$GPRMC,081729.000,A,6405.1413,N,02140.7234,W,4.87,349.34,060912,,,A*72
$GPGGA,081730.000,6405.1440,N,02140.7245,W,1,04,5.2,115.8,M,60.6,M,,0000*48
$GPGSA,A,3,27,25,09,22,,,,,,,,,5.3,5.2,1.0*39
$GPGSV,3,1,12,12,68,145,,14,60,261,22,25,40,206,20,09,34,105,32*7D
$GPGSV,3,2,12,27,25,104,35,32,18,332,15,17,17,027,19,22,17,237,27*7C
$GPGSV,3,3,12,31,10,272,25,01,07,328,24,04,04,066,,20,03,356,*71
$GPRMC,081730.000,A,6405.1440,N,02140.7245,W,7.34,350.04,060912,,,A*7A
$GPGGA,081731.000,6405.1467,N,02140.7255,W,1,04,5.2,115.4,M,60.6,M,,0000*41
$GPGSA,A,3,27,25,09,22,,,,,,,,,5.3,5.2,1.0*39
$GPRMC,081731.000,A,6405.1467,N,02140.7255,W,7.59,350.35,060912,,,A*76
$GPGGA,081732.000,6405.1484,N,02140.7262,W,1,04,5.2,115.1,M,60.6,M,,0000*4E
$GPGSA,A,3,27,25,09,22,,,,,,,,,5.3,5.2,1.0*39
$GPRMC,081732.000,A,6405.1484,N,02140.7262,W,5.09,349.39,060912,,,A*7F
$GPGGA,081733.000,6405.1497,N,02140.7268,W,0,03,,114.8,M,60.6,M,,0000*60
$GPGSA,A,1,27,09,22,,,,,,,,,,,,*12
$GPRMC,081734.000,A,6405.1501,N,02140.7271,W,1.68,343.01,060912,,,A*75
$GPGGA,081735.000,6405.1504,N,02140.7273,W,1,04,5.2,114.2,M,60.6,M,,0000*42
$GPGSA,A,3,27,25,09,22,,,,,,,,,5.3,5.2,1.0*39
$GPGSV,3,1,12,12,68,145,,14,60,261,22,25,40,206,19,09,34,105,32*77
$GPGSV,3,2,12,27,25,104,35,32,18,332,14,17,17,027,18,22,17,237,26*7D
$GPGSV,3,3,12,31,10,272,25,01,07,328,24,04,04,066,,20,03,356,*71
$GPRMC,081735.000,A,6405.1504,N,02140.7273,W,1.15,341.14,060912,,,A*7F
$GPGGA,081736.000,6405.1501,N,02140.7273,W,1,04,5.2,114.0,M,60.6,M,,0000*46
$GPGSA,A,3,27,25,09,22,,,,,,,,,5.3,5.2,1.0*39
$GPRMC,081737.000,A,6405.1491,N,02140.7270,W,2.47,172.79,060912,,,A*7E
$GPGGA,081738.000,6405.1483,N,02140.7266,W,0,03,,113.5,M,60.6,M,,0000*6A
$GPGSA,A,1,27,09,22,,,,,,,,,,,,*12
$GPRMC,081739.000,A,6405.1470,N,02140.7260,W,2.98,167.71,060912,,,A*70
$GPGGA,081740.000,6405.1457,N,02140.7254,W,1,04,5.2,113.1,M,60.6,M,,0000*46
$GPGSA,A,3,27,25,09,22,,,,,,,,,5.3,5.2,1.0*39
$GPGSV,3,1,12,12,68,145,,14,60,261,22,25,40,206,18,09,34,105,33*77
$GPGSV,3,2,12,27,25,104,35,32,18,332,15,17,17,027,17,22,17,237,27*72
$GPGSV,3,3,12,31,10,272,26,01,07,328,24,04,04,066,,20,03,356,*72
$GPRMC,081740.000,A,6405.1457,N,02140.7254,W,2.85,168.39,060912,,,A*73
$GPGGA,081741.000,6405.1446,N,02140.7248,W,1,04,5.2,112.9,M,60.6,M,,0000*43
$GPGSA,A,3,27,25,09,22,,,,,,,,,5.3,5.2,1.0*39
$GPRMC,081741.000,A,6405.1446,N,02140.7248,W,2.45,167.99,060912,,,A*76
$GPGGA,081742.000,6405.1443,N,02140.7246,W,1,04,5.2,112.6,M,60.6,M,,0000*44
$GPGSA,A,3,27,25,09,22,,,,,,,,,5.3,5.2,1.0*39
$GPRMC,081746.000,A,6405.1442,N,02140.7243,W,0.92,355.79,060912,,,A*7B
$GPGGA,081747.000,6405.1439,N,02140.7240,W,1,04,5.3,111.5,M,60.6,M,,0000*4B
$GPGSA,A,3,27,25,09,22,,,,,,,,,5.3,5.3,1.0*38
$GPRMC,081750.000,A,6405.1440,N,02140.7236,W,1.53,356.00,060912,,,A*7D
$GPGGA,081751.000,6405.1438,N,02140.7234,W,1,04,5.3,110.7,M,60.6,M,,0000*4D
$GPGSA,A,3,27,25,09,22,,,,,,,,,5.4,5.3,1.0*3F
$GPRMC,081751.000,A,6405.1438,N,02140.7234,W,1.12,355.82,060912,,,A*7D
$GPGGA,081752.000,6405.1438,N,02140.7233,W,1,04,5.3,110.5,M,60.6,M,,0000*4B
$GPGSA,A,3,27,25,09,22,,,,,,,,,5.4,5.3,1.0*3F
$GPRMC,081752.000,A,6405.1438,N,02140.7233,W,1.86,354.39,060912,,,A*75
$GPGGA,081753.000,6405.1444,N,02140.7233,W,1,04,5.3,110.3,M,60.6,M,,0000*47
$GPGSA,A,3,27,25,09,22,,,,,,,,,5.4,5.3,1.0*3F
$GPRMC,081753.000,A,6405.1444,N,02140.7233,W,3.59,352.81,060912,,,A*7A
$GPGGA,081754.000,6405.1456,N,02140.7237,W,1,04,5.3,110.1,M,60.6,M,,0000*45
$GPGSA,A,3,27,25,09,22,,,,,,,,,5.4,5.3,1.0*3F
$GPRMC,081754.000,A,6405.1456,N,02140.7237,W,5.30,351.12,060912,,,A*7A
$GPGGA,081755.000,6405.1469,N,02140.7241,W,0,03,,109.9,M,60.6,M,,0000*67
$GPGSA,A,1,27,09,22,,,,,,,,,,,,*12
$GPGSV,3,1,12,12,68,143,,14,60,259,22,25,41,206,14,09,33,105,33*70
$GPGSV,3,2,12,27,25,105,35,32,19,331,12,17,17,027,17,22,16,237,28*78
$GPGSV,3,3,12,31,11,272,26,01,07,327,24,04,04,065,,20,04,356,*78
$GPRMC,081840.000,A,6405.1854,N,02140.7378,W,6.74,173.21,060912,,,A*75
$GPGGA,081841.000,6405.1790,N,02140.7359,W,1,04,5.4,99.5,M,60.6,M,,0000*7D
$GPGSA,A,3,27,09,22,25,,,,,,,,,5.5,5.4,1.0*39
$GPRMC,081841.000,A,6405.1790,N,02140.7359,W,8.15,176.05,060912,,,A*7A
$GPGGA,081842.000,6405.1731,N,02140.7342,W,1,04,5.4,100.3,M,60.6,M,,0000*48
$GPGSA,A,3,27,09,22,25,,,,,,,,,5.5,5.4,1.0*39
$GPRMC,081842.000,A,6405.1731,N,02140.7342,W,8.42,177.34,060912,,,A*79
$GPGGA,081843.000,6405.1671,N,02140.7322,W,1,04,5.4,101.0,M,60.6,M,,0000*48
$GPGSA,A,3,27,09,22,25,,,,,,,,,5.5,5.4,1.0*39
$GPRMC,081843.000,A,6405.1671,N,02140.7322,W,8.92,173.83,060912,,,A*7E
$GPGGA,081844.000,6405.1611,N,02140.7301,W,1,04,5.4,101.8,M,60.6,M,,0000*40
$GPGSA,A,3,27,09,22,25,,,,,,,,,5.5,5.4,1.0*39
$GPRMC,081844.000,A,6405.1611,N,02140.7301,W,8.35,172.70,060912,,,A*7E
$GPGGA,081845.000,6405.1561,N,02140.7282,W,1,03,5.6,102.5,M,60.6,M,,0000*44
$GPGSA,A,2,27,22,25,,,,,,,,,,5.7,5.6,1.0*31
$GPGSV,3,1,12,12,68,143,,14,60,259,23,25,41,206,15,09,33,105,18*79
$GPGSV,3,2,12,27,25,105,20,32,19,331,,17,17,027,,22,16,237,29*78
$GPGSV,3,3,12,31,11,272,24,01,07,327,19,04,04,065,,20,04,356,14*71
$GPRMC,081845.000,A,6405.1561,N,02140.7282,W,6.89,170.10,060912,,,A*7C
$GPGGA,081846.000,6405.1518,N,02140.7266,W,1,04,5.4,103.0,M,60.6,M,,0000*42
$GPGSA,A,3,27,09,22,25,,,,,,,,,5.5,5.4,1.0*39
$GPRMC,081846.000,A,6405.1518,N,02140.7266,W,5.19,171.15,060912,,,A*75
$GPGGA,081847.000,6405.1485,N,02140.7253,W,1,04,5.4,103.2,M,60.6,M,,0000*42
$GPGSA,A,3,27,09,22,25,,,,,,,,,5.5,5.4,1.0*39
$GPRMC,081847.000,A,6405.1485,N,02140.7253,W,3.50,170.26,060912,,,A*7D
$GPGGA,081848.000,6405.1454,N,02140.7240,W,1,04,5.4,103.2,M,60.6,M,,0000*43
$GPGSA,A,3,27,09,22,25,,,,,,,,,5.5,5.4,1.0*39
$GPRMC,081848.000,A,6405.1454,N,02140.7240,W,2.69,169.35,060912,,,A*7D
$GPGGA,081849.000,6405.1433,N,02140.7229,W,1,04,5.4,103.1,M,60.6,M,,0000*4F
$GPGSA,A,3,27,09,22,25,,,,,,,,,5.5,5.4,1.0*39
$GPRMC,081849.000,A,6405.1433,N,02140.7229,W,0.85,139.81,060912,,,A*78
$GPGGA,081850.000,6405.1414,N,02140.7219,W,1,04,5.5,102.9,M,60.6,M,,0000*49
$GPGSA,A,3,27,09,22,25,,,,,,,,,5.5,5.5,1.0*38
$GPGSV,3,1,12,12,68,143,,14,60,259,23,25,41,206,17,09,33,105,19*7A
$GPGSV,3,2,12,27,25,105,21,32,19,331,,17,17,027,,22,16,237,29*79
$GPGSV,3,3,12,31,11,272,19,01,07,327,18,04,04,065,,20,04,356,15*7F
$GPRMC,081851.000,A,6405.1400,N,02140.7212,W,0.95,2.99,060912,,,A*78
$GPGGA,081852.000,6405.1385,N,02140.7206,W,1,04,5.5,102.6,M,60.6,M,,0000*45
$GPGSA,A,3,27,09,22,25,,,,,,,,,5.5,5.5,1.0*38
$GPRMC,081856.000,A,6405.1330,N,02140.7172,W,1.46,2.41,060912,,,A*74
$GPGGA,081857.000,6405.1325,N,02140.7168,W,1,04,5.5,100.6,M,60.6,M,,0000*43
$GPGSA,A,3,27,09,22,25,,,,,,,,,5.6,5.5,1.0*3B
$GPRMC,081857.000,A,6405.1325,N,02140.7168,W,2.65,350.06,060912,,,A*7F
$GPGGA,081858.000,6405.1324,N,02140.7163,W,1,04,5.5,100.2,M,60.6,M,,0000*42
$GPGSA,A,3,27,09,22,25,,,,,,,,,5.6,5.5,1.0*3B
$GPRMC,081858.000,A,6405.1324,N,02140.7163,W,3.92,0.52,060912,,,A*74
$GPGGA,081859.000,6405.1320,N,02140.7152,W,1,03,5.7,99.9,M,60.6,M,,0000*7A
$GPGSA,A,2,27,22,25,,,,,,,,,,5.8,5.7,1.0*3F
$GPRMC,081859.000,A,6405.1320,N,02140.7152,W,2.93,17.91,060912,,,A*4A
$GPGGA,081900.000,6405.1314,N,02140.7142,W,1,03,5.7,99.7,M,60.6,M,,0000*7F
$GPGSA,A,2,27,22,25,,,,,,,,,,5.8,5.7,1.0*3F
$GPGSV,3,1,12,12,68,143,,14,60,259,23,25,41,206,22,09,33,105,11*74
$GPGSV,3,2,12,27,25,105,14,32,19,331,,17,17,027,,22,16,237,29*7F
$GPGSV,3,3,12,31,11,272,23,01,07,327,20,04,04,065,,20,04,356,16*7E
$GPRMC,081900.000,A,6405.1314,N,02140.7142,W,2.03,23.09,060912,,,A*4E
$GPGGA,081901.000,6405.1309,N,02140.7138,W,1,04,5.5,99.5,M,60.6,M,,0000*78
$GPGSA,A,3,27,09,22,25,,,,,,,,,5.6,5.5,1.0*3B
$GPRMC,081901.000,A,6405.1309,N,02140.7138,W,1.87,2.97,060912,,,A*75
$GPGGA,081902.000,6405.1302,N,02140.7135,W,1,04,5.5,99.3,M,60.6,M,,0000*7B
$GPGSA,A,3,27,09,22,25,,,,,,,,,5.6,5.5,1.0*3B
$GPRMC,081902.000,A,6405.1302,N,02140.7135,W,1.10,354.66,060912,,,A*70
$GPGGA,081903.000,6405.1294,N,02140.7131,W,1,04,5.5,99.2,M,60.6,M,,0000*71
$GPGSA,A,3,27,09,22,25,,,,,,,,,5.6,5.5,1.0*3B
$GPRMC,081906.000,A,6405.1269,N,02140.7122,W,1.21,352.79,060912,,,A*74
$GPGGA,081907.000,6405.1269,N,02140.7122,W,1,04,5.5,98.9,M,60.6,M,,0000*7F
$GPGSA,A,3,27,09,22,25,,,,,,,,,5.6,5.5,1.0*3B
$GPRMC,081907.000,A,6405.1269,N,02140.7122,W,1.86,349.44,060912,,,A*7C
$GPGGA,081908.000,6405.1266,N,02140.7122,W,1,04,5.5,98.8,M,60.6,M,,0000*7E
$GPGSA,A,3,27,09,22,25,,,,,,,,,5.6,5.5,1.0*3B
$GPRMC,081908.000,A,6405.1266,N,02140.7122,W,1.02,348.56,060912,,,A*72
$GPGGA,081909.000,6405.1269,N,02140.7122,W,1,04,5.5,98.8,M,60.6,M,,0000*70
$GPGSA,A,3,27,09,22,25,,,,,,,,,5.6,5.5,1.0*3B
$GPRMC,081909.000,A,6405.1269,N,02140.7122,W,2.35,352.07,060912,,,A*74
$GPGGA,081910.000,6405.1272,N,02140.7124,W,1,04,5.5,98.7,M,60.6,M,,0000*7B
$GPGSA,A,3,27,09,22,25,,,,,,,,,5.6,5.5,1.0*3B
$GPGSV,3,1,12,12,68,143,,14,60,259,23,25,41,206,21,09,33,105,32*76
$GPGSV,3,2,12,27,25,105,34,32,19,331,,17,17,027,,22,16,237,28*7C
$GPGSV,3,3,12,31,11,272,21,01,07,327,22,04,04,065,19,20,04,356,16*76
$GPRMC,081910.000,A,6405.1272,N,02140.7124,W,2.43,349.31,060912,,,A*7E
$GPGGA,081911.000,6405.1277,N,02140.7126,W,1,04,5.5,98.7,M,60.6,M,,0000*7D
$GPGSA,A,3,27,09,22,25,,,,,,,,,5.6,5.5,1.0*3B
$GPRMC,081911.000,A,6405.1277,N,02140.7126,W,2.34,348.98,060912,,,A*7A
$GPGGA,081912.000,6405.1278,N,02140.7127,W,0,03,,98.7,M,60.6,M,,0000*58
$GPGSA,A,1,27,09,22,,,,,,,,,,,,*12
$GPRMC,081913.000,A,6405.1281,N,02140.7129,W,1.42,346.73,060912,,,A*77
$GPGGA,081914.000,6405.1273,N,02140.7126,W,1,04,5.5,98.8,M,60.6,M,,0000*73
$GPGSA,A,3,27,09,22,25,,,,,,,,,5.6,5.5,1.0*3B
$GPRMC,081914.000,A,6405.1273,N,02140.7126,W,1.64,173.73,060912,,,A*72
$GPGGA,081915.000,6405.1265,N,02140.7123,W,1,04,5.5,98.9,M,60.6,M,,0000*71
$GPGSA,A,3,27,09,22,25,,,,,,,,,5.6,5.5,1.0*3B
$GPGSV,3,1,12,12,68,143,,14,60,259,23,25,41,206,17,09,33,105,32*73
$GPGSV,3,2,12,27,25,105,34,32,19,331,,17,17,027,,22,16,237,29*7D
$GPGSV,3,3,12,31,11,272,19,01,07,327,22,04,04,065,19,20,04,356,18*73
$GPRMC,081915.000,A,6405.1265,N,02140.7123,W,1.77,170.41,060912,,,A*71
$GPGGA,081916.000,6405.1258,N,02140.7121,W,1,04,5.5,98.9,M,60.6,M,,0000*7E
$GPGSA,A,3,27,09,22,25,,,,,,,,,5.6,5.5,1.0*3B
$GPRMC,081916.000,A,6405.1258,N,02140.7121,W,1.58,169.93,060912,,,A*74
$GPGGA,081917.000,6405.1251,N,02140.7118,W,1,04,5.5,99.0,M,60.6,M,,0000*74
$GPGSA,A,3,27,09,22,25,,,,,,,,,5.6,5.5,1.0*3B
$GPRMC,081917.000,A,6405.1251,N,02140.7118,W,1.48,169.59,060912,,,A*71
$GPGGA,081918.000,6405.1249,N,02140.7117,W,1,04,5.5,99.1,M,60.6,M,,0000*7C
$GPGSA,A,3,27,09,22,25,,,,,,,,,5.6,5.5,1.0*3B
$GPRMC,081919.000,A,6405.1252,N,02140.7117,W,1.15,353.85,060912,,,A*71
$GPGGA,081920.000,6405.1257,N,02140.7119,W,1,04,5.6,99.3,M,60.6,M,,0000*77
$GPGSA,A,3,27,09,22,25,,,,,,,,,5.6,5.6,1.0*38
$GPGSV,3,1,12,12,68,143,,14,60,259,23,25,41,206,18,09,33,105,32*7C
$GPGSV,3,2,12,27,25,105,34,32,19,331,,17,17,027,,22,16,237,29*7D
$GPGSV,3,3,12,31,11,272,19,01,07,327,21,04,04,065,19,20,04,356,18*70
$GPRMC,081920.000,A,6405.1257,N,02140.7119,W,2.08,352.21,060912,,,A*70
$GPGGA,081921.000,6405.1269,N,02140.7124,W,1,04,5.6,99.4,M,60.6,M,,0000*72
$GPGSA,A,3,27,09,22,25,,,,,,,,,5.6,5.6,1.0*38
$GPRMC,081921.000,A,6405.1269,N,02140.7124,W,3.95,351.36,060912,,,A*72
$GPGGA,081922.000,6405.1285,N,02140.7130,W,1,04,5.6,99.4,M,60.6,M,,0000*76
$GPGSA,A,3,27,09,22,25,,,,,,,,,5.6,5.6,1.0*38
$GPRMC,081922.000,A,6405.1285,N,02140.7130,W,4.71,350.01,060912,,,A*7E
$GPGGA,081923.000,6405.1301,N,02140.7137,W,1,04,5.6,99.5,M,60.6,M,,0000*7C
$GPGSA,A,3,27,09,22,25,,,,,,,,,5.7,5.6,1.0*39
$GPRMC,081923.000,A,6405.1301,N,02140.7137,W,4.84,349.67,060912,,,A*77
$GPGGA,081924.000,6405.1310,N,02140.7141,W,1,04,5.6,99.6,M,60.6,M,,0000*79
$GPGSA,A,3,27,09,22,25,,,,,,,,,5.7,5.6,1.0*39
$GPRMC,081924.000,A,6405.1310,N,02140.7141,W,2.77,348.47,060912,,,A*78
$GPGGA,081925.000,6405.1310,N,02140.7142,W,1,04,5.6,99.7,M,60.6,M,,0000*7A
$GPGSA,A,3,27,09,22,25,,,,,,,,,5.7,5.6,1.0*39
$GPGSV,3,1,12,12,68,143,,14,60,259,23,25,41,206,17,09,33,105,32*73
