$GPGGA,184803.000,6418.8365,N,02153.5963,W,1,11,0.8,30.8,M,60.6,M,,0000*74
$GPGSA,A,3,22,14,17,32,28,19,11,09,20,01,27,,1.7,0.8,1.5*37
$GPGSV,3,1,11,01,75,193,32,11,65,135,34,28,45,261,28,32,42,161,33*74
$GPGSV,3,2,11,17,28,292,31,14,26,064,26,19,23,133,30,20,23,191,23*78
$GPGSV,3,3,11,27,18,337,17,22,18,047,26,09,17,350,35*45
$GPRMC,184803.000,A,6418.8365,N,02153.5963,W,37.06,237.19,050912,,,A*46
$GPGGA,184804.000,6418.8311,N,02153.6164,W,1,11,0.8,30.4,M,60.6,M,,0000*70
$GPGSA,A,3,22,14,17,32,28,19,11,09,20,01,27,,1.7,0.8,1.5*37
$GPRMC,184804.000,A,6418.8311,N,02153.6164,W,37.03,238.50,050912,,,A*49
$GPGGA,184805.000,6418.8258,N,02153.6369,W,1,11,0.8,30.1,M,60.6,M,,0000*77
$GPGSA,A,3,22,14,17,32,28,19,11,09,20,01,27,,1.7,0.8,1.5*37
$GPRMC,184805.000,A,6418.8258,N,02153.6369,W,37.24,239.49,050912,,,A*47
$GPGGA,184806.000,6418.8208,N,02153.6577,W,1,11,0.8,29.9,M,60.6,M,,0000*78
$GPGSA,A,3,22,14,17,32,28,19,11,09,20,01,27,,1.7,0.8,1.5*37
$GPRMC,184806.000,A,6418.8208,N,02153.6577,W,37.34,241.26,050912,,,A*4F
$GPGGA,184807.000,6418.8159,N,02153.6788,W,1,11,0.8,29.8,M,60.6,M,,0000*7D
$GPGSA,A,3,22,14,17,32,28,19,11,09,20,01,27,,1.7,0.8,1.5*37
$GPRMC,184807.000,A,6418.8159,N,02153.6788,W,37.48,242.12,050912,,,A*44
$GPGGA,184808.000,6418.8112,N,02153.7002,W,1,10,0.8,29.7,M,60.6,M,,0000*77
$GPGSA,A,3,22,14,17,32,28,19,11,20,01,27,,,1.7,0.8,1.5*3E
$GPGSV,3,1,11,01,75,193,27,11,65,135,27,28,45,261,28,32,42,161,29*79
$GPGSV,3,2,11,17,28,292,34,14,26,064,31,19,23,133,31,20,23,191,32*7A
$GPGSV,3,3,11,27,18,337,15,22,18,047,27,09,17,350,*40
$GPRMC,184808.000,A,6418.8112,N,02153.7002,W,37.56,243.02,050912,,,A*4F
$GPGGA,184809.000,6418.8066,N,02153.7217,W,1,10,0.9,29.8,M,60.6,M,,0000*7C
$GPGSA,A,3,14,17,32,28,19,11,09,20,01,27,,,1.8,0.9,1.5*39
$GPRMC,184809.000,A,6418.8066,N,02153.7217,W,37.71,243.67,050912,,,A*4C
$GPGGA,184810.000,6418.8022,N,02153.7434,W,1,11,0.8,29.9,M,60.6,M,,0000*72
$GPGSA,A,3,22,14,17,32,28,19,11,09,20,01,27,,1.7,0.8,1.5*37
$GPRMC,184810.000,A,6418.8022,N,02153.7434,W,37.58,245.05,050912,,,A*4A
$GPGGA,184811.000,6418.7981,N,02153.7649,W,1,11,0.8,29.9,M,60.6,M,,0000*74
$GPGSA,A,3,22,14,17,32,28,19,11,09,20,01,27,,1.7,0.8,1.5*37
$GPRMC,184811.000,A,6418.7981,N,02153.7649,W,36.91,246.39,050912,,,A*44
$GPGGA,184812.000,6418.7942,N,02153.7866,W,1,10,0.9,30.0,M,60.6,M,,0000*7A
$GPGSA,A,3,22,14,17,32,19,11,09,20,01,27,,,1.8,0.9,1.5*33
$GPRMC,184812.000,A,6418.7942,N,02153.7866,W,36.95,247.48,050912,,,A*48
$GPGGA,184813.000,6418.7904,N,02153.8083,W,1,10,0.9,30.2,M,60.6,M,,0000*77
$GPGSA,A,3,22,14,17,32,19,11,09,20,01,27,,,1.8,0.9,1.5*33
$GPGSV,3,1,11,01,75,193,29,11,65,135,25,28,45,261,,32,42,161,32*75
$GPGSV,3,2,11,17,28,292,36,14,26,064,28,19,23,133,29,20,23,191,32*79
$GPGSV,3,3,11,27,18,337,13,22,18,047,37,09,17,350,17*41
$GPRMC,184813.000,A,6418.7904,N,02153.8083,W,36.61,248.17,050912,,,A*49
$GPGGA,184814.000,6418.7868,N,02153.8297,W,1,09,0.9,30.4,M,60.6,M,,0000*72
$GPGSA,A,3,22,14,17,32,19,11,09,20,01,,,,1.8,0.9,1.6*35
$GPRMC,184814.000,A,6418.7868,N,02153.8297,W,36.11,248.68,050912,,,A*4D
$GPGGA,184815.000,6418.7833,N,02153.8512,W,1,10,0.8,30.6,M,60.6,M,,0000*7C
$GPGSA,A,3,22,14,17,32,28,19,11,09,20,01,,,1.8,0.8,1.5*3D
$GPRMC,184815.000,A,6418.7833,N,02153.8512,W,35.98,249.36,050912,,,A*40
$GPGGA,184816.000,6418.7799,N,02153.8728,W,1,10,0.8,30.8,M,60.6,M,,0000*75
$GPGSA,A,3,22,14,17,32,28,19,11,09,20,01,,,1.8,0.8,1.5*3D
$GPRMC,184816.000,A,6418.7799,N,02153.8728,W,36.15,249.56,050912,,,A*47
$GPGGA,184817.000,6418.7765,N,02153.8946,W,1,10,0.8,30.9,M,60.6,M,,0000*70
$GPGSA,A,3,22,14,17,32,28,19,11,09,20,01,,,1.8,0.8,1.5*3D
$GPRMC,184817.000,A,6418.7765,N,02153.8946,W,36.40,250.04,050912,,,A*4C
$GPGGA,184818.000,6418.7731,N,02153.9166,W,1,10,0.8,31.0,M,60.6,M,,0000*7D
$GPGSA,A,3,22,14,17,32,28,19,11,09,20,01,,,1.8,0.8,1.5*3D
$GPGSV,3,1,11,01,75,193,29,11,65,135,31,28,45,261,26,32,42,161,31*77
$GPGSV,3,2,11,17,28,292,38,14,26,064,29,19,23,133,36,20,23,191,26*7D
$GPGSV,3,3,11,27,18,337,,22,18,047,25,09,17,350,16*41
$GPRMC,184818.000,A,6418.7731,N,02153.9166,W,36.52,250.13,050912,,,A*4C
$GPGGA,184819.000,6418.7696,N,02153.9386,W,1,10,0.8,31.0,M,60.6,M,,0000*7C
$GPGSA,A,3,22,14,17,32,28,19,11,09,20,01,,,1.8,0.8,1.5*3D
$GPRMC,184819.000,A,6418.7696,N,02153.9386,W,36.64,249.76,050912,,,A*43
$GPGGA,184820.000,6418.7662,N,02153.9604,W,1,09,0.9,31.2,M,60.6,M,,0000*79
$GPGSA,A,3,22,17,32,28,19,11,09,20,01,,,,1.8,0.9,1.5*39
$GPRMC,184820.000,A,6418.7662,N,02153.9604,W,36.27,249.88,050912,,,A*4B
$GPGGA,184821.000,6418.7627,N,02153.9823,W,1,10,0.8,31.4,M,60.6,M,,0000*7D
$GPGSA,A,3,22,14,17,32,28,19,11,09,20,01,,,1.8,0.8,1.5*3D
$GPRMC,184821.000,A,6418.7627,N,02153.9823,W,36.50,249.68,050912,,,A*4E
$GPGGA,184822.000,6418.7592,N,02154.0044,W,1,10,0.8,31.6,M,60.6,M,,0000*76
$GPGSA,A,3,22,14,17,32,28,19,11,09,20,01,,,1.8,0.8,1.5*3D
$GPRMC,184822.000,A,6418.7592,N,02154.0044,W,36.98,249.27,050912,,,A*48
$GPGGA,184823.000,6418.7555,N,02154.0263,W,1,10,0.8,31.8,M,60.6,M,,0000*75
$GPGSA,A,3,22,14,17,32,28,19,11,09,20,01,,,1.8,0.8,1.5*3D
$GPGSV,3,1,11,01,75,193,30,11,65,135,27,28,45,261,25,32,42,161,26*7D
$GPGSV,3,2,11,17,28,292,38,14,26,064,30,19,23,133,36,20,23,191,35*77
$GPGSV,3,3,11,27,18,337,,22,18,047,30,09,17,350,15*46
$GPRMC,184823.000,A,6418.7555,N,02154.0263,W,36.89,248.46,050912,,,A*43
$GPGGA,184824.000,6418.7517,N,02154.0480,W,1,10,0.8,32.1,M,60.6,M,,0000*75
$GPGSA,A,3,22,14,17,32,28,19,11,09,20,01,,,1.8,0.8,1.5*3D
$GPRMC,184824.000,A,6418.7517,N,02154.0480,W,36.73,247.67,050912,,,A*40
$GPGGA,184825.000,6418.7478,N,02154.0696,W,1,10,0.8,32.4,M,60.6,M,,0000*7C
$GPGSA,A,3,22,14,17,32,28,19,11,09,20,01,,,1.8,0.8,1.5*3D
$GPRMC,184825.000,A,6418.7478,N,02154.0696,W,36.64,247.05,050912,,,A*4E
$GPGGA,184826.000,6418.7438,N,02154.0911,W,1,10,0.8,32.8,M,60.6,M,,0000*77
$GPGSA,A,3,22,14,17,32,28,19,11,09,20,01,,,1.8,0.8,1.5*3D
$GPRMC,184826.000,A,6418.7438,N,02154.0911,W,36.59,246.42,050912,,,A*45
$GPGGA,184827.000,6418.7397,N,02154.1125,W,1,10,0.8,33.1,M,60.6,M,,0000*72
$GPGSA,A,3,22,14,17,32,28,19,11,09,20,01,,,1.8,0.8,1.5*3D
$GPRMC,184827.000,A,6418.7397,N,02154.1125,W,36.66,245.66,050912,,,A*41
$GPGGA,184828.000,6418.7355,N,02154.1334,W,1,10,0.8,33.4,M,60.6,M,,0000*74
$GPGSA,A,3,22,14,17,32,28,19,11,09,20,01,,,1.8,0.8,1.5*3D
$GPGSV,3,1,11,01,75,193,31,11,65,135,27,28,45,261,24,32,42,161,27*7C
$GPGSV,3,2,11,17,28,292,31,14,26,064,19,19,23,133,20,20,23,191,30*77
$GPGSV,3,3,11,27,18,337,,22,18,047,33,09,17,350,14*44
$GPRMC,184828.000,A,6418.7355,N,02154.1334,W,36.16,244.66,050912,,,A*44
$GPGGA,184829.000,6418.7312,N,02154.1543,W,1,10,0.8,33.7,M,60.6,M,,0000*73
$GPGSA,A,3,22,14,17,32,28,19,11,09,20,01,,,1.8,0.8,1.5*3D
$GPRMC,184829.000,A,6418.7312,N,02154.1543,W,36.37,243.85,050912,,,A*49
$GPGGA,184830.000,6418.7267,N,02154.1753,W,1,10,0.8,34.0,M,60.6,M,,0000*7B
$GPGSA,A,3,22,14,17,32,28,19,11,09,20,01,,,1.8,0.8,1.5*3D
$GPRMC,184830.000,A,6418.7267,N,02154.1753,W,36.55,243.49,050912,,,A*45
$GPGGA,184831.000,6418.7222,N,02154.1964,W,1,08,1.0,34.3,M,60.6,M,,0000*72
$GPGSA,A,3,14,32,28,19,11,09,20,01,,,,,1.9,1.0,1.6*30
$GPRMC,184831.000,A,6418.7222,N,02154.1964,W,37.03,243.25,050912,,,A*47
$GPGGA,184832.000,6418.7175,N,02154.2173,W,1,10,0.8,34.6,M,60.6,M,,0000*78
$GPGSA,A,3,22,14,17,32,28,19,11,09,20,01,,,1.8,0.8,1.5*3D
$GPRMC,184832.000,A,6418.7175,N,02154.2173,W,36.93,242.34,050912,,,A*41
$GPGGA,184833.000,6418.7127,N,02154.2382,W,1,10,0.8,34.8,M,60.6,M,,0000*7C
$GPGSA,A,3,22,14,17,32,28,19,11,09,20,01,,,1.8,0.8,1.5*3D
$GPGSV,3,1,11,01,75,193,36,11,65,135,26,28,45,261,32,32,42,161,27*7D
$GPGSV,3,2,11,17,28,292,23,14,26,064,28,19,23,133,31,20,23,191,30*76
$GPGSV,3,3,11,27,18,337,,22,18,047,26,09,17,350,13*47
$GPRMC,184833.000,A,6418.7127,N,02154.2382,W,37.09,241.83,050912,,,A*46
$GPGGA,184834.000,6418.7078,N,02154.2591,W,1,10,0.8,35.0,M,60.6,M,,0000*7D
$GPGSA,A,3,22,14,17,32,28,19,11,09,20,01,,,1.8,0.8,1.5*3D
$GPRMC,184834.000,A,6418.7078,N,02154.2591,W,37.25,241.38,050912,,,A*40
$GPGGA,184835.000,6418.7028,N,02154.2799,W,1,10,0.8,35.1,M,60.6,M,,0000*72
$GPGSA,A,3,22,14,17,32,28,19,11,09,20,01,,,1.8,0.8,1.5*3D
$GPRMC,184835.000,A,6418.7028,N,02154.2799,W,37.30,240.85,050912,,,A*4D
$GPGGA,184836.000,6418.6976,N,02154.3004,W,1,11,0.8,35.2,M,60.6,M,,0000*72
$GPGSA,A,3,22,14,17,32,28,19,11,09,20,01,27,,1.7,0.8,1.5*37
$GPRMC,184836.000,A,6418.6976,N,02154.3004,W,37.14,239.67,050912,,,A*4B
$GPGGA,184837.000,6418.6925,N,02154.3208,W,1,11,0.8,35.1,M,60.6,M,,0000*78
$GPGSA,A,3,22,14,17,32,28,19,11,09,20,01,27,,1.7,0.8,1.5*37
$GPRMC,184837.000,A,6418.6925,N,02154.3208,W,36.97,239.34,050912,,,A*4E
$GPGGA,184838.000,6418.6872,N,02154.3408,W,1,11,0.8,34.9,M,60.6,M,,0000*7B
$GPGSA,A,3,22,14,17,32,28,19,11,09,20,01,27,,1.7,0.8,1.5*37
$GPGSV,3,1,11,01,75,193,36,11,65,135,31,28,45,261,32,32,42,161,31*7C
$GPGSV,3,2,11,17,28,292,35,14,26,064,30,19,23,133,25,20,23,191,31*7C
$GPGSV,3,3,11,27,18,337,23,22,18,047,24,09,17,350,13*44
$GPRMC,184838.000,A,6418.6872,N,02154.3408,W,36.52,238.59,050912,,,A*47
$GPGGA,184839.000,6418.6819,N,02154.3604,W,1,11,0.8,34.6,M,60.6,M,,0000*76
$GPGSA,A,3,22,14,17,32,28,19,11,09,20,01,27,,1.7,0.8,1.5*37
$GPRMC,184839.000,A,6418.6819,N,02154.3604,W,36.33,237.51,050912,,,A*45
$GPGGA,184840.000,6418.6764,N,02154.3799,W,1,11,0.8,34.1,M,60.6,M,,0000*7F
$GPGSA,A,3,22,14,17,32,28,19,11,09,20,01,27,,1.7,0.8,1.5*37
$GPRMC,184840.000,A,6418.6764,N,02154.3799,W,36.28,236.60,050912,,,A*42
$GPGGA,184841.000,6418.6708,N,02154.3989,W,1,11,0.8,33.6,M,60.6,M,,0000*7B
$GPGSA,A,3,22,14,17,32,28,19,11,09,20,01,27,,1.7,0.8,1.5*37
$GPRMC,184841.000,A,6418.6708,N,02154.3989,W,35.77,235.82,050912,,,A*40
$GPGGA,184842.000,6418.6653,N,02154.4173,W,1,11,0.8,33.1,M,60.6,M,,0000*7A
$GPGSA,A,3,22,14,17,32,28,19,11,09,20,01,27,,1.7,0.8,1.5*37
$GPRMC,184842.000,A,6418.6653,N,02154.4173,W,34.97,235.07,050912,,,A*44
$GPGGA,184843.000,6418.6598,N,02154.4353,W,1,10,0.9,32.5,M,60.6,M,,0000*7A
$GPGSA,A,3,22,14,17,32,28,11,09,20,01,27,,,1.9,0.9,1.6*33
$GPGSV,3,1,11,01,75,193,31,11,65,135,33,28,45,261,37,32,42,161,37*7A
$GPGSV,3,2,11,17,28,292,35,14,26,064,23,19,23,133,,20,23,191,30*78
$GPGSV,3,3,11,27,18,337,23,22,18,047,32,09,17,350,13*43
$GPRMC,184843.000,A,6418.6598,N,02154.4353,W,34.28,234.71,050912,,,A*45
$GPGGA,184844.000,6418.6544,N,02154.4530,W,1,11,0.8,31.9,M,60.6,M,,0000*70
$GPGSA,A,3,22,14,17,32,28,19,11,09,20,01,27,,1.7,0.8,1.5*37
$GPRMC,184844.000,A,6418.6544,N,02154.4530,W,33.81,234.20,050912,,,A*40
$GPGGA,184845.000,6418.6489,N,02154.4702,W,1,11,0.8,31.2,M,60.6,M,,0000*79
$GPGSA,A,3,22,14,17,32,28,19,11,09,20,01,27,,1.7,0.8,1.5*37
$GPRMC,184845.000,A,6418.6489,N,02154.4702,W,33.24,233.69,050912,,,A*47
$GPGGA,184846.000,6418.6434,N,02154.4872,W,1,11,0.8,30.4,M,60.6,M,,0000*73
$GPGSA,A,3,22,14,17,32,28,19,11,09,20,01,27,,1.7,0.8,1.5*37
$GPRMC,184846.000,A,6418.6434,N,02154.4872,W,33.05,232.91,050912,,,A*4F
$GPGGA,184847.000,6418.6379,N,02154.5039,W,1,11,0.8,29.7,M,60.6,M,,0000*71
$GPGSA,A,3,22,14,17,32,28,19,11,09,20,01,27,,1.7,0.8,1.5*37
$GPRMC,184847.000,A,6418.6379,N,02154.5039,W,32.63,232.42,050912,,,A*49
$GPGGA,184848.000,6418.6325,N,02154.5201,W,1,11,0.8,28.9,M,60.6,M,,0000*71
$GPGSA,A,3,22,14,17,32,28,19,11,09,20,01,27,,1.7,0.8,1.5*37
$GPGSV,3,1,11,01,75,193,31,11,65,135,32,28,45,261,37,32,42,161,36*7A
$GPGSV,3,2,11,17,28,292,36,14,26,064,19,19,23,133,32,20,23,191,33*70
$GPGSV,3,3,11,27,18,337,23,22,18,047,33,09,17,350,13*42
$GPRMC,184848.000,A,6418.6325,N,02154.5201,W,32.07,232.00,050912,,,A*42
$GPGGA,184849.000,6418.6270,N,02154.5360,W,1,11,0.8,28.2,M,60.6,M,,0000*7C
$GPGSA,A,3,22,14,17,32,28,19,11,09,20,01,27,,1.7,0.8,1.5*37
$GPRMC,184849.000,A,6418.6270,N,02154.5360,W,31.50,231.32,050912,,,A*47
$GPGGA,184850.000,6418.6215,N,02154.5512,W,1,11,0.8,27.7,M,60.6,M,,0000*7E
$GPGSA,A,3,22,14,17,32,28,19,11,09,20,01,27,,1.7,0.8,1.5*37
$GPRMC,184850.000,A,6418.6215,N,02154.5512,W,30.86,229.75,050912,,,A*4F
$GPGGA,184851.000,6418.6160,N,02154.5657,W,1,11,0.8,27.1,M,60.6,M,,0000*7A
$GPGSA,A,3,22,14,17,32,28,19,11,09,20,01,27,,1.7,0.8,1.5*37
$GPRMC,184851.000,A,6418.6160,N,02154.5657,W,30.20,228.31,050912,,,A*40
$GPGGA,184852.000,6418.6105,N,02154.5801,W,1,11,0.8,26.6,M,60.6,M,,0000*71
$GPGSA,A,3,22,14,17,32,28,19,11,09,20,01,27,,1.7,0.8,1.5*37
$GPRMC,184852.000,A,6418.6105,N,02154.5801,W,29.93,228.14,050912,,,A*4A
$GPGGA,184853.000,6418.6051,N,02154.5944,W,1,11,0.8,26.0,M,60.6,M,,0000*76
$GPGSA,A,3,22,14,17,32,28,19,11,09,20,01,27,,1.7,0.8,1.5*37
$GPGSV,3,1,11,01,75,193,29,11,65,135,32,28,45,261,34,32,42,161,37*71
$GPGSV,3,2,11,17,28,292,29,14,26,064,22,19,23,133,33,20,23,191,34*70
$GPGSV,3,3,11,27,18,337,32,22,18,047,33,09,17,350,24*46
$GPRMC,184853.000,A,6418.6051,N,02154.5944,W,29.67,228.73,050912,,,A*41
$GPGGA,184854.000,6418.5997,N,02154.6083,W,1,11,0.8,25.5,M,60.6,M,,0000*76
$GPGSA,A,3,22,14,17,32,28,19,11,09,20,01,27,,1.7,0.8,1.5*37
$GPRMC,184854.000,A,6418.5997,N,02154.6083,W,28.97,227.96,050912,,,A*4D
$GPGGA,184855.000,6418.5943,N,02154.6215,W,1,10,0.8,25.1,M,60.6,M,,0000*76
$GPGSA,A,3,22,14,17,32,28,19,11,09,20,27,,,2.1,0.8,1.9*3F
$GPRMC,184855.000,A,6418.5943,N,02154.6215,W,28.36,226.56,050912,,,A*4E
$GPGGA,184856.000,6418.5889,N,02154.6345,W,1,09,0.9,24.6,M,60.6,M,,0000*79
$GPGSA,A,3,22,14,32,28,19,11,09,20,27,,,,2.1,0.9,1.9*38
$GPRMC,184856.000,A,6418.5889,N,02154.6345,W,28.04,225.73,050912,,,A*4B
$GPGGA,184857.000,6418.5833,N,02154.6469,W,1,11,0.8,24.1,M,60.6,M,,0000*7F
$GPGSA,A,3,22,14,17,32,28,19,11,09,20,01,27,,1.7,0.8,1.5*37
$GPRMC,184857.000,A,6418.5833,N,02154.6469,W,27.71,224.17,050912,,,A*4C
$GPGGA,184858.000,6418.5776,N,02154.6588,W,1,11,0.8,23.5,M,60.6,M,,0000*73
$GPGSA,A,3,22,14,17,32,28,19,11,09,20,01,27,,1.7,0.8,1.5*37
$GPGSV,3,1,11,01,75,193,36,11,65,135,25,28,45,261,35,32,42,161,36*79
$GPGSV,3,2,11,17,28,292,37,14,26,064,30,19,23,133,31,20,23,191,34*7E
$GPGSV,3,3,11,27,18,337,33,22,18,047,29,09,17,350,18*43
$GPRMC,184858.000,A,6418.5776,N,02154.6588,W,27.73,221.85,050912,,,A*4F
$GPGGA,184859.000,6418.5716,N,02154.6699,W,1,11,0.8,23.1,M,60.6,M,,0000*73
$GPGSA,A,3,22,14,17,32,28,19,11,09,20,01,27,,1.7,0.8,1.5*37
$GPRMC,184859.000,A,6418.5716,N,02154.6699,W,27.64,218.56,050912,,,A*49
$GPGGA,184900.000,6418.5655,N,02154.6805,W,1,11,0.8,22.6,M,60.6,M,,0000*75
$GPGSA,A,3,22,14,17,32,28,19,11,09,20,01,27,,1.7,0.8,1.5*37
$GPRMC,184900.000,A,6418.5655,N,02154.6805,W,27.63,216.42,050912,,,A*45
$GPGGA,184901.000,6418.5591,N,02154.6904,W,1,11,0.8,22.0,M,60.6,M,,0000*79
$GPGSA,A,3,22,14,17,32,28,19,11,09,20,01,27,,1.7,0.8,1.5*37
$GPRMC,184901.000,A,6418.5591,N,02154.6904,W,27.73,213.68,050912,,,A*43
$GPGGA,184902.000,6418.5525,N,02154.6996,W,1,11,0.8,21.3,M,60.6,M,,0000*7E
$GPGSA,A,3,22,14,17,32,28,19,11,09,20,01,27,,1.7,0.8,1.5*37
$GPRMC,184902.000,A,6418.5525,N,02154.6996,W,27.84,210.31,050912,,,A*43
$GPGGA,184903.000,6418.5457,N,02154.7078,W,1,11,0.8,20.6,M,60.6,M,,0000*77
$GPGSA,A,3,22,14,17,32,28,19,11,09,20,01,27,,1.7,0.8,1.5*37
$GPGSV,3,1,11,01,75,193,29,11,65,135,34,28,45,261,27,32,42,161,31*73
$GPGSV,3,2,11,17,28,292,27,14,26,064,22,19,23,133,26,20,23,191,20*7F
$GPGSV,3,3,11,27,18,337,35,22,18,047,30,09,17,350,34*43
$GPRMC,184903.000,A,6418.5457,N,02154.7078,W,27.59,207.26,050912,,,A*4E
$GPGGA,184904.000,6418.5388,N,02154.7154,W,1,11,0.8,19.9,M,60.6,M,,0000*7F
$GPGSA,A,3,22,14,17,32,28,19,11,09,20,01,27,,1.7,0.8,1.5*37
$GPRMC,184904.000,A,6418.5388,N,02154.7154,W,27.46,205.00,050912,,,A*4B
$GPGGA,184905.000,6418.5320,N,02154.7218,W,1,11,0.8,19.2,M,60.6,M,,0000*7C
$GPGSA,A,3,22,14,17,32,28,19,11,09,20,01,27,,1.7,0.8,1.5*37
$GPRMC,184905.000,A,6418.5320,N,02154.7218,W,26.46,201.66,050912,,,A*46
$GPGGA,184906.000,6418.5256,N,02154.7270,W,1,11,0.8,18.5,M,60.6,M,,0000*77
$GPGSA,A,3,22,14,17,32,28,19,11,09,20,01,27,,1.7,0.8,1.5*37
$GPRMC,184906.000,A,6418.5256,N,02154.7270,W,24.10,198.81,050912,,,A*40
$GPGGA,184907.000,6418.5200,N,02154.7311,W,1,11,0.8,17.8,M,60.6,M,,0000*71
$GPGSA,A,3,22,14,17,32,28,19,11,09,20,01,27,,1.7,0.8,1.5*37
$GPRMC,184907.000,A,6418.5200,N,02154.7311,W,21.06,197.17,050912,,,A*46
$GPGGA,184908.000,6418.5153,N,02154.7346,W,1,11,0.8,17.2,M,60.6,M,,0000*73
$GPGSA,A,3,22,14,17,32,28,19,11,09,20,01,27,,1.7,0.8,1.5*37
$GPGSV,3,1,11,01,75,193,30,11,65,135,34,28,45,261,36,32,42,161,32*78
$GPGSV,3,2,11,17,28,292,37,14,26,064,31,19,23,133,28,20,23,191,33*70
$GPGSV,3,3,11,27,18,337,35,22,18,047,32,09,17,350,34*41
$GPRMC,184908.000,A,6418.5153,N,02154.7346,W,17.44,197.19,050912,,,A*43
$GPGGA,184909.000,6418.5113,N,02154.7383,W,1,10,0.8,16.7,M,60.6,M,,0000*7A
$GPGSA,A,3,22,14,17,32,28,19,11,09,20,27,,,2.1,0.8,1.9*3F
$GPRMC,184909.000,A,6418.5113,N,02154.7383,W,15.30,201.02,050912,,,A*48
$GPGGA,184910.000,6418.5079,N,02154.7427,W,1,10,0.9,16.2,M,60.6,M,,0000*72
$GPGSA,A,3,22,14,17,32,28,11,09,20,01,27,,,1.9,0.9,1.6*33
$GPRMC,184910.000,A,6418.5079,N,02154.7427,W,13.54,208.85,050912,,,A*46
$GPGGA,184911.000,6418.5051,N,02154.7478,W,1,10,0.9,15.7,M,60.6,M,,0000*75
$GPGSA,A,3,22,14,17,32,28,11,09,20,01,27,,,1.9,0.9,1.6*33
$GPRMC,184911.000,A,6418.5051,N,02154.7478,W,12.39,219.60,050912,,,A*46
$GPGGA,184912.000,6418.5025,N,02154.7527,W,1,10,1.0,15.3,M,60.6,M,,0000*72
$GPGSA,A,3,22,14,17,32,28,19,11,09,01,27,,,2.1,1.0,1.9*35
$GPRMC,184912.000,A,6418.5025,N,02154.7527,W,11.70,219.95,050912,,,A*49
$GPGGA,184913.000,6418.4998,N,02154.7566,W,1,10,0.9,14.9,M,60.6,M,,0000*7B
$GPGSA,A,3,14,17,32,28,19,11,09,20,01,27,,,1.8,0.9,1.5*39
$GPGSV,3,1,11,01,75,193,37,11,65,135,36,28,45,261,37,32,42,161,30*7E
$GPGSV,3,2,11,17,28,292,36,14,26,064,24,19,23,133,30,20,23,191,33*7C
$GPGSV,3,3,11,27,18,337,31,22,18,047,,09,17,350,34*44
$GPRMC,184913.000,A,6418.4998,N,02154.7566,W,11.24,211.31,050912,,,A*44
$GPGGA,184914.000,6418.4968,N,02154.7589,W,1,11,0.8,14.8,M,60.6,M,,0000*73
$GPGSA,A,3,22,14,17,32,28,19,11,09,20,01,27,,1.7,0.8,1.5*37
$GPRMC,184914.000,A,6418.4968,N,02154.7589,W,11.28,197.24,050912,,,A*48
$GPGGA,184915.000,6418.4937,N,02154.7592,W,1,11,0.8,14.7,M,60.6,M,,0000*7D
$GPGSA,A,3,22,14,17,32,28,19,11,09,20,01,27,,1.7,0.8,1.5*37
$GPRMC,184915.000,A,6418.4937,N,02154.7592,W,10.96,180.25,050912,,,A*4A
$GPGGA,184916.000,6418.4907,N,02154.7572,W,1,11,0.8,14.7,M,60.6,M,,0000*73
$GPGSA,A,3,22,14,17,32,28,19,11,09,20,01,27,,1.7,0.8,1.5*37
$GPRMC,184916.000,A,6418.4907,N,02154.7572,W,11.14,162.07,050912,,,A*43
$GPGGA,184917.000,6418.4882,N,02154.7530,W,1,11,0.8,14.8,M,60.6,M,,0000*77
$GPGSA,A,3,22,14,17,32,28,19,11,09,20,01,27,,1.7,0.8,1.5*37
$GPRMC,184917.000,A,6418.4882,N,02154.7530,W,11.51,142.91,050912,,,A*44
$GPGGA,184918.000,6418.4862,N,02154.7469,W,1,10,0.8,14.9,M,60.6,M,,0000*7B
$GPGSA,A,3,22,14,17,32,28,19,11,20,01,27,,,1.7,0.8,1.5*3E
$GPGSV,3,1,11,01,75,193,43,11,65,135,34,28,45,261,44,32,42,161,32*79
$GPGSV,3,2,11,17,28,292,30,14,26,064,28,19,23,133,30,20,23,191,33*76
$GPGSV,3,3,11,27,18,337,25,22,18,047,31,09,17,350,*44
$GPRMC,184918.000,A,6418.4862,N,02154.7469,W,12.29,125.80,050912,,,A*45
$GPGGA,184919.000,6418.4849,N,02154.7392,W,1,11,0.8,15.1,M,60.6,M,,0000*78
$GPGSA,A,3,22,14,17,32,28,19,11,09,20,01,27,,1.7,0.8,1.5*37
$GPRMC,184919.000,A,6418.4849,N,02154.7392,W,13.20,109.49,050912,,,A*4D
$GPGGA,184920.000,6418.4842,N,02154.7306,W,1,11,0.8,15.4,M,60.6,M,,0000*71
$GPGSA,A,3,22,14,17,32,28,19,11,09,20,01,27,,1.7,0.8,1.5*37
$GPRMC,184920.000,A,6418.4842,N,02154.7306,W,14.08,100.79,050912,,,A*46
$GPGGA,184921.000,6418.4835,N,02154.7215,W,1,10,0.8,15.7,M,60.6,M,,0000*71
$GPGSA,A,3,22,14,17,32,28,19,11,20,01,27,,,1.7,0.8,1.5*3E
$GPRMC,184921.000,A,6418.4835,N,02154.7215,W,14.82,99.87,050912,,,A*76
$GPGGA,184922.000,6418.4826,N,02154.7119,W,1,10,0.8,15.9,M,60.6,M,,0000*71
$GPGSA,A,3,22,14,17,32,28,19,11,20,01,27,,,1.7,0.8,1.5*3E
$GPRMC,184922.000,A,6418.4826,N,02154.7119,W,15.58,101.05,050912,,,A*44
$GPGGA,184923.000,6418.4815,N,02154.7018,W,1,10,0.8,16.1,M,60.6,M,,0000*7B
$GPGSA,A,3,22,14,17,32,28,19,11,20,01,27,,,1.7,0.8,1.5*3E
$GPGSV,3,1,11,01,75,193,41,11,65,135,45,28,45,261,35,32,42,161,34*7D
$GPGSV,3,2,11,17,28,292,30,14,26,064,29,19,23,133,31,20,23,191,26*72
$GPGSV,3,3,11,27,18,337,30,22,18,047,24,09,17,350,*44
$GPRMC,184923.000,A,6418.4815,N,02154.7018,W,16.49,103.76,050912,,,A*40
$GPGGA,184924.000,6418.4803,N,02154.6912,W,1,11,0.8,16.3,M,60.6,M,,0000*7A
$GPGSA,A,3,22,14,17,32,28,19,11,09,20,01,27,,1.7,0.8,1.5*37
$GPRMC,184924.000,A,6418.4803,N,02154.6912,W,17.23,104.19,050912,,,A*41
$GPGGA,184925.000,6418.4791,N,02154.6804,W,1,11,0.8,16.4,M,60.6,M,,0000*7E
$GPGSA,A,3,22,14,17,32,28,19,11,09,20,01,27,,1.7,0.8,1.5*37
$GPRMC,184925.000,A,6418.4791,N,02154.6804,W,17.69,104.39,050912,,,A*4E
$GPGGA,184926.000,6418.4779,N,02154.6694,W,1,11,0.8,16.5,M,60.6,M,,0000*7D
$GPGSA,A,3,22,14,17,32,28,19,11,09,20,01,27,,1.7,0.8,1.5*37
$GPRMC,184926.000,A,6418.4779,N,02154.6694,W,17.77,103.52,050912,,,A*49
$GPGGA,184927.000,6418.4771,N,02154.6582,W,1,11,0.8,16.5,M,60.6,M,,0000*70
$GPGSA,A,3,22,14,17,32,28,19,11,09,20,01,27,,1.7,0.8,1.5*37
$GPRMC,184927.000,A,6418.4771,N,02154.6582,W,17.76,100.35,050912,,,A*47
$GPGGA,184928.000,6418.4764,N,02154.6469,W,1,11,0.8,16.5,M,60.6,M,,0000*7F
$GPGSA,A,3,22,14,17,32,28,19,11,09,20,01,27,,1.7,0.8,1.5*37
$GPGSV,3,1,11,01,75,193,40,11,65,135,45,28,45,261,22,32,42,161,34*7A
$GPGSV,3,2,11,17,28,292,23,14,26,064,30,19,23,133,35,20,23,191,32*79
$GPGSV,3,3,11,27,18,337,36,22,18,047,24,09,17,350,31*40
$GPRMC,184928.000,A,6418.4764,N,02154.6469,W,17.82,97.42,050912,,,A*7C
$GPGGA,184929.000,6418.4760,N,02154.6356,W,1,11,0.8,16.7,M,60.6,M,,0000*73
$GPGSA,A,3,22,14,17,32,28,19,11,09,20,01,27,,1.7,0.8,1.5*37
$GPRMC,184929.000,A,6418.4760,N,02154.6356,W,17.72,94.61,050912,,,A*7F
$GPGGA,184930.000,6418.4758,N,02154.6245,W,1,11,0.8,16.8,M,60.6,M,,0000*7C
$GPGSA,A,3,22,14,17,32,28,19,11,09,20,01,27,,1.7,0.8,1.5*37
$GPRMC,184930.000,A,6418.4758,N,02154.6245,W,17.43,92.28,050912,,,A*76
$GPGGA,184931.000,6418.4757,N,02154.6136,W,1,11,0.8,17.0,M,60.6,M,,0000*7C
$GPGSA,A,3,22,14,17,32,28,19,11,09,20,01,27,,1.7,0.8,1.5*37
$GPRMC,184931.000,A,6418.4757,N,02154.6136,W,16.95,91.03,050912,,,A*7F
$GPGGA,184932.000,6418.4757,N,02154.6031,W,1,11,0.8,17.2,M,60.6,M,,0000*7B
$GPGSA,A,3,22,14,17,32,28,19,11,09,20,01,27,,1.7,0.8,1.5*37
$GPRMC,184932.000,A,6418.4757,N,02154.6031,W,16.31,89.29,050912,,,A*75
$GPGGA,184933.000,6418.4759,N,02154.5936,W,1,11,0.8,17.4,M,60.6,M,,0000*7F
$GPGSA,A,3,22,14,17,32,28,19,11,09,20,01,27,,1.7,0.8,1.5*37
$GPGSV,3,1,11,01,75,193,40,11,65,135,45,28,45,261,29,32,42,161,42*70
$GPGSV,3,2,11,17,28,292,36,14,26,064,35,19,23,133,35,20,23,191,37*7D
$GPGSV,3,3,11,27,18,337,31,22,18,047,25,09,17,350,32*45
$GPRMC,184933.000,A,6418.4759,N,02154.5936,W,14.69,87.46,050912,,,A*7F
$GPGGA,184934.000,6418.4762,N,02154.5848,W,1,11,0.8,17.6,M,60.6,M,,0000*7A
$GPGSA,A,3,22,14,17,32,28,19,11,09,20,01,27,,1.7,0.8,1.5*37
$GPRMC,184934.000,A,6418.4762,N,02154.5848,W,13.58,84.01,050912,,,A*7D
$GPGGA,184935.000,6418.4768,N,02154.5773,W,1,11,0.8,17.8,M,60.6,M,,0000*78
$GPGSA,A,3,22,14,17,32,28,19,11,09,20,01,27,,1.7,0.8,1.5*37
$GPRMC,184935.000,A,6418.4768,N,02154.5773,W,11.77,80.41,050912,,,A*7E
$GPGGA,184936.000,6418.4771,N,02154.5715,W,1,11,0.8,18.0,M,60.6,M,,0000*74
$GPGSA,A,3,22,14,17,32,28,19,11,09,20,01,27,,1.7,0.8,1.5*37
$GPRMC,184936.000,A,6418.4771,N,02154.5715,W,8.82,80.85,050912,,,A*4F
$GPGGA,184937.000,6418.4774,N,02154.5677,W,1,11,0.8,18.2,M,60.6,M,,0000*77
$GPGSA,A,3,22,14,17,32,28,19,11,09,20,01,27,,1.7,0.8,1.5*37
$GPRMC,184937.000,A,6418.4774,N,02154.5677,W,5.58,80.35,050912,,,A*4F
$GPGGA,184938.000,6418.4776,N,02154.5657,W,1,11,0.8,18.3,M,60.6,M,,0000*79
$GPGSA,A,3,22,14,17,32,28,19,11,09,20,01,27,,1.7,0.8,1.5*37
$GPGSV,3,1,11,01,75,193,41,11,65,135,43,28,45,261,26,32,42,161,43*79
$GPGSV,3,2,11,17,28,292,30,14,26,064,25,19,23,133,29,20,23,191,43*74
$GPGSV,3,3,11,27,18,337,26,22,18,047,21,09,17,350,27*43
$GPRMC,184938.000,A,6418.4776,N,02154.5657,W,2.84,75.72,050912,,,A*4F
$GPGGA,184939.000,6418.4777,N,02154.5647,W,1,09,0.9,18.5,M,60.6,M,,0000*76
$GPGSA,A,3,22,14,17,32,19,11,20,01,27,,,,1.8,0.9,1.5*3A
$GPRMC,184939.000,A,6418.4777,N,02154.5647,W,1.20,77.49,050912,,,A*49
$GPGGA,184940.000,6418.4777,N,02154.5642,W,1,09,0.9,18.8,M,60.6,M,,0000*70
$GPGSA,A,3,22,14,17,32,19,11,20,01,27,,,,1.8,0.9,1.5*3A
$GPRMC,184950.000,A,6418.4784,N,02154.5594,W,2.23,74.32,050912,,,A*48
$GPGGA,184951.000,6418.4786,N,02154.5569,W,1,08,1.0,19.8,M,60.6,M,,0000*7C
$GPGSA,A,3,22,14,17,32,11,28,20,01,,,,,2.0,1.0,1.7*3C
$GPRMC,184951.000,A,6418.4786,N,02154.5569,W,3.69,80.44,050912,,,A*4C
$GPGGA,184952.000,6418.4789,N,02154.5531,W,1,09,0.9,19.9,M,60.6,M,,0000*75
$GPGSA,A,3,22,14,17,32,19,11,28,20,01,,,,1.8,0.9,1.6*36
$GPRMC,184952.000,A,6418.4789,N,02154.5531,W,5.71,80.95,050912,,,A*4E
$GPGGA,184953.000,6418.4792,N,02154.5486,W,1,10,0.8,20.0,M,60.6,M,,0000*79
$GPGSA,A,3,22,14,17,32,19,11,28,20,01,27,,,1.8,0.8,1.5*31
$GPGSV,3,1,11,01,75,193,42,11,65,135,43,28,45,261,26,32,42,161,40*79
$GPGSV,3,2,11,17,28,292,24,14,26,064,32,19,23,133,27,20,23,191,40*7A
$GPGSV,3,3,11,27,18,337,25,22,18,047,28,09,17,350,*4C
$GPRMC,184953.000,A,6418.4792,N,02154.5486,W,7.02,82.20,050912,,,A*42
$GPGGA,184954.000,6418.4795,N,02154.5431,W,1,11,0.8,20.1,M,60.6,M,,0000*75
$GPGSA,A,3,22,14,17,32,19,09,11,28,20,01,27,,1.7,0.8,1.5*37
$GPRMC,184954.000,A,6418.4795,N,02154.5431,W,8.54,81.48,050912,,,A*4F
$GPGGA,184955.000,6418.4800,N,02154.5365,W,1,11,0.8,20.2,M,60.6,M,,0000*72
$GPGSA,A,3,22,14,17,32,19,09,11,28,20,01,27,,1.7,0.8,1.5*37
$GPRMC,184955.000,A,6418.4800,N,02154.5365,W,10.44,81.56,050912,,,A*7C
$GPGGA,184956.000,6418.4805,N,02154.5292,W,1,10,0.9,20.3,M,60.6,M,,0000*7C
$GPGSA,A,3,22,14,32,19,09,11,28,20,01,27,,,1.8,0.9,1.5*3F
$GPRMC,184956.000,A,6418.4805,N,02154.5292,W,11.61,79.78,050912,,,A*7E
$GPGGA,184957.000,6418.4814,N,02154.5208,W,1,09,0.9,20.4,M,60.6,M,,0000*71
$GPGSA,A,3,22,14,17,32,11,28,20,01,27,,,,1.9,0.9,1.7*3B
$GPRMC,184957.000,A,6418.4814,N,02154.5208,W,13.47,77.04,050912,,,A*7F
$GPGGA,184958.000,6418.4823,N,02154.5119,W,1,11,0.8,20.4,M,60.6,M,,0000*71
$GPGSA,A,3,22,14,17,32,19,09,11,28,20,01,27,,1.7,0.8,1.5*37
$GPGSV,3,1,11,01,75,193,42,11,65,135,42,28,45,261,25,32,42,161,41*7A
$GPGSV,3,2,11,17,28,292,30,14,26,064,31,19,23,133,38,20,23,191,41*73
$GPGSV,3,3,11,27,18,337,32,22,18,047,21,09,17,350,28*49
$GPRMC,184958.000,A,6418.4823,N,02154.5119,W,14.37,77.00,050912,,,A*73
$GPGGA,184959.000,6418.4832,N,02154.5030,W,1,11,0.8,20.5,M,60.6,M,,0000*7B
$GPGSA,A,3,22,14,17,32,19,09,11,28,20,01,27,,1.7,0.8,1.5*37
$GPRMC,184959.000,A,6418.4832,N,02154.5030,W,14.42,76.21,050912,,,A*78
$GPGGA,185000.000,6418.4843,N,02154.4935,W,1,11,0.8,20.5,M,60.6,M,,0000*74
$GPGSA,A,3,22,14,17,32,19,09,11,28,20,01,27,,1.7,0.8,1.5*37
$GPRMC,185000.000,A,6418.4843,N,02154.4935,W,15.49,74.46,050912,,,A*7E
$GPGGA,185001.000,6418.4856,N,02154.4834,W,1,11,0.8,20.6,M,60.6,M,,0000*72
$GPGSA,A,3,22,14,17,32,19,09,11,28,20,01,27,,1.7,0.8,1.5*37
$GPRMC,185001.000,A,6418.4856,N,02154.4834,W,16.51,73.36,050912,,,A*71
$GPGGA,185002.000,6418.4872,N,02154.4730,W,1,11,0.8,20.6,M,60.6,M,,0000*7C
$GPGSA,A,3,22,14,17,32,19,09,11,28,20,01,27,,1.7,0.8,1.5*37
$GPRMC,185002.000,A,6418.4872,N,02154.4730,W,17.33,70.41,050912,,,A*79
$GPGGA,185003.000,6418.4890,N,02154.4622,W,1,11,0.8,20.6,M,60.6,M,,0000*73
$GPGSA,A,3,22,14,17,32,19,09,11,28,20,01,27,,1.7,0.8,1.5*37
$GPGSV,3,1,11,01,75,193,41,11,65,135,29,28,45,261,26,32,42,161,39*78
$GPGSV,3,2,11,17,28,292,22,14,26,064,31,19,23,133,32,20,23,191,36*7A
$GPGSV,3,3,11,27,18,337,19,22,18,047,26,09,17,350,29*46
$GPRMC,185003.000,A,6418.4890,N,02154.4622,W,18.17,68.62,050912,,,A*77
$GPGGA,185004.000,6418.4910,N,02154.4514,W,1,11,0.8,20.6,M,60.6,M,,0000*7B
$GPGSA,A,3,22,14,17,32,19,09,11,28,20,01,27,,1.7,0.8,1.5*37
$GPRMC,185004.000,A,6418.4910,N,02154.4514,W,18.49,65.90,050912,,,A*74
$GPGGA,185005.000,6418.4934,N,02154.4404,W,1,10,0.8,20.6,M,60.6,M,,0000*7D
$GPGSA,A,3,22,14,17,32,19,11,28,20,01,27,,,1.8,0.8,1.5*31
$GPRMC,185005.000,A,6418.4934,N,02154.4404,W,19.34,63.56,050912,,,A*74
$GPGGA,185006.000,6418.4958,N,02154.4291,W,1,11,0.8,20.6,M,60.6,M,,0000*7F
$GPGSA,A,3,22,14,17,32,19,09,11,28,20,01,27,,1.7,0.8,1.5*37
$GPRMC,185006.000,A,6418.4958,N,02154.4291,W,19.78,62.77,050912,,,A*7D
$GPGGA,185007.000,6418.4985,N,02154.4180,W,1,11,0.8,20.7,M,60.6,M,,0000*7C
$GPGSA,A,3,22,14,17,32,19,09,11,28,20,01,27,,1.7,0.8,1.5*37
$GPRMC,185007.000,A,6418.4985,N,02154.4180,W,19.86,61.05,050912,,,A*78
$GPGGA,185008.000,6418.5013,N,02154.4069,W,1,11,0.8,20.7,M,60.6,M,,0000*72
$GPGSA,A,3,22,14,17,32,19,09,11,28,20,01,27,,1.7,0.8,1.5*37
$GPGSV,3,1,11,01,75,193,36,11,65,135,36,28,45,261,26,32,42,161,40*78
$GPGSV,3,2,11,17,28,292,33,14,26,064,26,19,23,133,30,20,23,191,21*78
$GPGSV,3,3,11,27,18,337,33,22,18,047,25,09,17,350,25*41
$GPRMC,185008.000,A,6418.5013,N,02154.4069,W,20.30,58.74,050912,,,A*7D
$GPGGA,185009.000,6418.5044,N,02154.3959,W,1,10,0.9,20.7,M,60.6,M,,0000*7C
$GPGSA,A,3,22,14,17,32,09,11,28,20,01,27,,,1.9,0.9,1.7*32
$GPRMC,185009.000,A,6418.5044,N,02154.3959,W,20.65,57.05,050912,,,A*7A
$GPGGA,185010.000,6418.5077,N,02154.3846,W,1,11,0.8,20.7,M,60.6,M,,0000*7B
$GPGSA,A,3,22,14,17,32,19,09,11,28,20,01,27,,1.7,0.8,1.5*37
$GPRMC,185010.000,A,6418.5077,N,02154.3846,W,21.32,55.49,050912,,,A*74
$GPGGA,185011.000,6418.5112,N,02154.3733,W,1,11,0.8,20.7,M,60.6,M,,0000*75
$GPGSA,A,3,22,14,17,32,19,09,11,28,20,01,27,,1.7,0.8,1.5*37
$GPRMC,185011.000,A,6418.5112,N,02154.3733,W,21.87,54.15,050912,,,A*7C
$GPGGA,185012.000,6418.5149,N,02154.3620,W,1,11,0.8,20.7,M,60.6,M,,0000*7B
$GPGSA,A,3,22,14,17,32,19,09,11,28,20,01,27,,1.7,0.8,1.5*37
$GPRMC,185012.000,A,6418.5149,N,02154.3620,W,22.11,52.43,050912,,,A*7B
$GPGGA,185013.000,6418.5187,N,02154.3508,W,1,11,0.8,20.7,M,60.6,M,,0000*71
$GPGSA,A,3,22,14,17,32,19,09,11,28,20,01,27,,1.7,0.8,1.5*37
$GPGSV,3,1,11,01,75,193,36,11,65,135,30,28,45,261,28,32,42,161,40*70
$GPGSV,3,2,11,17,28,292,33,14,26,064,35,19,23,133,26,20,23,191,30*7D
$GPGSV,3,3,11,27,18,337,28,22,18,047,35,09,17,350,34*4A
$GPRMC,185013.000,A,6418.5187,N,02154.3508,W,22.28,51.41,050912,,,A*7A
$GPGGA,185014.000,6418.5227,N,02154.3398,W,1,10,1.0,20.6,M,60.6,M,,0000*79
$GPGSA,A,3,22,14,17,32,19,09,11,28,01,27,,,2.1,1.0,1.9*35
$GPRMC,185014.000,A,6418.5227,N,02154.3398,W,22.42,50.29,050912,,,A*78
$GPGGA,185015.000,6418.5267,N,02154.3290,W,1,11,0.8,20.5,M,60.6,M,,0000*7E
$GPGSA,A,3,22,14,17,32,19,09,11,28,20,01,27,,1.7,0.8,1.5*37
$GPRMC,185015.000,A,6418.5267,N,02154.3290,W,22.33,48.47,050912,,,A*73
$GPGGA,185016.000,6418.5310,N,02154.3186,W,1,11,0.8,20.3,M,60.6,M,,0000*7E
$GPGSA,A,3,22,14,17,32,19,09,11,28,20,01,27,,1.7,0.8,1.5*37
$GPRMC,185016.000,A,6418.5310,N,02154.3186,W,22.29,46.65,050912,,,A*70
$GPGGA,185017.000,6418.5354,N,02154.3081,W,1,11,0.8,20.2,M,60.6,M,,0000*78
$GPGSA,A,3,22,14,17,32,19,09,11,28,20,01,27,,1.7,0.8,1.5*37
$GPRMC,185017.000,A,6418.5354,N,02154.3081,W,22.92,45.13,050912,,,A*75
$GPGGA,185018.000,6418.5402,N,02154.2977,W,1,11,0.8,19.9,M,60.6,M,,0000*73
$GPGSA,A,3,22,14,17,32,19,09,11,28,20,01,27,,1.7,0.8,1.5*37
$GPGSV,3,1,11,01,75,193,37,11,65,135,39,28,45,261,30,32,42,161,42*73
$GPGSV,3,2,11,17,28,292,32,14,26,064,30,19,23,133,28,20,23,191,29*7F
$GPGSV,3,3,11,27,18,337,24,22,18,047,31,09,17,350,34*42
$GPRMC,185018.000,A,6418.5402,N,02154.2977,W,23.87,42.85,050912,,,A*72
$GPGGA,185019.000,6418.5454,N,02154.2872,W,1,11,0.8,19.6,M,60.6,M,,0000*7A
$GPGSA,A,3,22,14,17,32,19,09,11,28,20,01,27,,1.7,0.8,1.5*37
$GPRMC,185019.000,A,6418.5454,N,02154.2872,W,24.96,40.72,050912,,,A*79
$GPGGA,185020.000,6418.5510,N,02154.2768,W,1,11,0.8,19.2,M,60.6,M,,0000*71
$GPGSA,A,3,22,14,17,32,19,09,11,28,20,01,27,,1.7,0.8,1.5*37
$GPRMC,185020.000,A,6418.5510,N,02154.2768,W,26.06,38.29,050912,,,A*7C
$GPGGA,185021.000,6418.5570,N,02154.2663,W,1,11,0.8,18.9,M,60.6,M,,0000*76
$GPGSA,A,3,22,14,17,32,19,09,11,28,20,01,27,,1.7,0.8,1.5*37
$GPRMC,185021.000,A,6418.5570,N,02154.2663,W,27.17,36.93,050912,,,A*7F
$GPGGA,185022.000,6418.5633,N,02154.2557,W,1,10,0.9,18.5,M,60.6,M,,0000*79
$GPGSA,A,3,22,14,17,32,09,11,28,20,01,27,,,1.9,0.9,1.7*32
$GPRMC,185022.000,A,6418.5633,N,02154.2557,W,28.38,35.70,050912,,,A*70
$GPGGA,185023.000,6418.5699,N,02154.2446,W,1,11,0.8,18.1,M,60.6,M,,0000*7D
$GPGSA,A,3,22,14,17,32,19,09,11,28,20,01,27,,1.7,0.8,1.5*37
$GPGSV,3,1,11,01,76,189,30,11,64,134,27,28,44,260,37,32,43,161,42*75
$GPGSV,3,2,11,17,29,292,28,14,27,063,26,20,24,191,30,19,22,133,32*71
$GPGSV,3,3,11,27,18,336,27,09,17,349,25,22,17,047,30*46
$GPRMC,185023.000,A,6418.5699,N,02154.2446,W,29.40,35.69,050912,,,A*76
$GPGGA,185024.000,6418.5768,N,02154.2332,W,1,10,0.9,17.6,M,60.6,M,,0000*79
$GPGSA,A,3,14,17,32,19,09,11,28,20,01,27,,,1.8,0.9,1.5*39
$GPRMC,185024.000,A,6418.5768,N,02154.2332,W,30.51,35.47,050912,,,A*7E
$GPGGA,185025.000,6418.5840,N,02154.2219,W,1,04,2.8,17.0,M,60.6,M,,0000*75
$GPGSA,A,3,22,14,17,28,,,,,,,,,3.0,2.8,1.0*33
$GPRMC,185025.000,A,6418.5840,N,02154.2219,W,31.51,34.17,050912,,,A*77
$GPGGA,185026.000,6418.5912,N,02154.2105,W,0,00,,16.5,M,60.6,M,,0000*5B
$GPGSA,A,1,,,,,,,,,,,,,,,*1E
$GPRMC,185606.000,A,6416.9424,N,02150.3617,W,29.94,205.25,050912,,,A*42
$GPGGA,185607.000,6416.9272,N,02150.3780,W,1,05,1.3,22.4,M,60.6,M,,0000*71
$GPGSA,A,3,20,17,01,28,14,,,,,,,,2.6,1.3,2.3*3F
$GPRMC,185607.000,A,6416.9272,N,02150.3780,W,29.36,205.21,050912,,,A*45
$GPGGA,185608.000,6416.9177,N,02150.3905,W,1,07,1.1,17.6,M,60.6,M,,0000*7F
$GPGSA,A,3,20,17,01,28,14,22,09,,,,,,2.3,1.1,2.0*32
$GPGSV,3,1,11,01,76,184,39,11,63,132,,32,45,160,,28,44,258,39*71
$GPGSV,3,2,11,17,31,292,30,14,27,062,34,20,25,191,30,19,21,134,*77
$GPGSV,3,3,11,27,18,335,,09,18,347,25,22,16,047,24*45
$GPRMC,185608.000,A,6416.9177,N,02150.3905,W,28.25,204.47,050912,,,A*4D
$GPGGA,185609.000,6416.9103,N,02150.3976,W,1,09,0.9,18.9,M,60.6,M,,0000*7E
$GPGSA,A,3,20,17,01,28,14,22,09,19,27,,,,2.0,0.9,1.8*3E
$GPRMC,185609.000,A,6416.9103,N,02150.3976,W,28.84,202.94,050912,,,A*48
$GPGGA,185610.000,6416.9028,N,02150.4041,W,1,08,1.0,20.1,M,60.6,M,,0000*7E
$GPGSA,A,3,20,17,01,28,22,09,19,27,,,,,2.1,1.0,1.9*33
$GPRMC,185610.000,A,6416.9028,N,02150.4041,W,28.86,201.37,050912,,,A*4A
$GPGGA,185611.000,6416.8951,N,02150.4097,W,1,10,0.8,21.4,M,60.6,M,,0000*76
$GPGSA,A,3,20,17,01,28,14,22,09,19,27,11,,,1.7,0.8,1.5*36
$GPRMC,185611.000,A,6416.8951,N,02150.4097,W,29.00,197.76,050912,,,A*40
$GPGGA,185612.000,6416.8872,N,02150.4145,W,1,11,0.8,22.4,M,60.6,M,,0000*79
$GPGSA,A,3,20,17,01,28,14,22,09,19,27,32,11,,1.7,0.8,1.5*37
$GPRMC,185612.000,A,6416.8872,N,02150.4145,W,29.30,194.67,050912,,,A*4D
$GPGGA,185613.000,6416.8791,N,02150.4178,W,1,11,0.8,23.4,M,60.6,M,,0000*75
$GPGSA,A,3,20,17,01,28,14,22,09,19,27,32,11,,1.7,0.8,1.5*37
$GPGSV,3,1,11,01,76,184,40,11,63,132,36,32,45,160,27,28,44,258,38*7E
$GPGSV,3,2,11,17,31,292,39,14,27,062,33,20,25,191,25,19,21,134,26*79
$GPGSV,3,3,11,27,18,335,27,09,18,347,33,22,16,047,28*4B
$GPRMC,185613.000,A,6416.8791,N,02150.4178,W,29.64,189.68,050912,,,A*42
$GPGGA,185614.000,6416.8708,N,02150.4200,W,1,11,0.8,24.4,M,60.6,M,,0000*79
$GPGSA,A,3,20,17,01,28,14,22,09,19,27,32,11,,1.7,0.8,1.5*37
$GPRMC,185614.000,A,6416.8708,N,02150.4200,W,29.77,186.46,050912,,,A*48
$GPGGA,185615.000,6416.8625,N,02150.4215,W,1,11,0.8,25.4,M,60.6,M,,0000*73
$GPGSA,A,3,20,17,01,28,14,22,09,19,27,32,11,,1.7,0.8,1.5*37
$GPRMC,185615.000,A,6416.8625,N,02150.4215,W,30.00,184.11,050912,,,A*4B
$GPGGA,185616.000,6416.8541,N,02150.4223,W,1,11,0.8,26.4,M,60.6,M,,0000*77
$GPGSA,A,3,20,17,01,28,14,22,09,19,27,32,11,,1.7,0.8,1.5*37
$GPRMC,185616.000,A,6416.8541,N,02150.4223,W,30.22,182.12,050912,,,A*49
$GPGGA,185617.000,6416.8457,N,02150.4225,W,1,11,0.8,27.4,M,60.6,M,,0000*77
$GPGSA,A,3,20,17,01,28,14,22,09,19,27,32,11,,1.7,0.8,1.5*37
$GPRMC,185617.000,A,6416.8457,N,02150.4225,W,30.66,180.29,050912,,,A*42
$GPGGA,185618.000,6416.8371,N,02150.4220,W,1,11,0.8,28.2,M,60.6,M,,0000*77
$GPGSA,A,3,20,17,01,28,14,22,09,19,27,32,11,,1.7,0.8,1.5*37
$GPGSV,3,1,11,01,76,184,39,11,63,132,39,32,45,160,29,28,44,258,40*7E
$GPGSV,3,2,11,17,31,292,44,14,27,062,25,20,25,191,23,19,21,134,23*77
$GPGSV,3,3,11,27,18,335,29,09,18,347,30,22,16,047,30*4F
$GPRMC,185618.000,A,6416.8371,N,02150.4220,W,31.08,178.26,050912,,,A*4A
$GPGGA,185619.000,6416.8284,N,02150.4208,W,1,11,0.8,29.0,M,60.6,M,,0000*74
$GPGSA,A,3,20,17,01,28,14,22,09,19,27,32,11,,1.7,0.8,1.5*37
$GPRMC,185619.000,A,6416.8284,N,02150.4208,W,31.31,176.28,050912,,,A*40
$GPGGA,185620.000,6416.8197,N,02150.4190,W,1,11,0.8,29.7,M,60.6,M,,0000*7A
$GPGSA,A,3,20,17,01,28,14,22,09,19,27,32,11,,1.7,0.8,1.5*37
$GPRMC,185620.000,A,6416.8197,N,02150.4190,W,31.57,174.67,050912,,,A*40
$GPGGA,185621.000,6416.8111,N,02150.4171,W,1,11,0.8,30.4,M,60.6,M,,0000*71
$GPGSA,A,3,20,17,01,28,14,22,09,19,27,32,11,,1.7,0.8,1.5*37
$GPRMC,185621.000,A,6416.8111,N,02150.4171,W,31.52,174.28,050912,,,A*4E
$GPGGA,185622.000,6416.8024,N,02150.4156,W,1,11,0.8,31.0,M,60.6,M,,0000*75
$GPGSA,A,3,20,17,01,28,14,22,09,19,27,32,11,,1.7,0.8,1.5*37
$GPRMC,185622.000,A,6416.8024,N,02150.4156,W,31.56,175.23,050912,,,A*41
$GPGGA,185623.000,6416.7936,N,02150.4142,W,1,11,0.8,31.6,M,60.6,M,,0000*72
$GPGSA,A,3,20,17,01,28,14,22,09,19,27,32,11,,1.7,0.8,1.5*37
$GPGSV,3,1,11,01,77,178,39,11,62,130,39,32,46,159,34,28,43,256,41*72
$GPGSV,3,2,11,17,32,292,43,14,27,060,33,20,27,191,27,19,20,134,24*76
$GPGSV,3,3,11,09,18,346,31,27,18,333,29,22,15,046,33*48
$GPRMC,185623.000,A,6416.7936,N,02150.4142,W,31.71,176.03,050912,,,A*44
$GPGGA,185624.000,6416.7848,N,02150.4134,W,1,11,0.8,32.1,M,60.6,M,,0000*78
$GPGSA,A,3,20,17,01,28,14,22,09,19,27,32,11,,1.7,0.8,1.5*37
$GPRMC,185624.000,A,6416.7848,N,02150.4134,W,31.72,177.66,050912,,,A*4B
$GPGGA,185625.000,6416.7760,N,02150.4133,W,1,11,0.8,32.6,M,60.6,M,,0000*7C
$GPGSA,A,3,20,17,01,28,14,22,09,19,27,32,11,,1.7,0.8,1.5*37
$GPRMC,185625.000,A,6416.7760,N,02150.4133,W,31.70,179.48,050912,,,A*48
$GPGGA,185626.000,6416.7673,N,02150.4135,W,1,11,0.8,33.2,M,60.6,M,,0000*7F
$GPGSA,A,3,20,17,01,28,14,22,09,19,27,32,11,,1.7,0.8,1.5*37
$GPRMC,185626.000,A,6416.7673,N,02150.4135,W,31.55,180.57,050912,,,A*41
$GPGGA,185627.000,6416.7586,N,02150.4141,W,1,11,0.8,33.8,M,60.6,M,,0000*7E
$GPGSA,A,3,20,17,01,28,14,22,09,19,27,32,11,,1.7,0.8,1.5*37
$GPRMC,185627.000,A,6416.7586,N,02150.4141,W,31.24,181.88,050912,,,A*4F
$GPGGA,185628.000,6416.7501,N,02150.4154,W,1,11,0.8,34.3,M,60.6,M,,0000*76
$GPGSA,A,3,20,17,01,28,14,22,09,19,27,32,11,,1.7,0.8,1.5*37
$GPGSV,3,1,11,01,77,178,38,11,62,130,39,32,46,159,33,28,43,256,42*77
$GPGSV,3,2,11,17,32,292,43,14,27,060,34,20,27,191,29,19,20,134,33*79
$GPGSV,3,3,11,09,18,346,27,27,18,333,34,22,15,046,24*45
$GPRMC,185628.000,A,6416.7501,N,02150.4154,W,30.92,183.57,050912,,,A*47
$GPGGA,185629.000,6416.7415,N,02150.4173,W,1,10,0.9,35.0,M,60.6,M,,0000*74
$GPGSA,A,3,20,17,01,28,14,09,19,27,32,11,,,1.8,0.9,1.5*39
$GPRMC,185629.000,A,6416.7415,N,02150.4173,W,31.02,185.64,050912,,,A*49
$GPGGA,185630.000,6416.7330,N,02150.4196,W,1,11,0.8,35.6,M,60.6,M,,0000*71
$GPGSA,A,3,20,17,01,28,14,22,09,19,27,32,11,,1.7,0.8,1.5*37
$GPRMC,185630.000,A,6416.7330,N,02150.4196,W,31.06,186.91,050912,,,A*47
$GPGGA,185631.000,6416.7245,N,02150.4226,W,1,11,0.8,36.2,M,60.6,M,,0000*7C
$GPGSA,A,3,20,17,01,28,14,22,09,19,27,32,11,,1.7,0.8,1.5*37
$GPRMC,185631.000,A,6416.7245,N,02150.4226,W,30.85,188.85,050912,,,A*4C
$GPGGA,185632.000,6416.7161,N,02150.4259,W,1,11,0.8,36.8,M,60.6,M,,0000*78
$GPGSA,A,3,20,17,01,28,14,22,09,19,27,32,11,,1.7,0.8,1.5*37
$GPRMC,185632.000,A,6416.7161,N,02150.4259,W,30.71,189.58,050912,,,A*48
$GPGGA,185633.000,6416.7077,N,02150.4292,W,1,11,0.8,37.4,M,60.6,M,,0000*75
$GPGSA,A,3,20,17,01,28,14,22,09,19,27,32,11,,1.7,0.8,1.5*37
$GPGSV,3,1,11,01,77,178,38,11,62,130,33,32,46,159,27,28,43,256,41*7B
$GPGSV,3,2,11,17,32,292,42,14,27,060,37,20,27,191,27,19,20,134,27*70
$GPGSV,3,3,11,09,18,346,26,27,18,333,30,22,15,046,33*46
$GPRMC,185633.000,A,6416.7077,N,02150.4292,W,30.64,189.89,050912,,,A*40
$GPGGA,185634.000,6416.6993,N,02150.4325,W,1,11,0.8,37.9,M,60.6,M,,0000*70
$GPGSA,A,3,20,17,01,28,14,22,09,19,27,32,11,,1.7,0.8,1.5*37
$GPRMC,185634.000,A,6416.6993,N,02150.4325,W,30.68,189.68,050912,,,A*4B
$GPGGA,185635.000,6416.6909,N,02150.4357,W,1,11,0.8,38.6,M,60.6,M,,0000*77
$GPGSA,A,3,20,17,01,28,14,22,09,19,27,32,11,,1.7,0.8,1.5*37
$GPRMC,185635.000,A,6416.6909,N,02150.4357,W,30.62,189.31,050912,,,A*4A
$GPGGA,185636.000,6416.6825,N,02150.4385,W,1,09,1.0,39.3,M,60.6,M,,0000*70
$GPGSA,A,3,20,17,01,28,14,22,27,32,11,,,,2.0,1.0,1.8*36
$GPRMC,185636.000,A,6416.6825,N,02150.4385,W,30.62,188.07,050912,,,A*4D
$GPGGA,185637.000,6416.6741,N,02150.4408,W,1,10,0.9,40.0,M,60.6,M,,0000*73
$GPGSA,A,3,20,17,01,28,14,22,19,27,32,11,,,1.8,0.9,1.5*30
$GPRMC,185637.000,A,6416.6741,N,02150.4408,W,30.66,186.70,050912,,,A*49
$GPGGA,185638.000,6416.6656,N,02150.4427,W,1,11,0.8,40.7,M,60.6,M,,0000*71
$GPGSA,A,3,20,17,01,28,14,22,09,19,27,32,11,,1.7,0.8,1.5*37
$GPGSV,3,1,11,01,77,178,38,11,62,130,40,32,46,159,32,28,43,256,40*7A
$GPGSV,3,2,11,17,32,292,42,14,27,060,31,20,27,191,31,19,20,134,28*7E
$GPGSV,3,3,11,09,18,346,33,27,18,333,25,22,15,046,32*47
$GPRMC,185638.000,A,6416.6656,N,02150.4427,W,30.86,185.37,050912,,,A*42
$GPGGA,185639.000,6416.6570,N,02150.4441,W,1,11,0.8,41.3,M,60.6,M,,0000*72
$GPGSA,A,3,20,17,01,28,14,22,09,19,27,32,11,,1.7,0.8,1.5*37
$GPRMC,185639.000,A,6416.6570,N,02150.4441,W,31.10,183.80,050912,,,A*40
$GPGGA,185640.000,6416.6484,N,02150.4451,W,1,11,0.8,42.0,M,60.6,M,,0000*77
$GPGSA,A,3,20,17,01,28,14,22,09,19,27,32,11,,1.7,0.8,1.5*37
$GPRMC,185640.000,A,6416.6484,N,02150.4451,W,31.13,182.40,050912,,,A*4B
$GPGGA,185641.000,6416.6399,N,02150.4456,W,1,11,0.8,42.8,M,60.6,M,,0000*72
$GPGSA,A,3,20,17,01,28,14,22,09,19,27,32,11,,1.7,0.8,1.5*37
$GPRMC,185641.000,A,6416.6399,N,02150.4456,W,30.98,181.27,050912,,,A*46
$GPGGA,185642.000,6416.6313,N,02150.4457,W,1,11,0.8,43.5,M,60.6,M,,0000*7E
$GPGSA,A,3,20,17,01,28,14,22,09,19,27,32,11,,1.7,0.8,1.5*37
$GPRMC,185642.000,A,6416.6313,N,02150.4457,W,30.92,179.93,050912,,,A*44
$GPGGA,185643.000,6416.6228,N,02150.4451,W,1,11,0.8,44.2,M,60.6,M,,0000*70
$GPGSA,A,3,20,17,01,28,14,22,09,19,27,32,11,,1.7,0.8,1.5*37
$GPGSV,3,1,11,01,77,178,37,11,62,130,41,32,46,159,32,28,43,256,41*75
$GPGSV,3,2,11,17,32,292,44,14,27,060,30,20,27,191,24,19,20,134,23*76
$GPGSV,3,3,11,09,18,346,28,27,18,333,29,22,15,046,27*45
$GPRMC,185643.000,A,6416.6228,N,02150.4451,W,31.04,177.95,050912,,,A*4C
$GPGGA,185644.000,6416.6141,N,02150.4439,W,1,11,0.8,44.8,M,60.6,M,,0000*7F
$GPGSA,A,3,20,17,01,28,14,22,09,19,27,32,11,,1.7,0.8,1.5*37
$GPRMC,185644.000,A,6416.6141,N,02150.4439,W,31.31,176.16,050912,,,A*45
$GPGGA,185645.000,6416.6055,N,02150.4421,W,1,11,0.8,45.4,M,60.6,M,,0000*7E
$GPGSA,A,3,20,17,01,28,14,22,09,19,27,32,11,,1.7,0.8,1.5*37
$GPRMC,185645.000,A,6416.6055,N,02150.4421,W,31.43,174.64,050912,,,A*4B
$GPGGA,185646.000,6416.5968,N,02150.4399,W,1,11,0.8,46.0,M,60.6,M,,0000*7A
$GPGSA,A,3,20,17,01,28,14,22,09,19,27,32,11,,1.7,0.8,1.5*37
$GPRMC,185646.000,A,6416.5968,N,02150.4399,W,31.62,173.40,050912,,,A*4A
$GPGGA,185647.000,6416.5881,N,02150.4372,W,1,11,0.8,46.6,M,60.6,M,,0000*7E
$GPGSA,A,3,20,17,01,28,14,22,09,19,27,32,11,,1.7,0.8,1.5*37
$GPRMC,185647.000,A,6416.5881,N,02150.4372,W,31.76,171.88,050912,,,A*4B
$GPGGA,185648.000,6416.5794,N,02150.4340,W,1,10,0.9,47.1,M,60.6,M,,0000*7D
$GPGSA,A,3,20,17,01,28,14,22,19,27,32,11,,,1.8,0.9,1.5*30
$GPGSV,3,1,11,01,77,177,37,11,62,130,40,32,46,159,37,28,43,256,41*7E
$GPGSV,3,2,11,17,32,292,43,14,27,060,30,20,27,191,33,19,19,134,30*7F
$GPGSV,3,3,11,09,18,346,19,27,18,333,29,22,15,046,35*44
$GPRMC,185648.000,A,6416.5794,N,02150.4340,W,31.87,170.55,050912,,,A*41
$GPGGA,185649.000,6416.5707,N,02150.4300,W,1,10,0.9,47.7,M,60.6,M,,0000*74
$GPGSA,A,3,20,17,01,28,14,22,19,27,32,11,,,1.8,0.9,1.5*30
$GPRMC,185649.000,A,6416.5707,N,02150.4300,W,32.10,168.40,050912,,,A*4E
$GPGGA,185650.000,6416.5621,N,02150.4253,W,1,10,0.9,48.2,M,60.6,M,,0000*74
$GPGSA,A,3,20,17,01,28,14,22,19,27,32,11,,,1.8,0.9,1.5*30
$GPRMC,185650.000,A,6416.5621,N,02150.4253,W,32.37,166.37,050912,,,A*4F
$GPGGA,185651.000,6416.5534,N,02150.4200,W,1,10,0.9,48.8,M,60.6,M,,0000*7E
$GPGSA,A,3,20,17,01,28,14,22,19,27,32,11,,,1.8,0.9,1.5*30
$GPRMC,185651.000,A,6416.5534,N,02150.4200,W,32.69,164.85,050912,,,A*4F
$GPGGA,185652.000,6416.5446,N,02150.4142,W,1,11,0.8,49.2,M,60.6,M,,0000*77
$GPGSA,A,3,20,17,01,28,14,22,09,19,27,32,11,,1.7,0.8,1.5*37
$GPRMC,185652.000,A,6416.5446,N,02150.4142,W,32.99,163.50,050912,,,A*4D
$GPGGA,185653.000,6416.5359,N,02150.4080,W,1,11,0.8,49.6,M,60.6,M,,0000*74
$GPGSA,A,3,20,17,01,28,14,22,09,19,27,32,11,,1.7,0.8,1.5*37
$GPGSV,3,1,11,01,77,177,38,11,62,130,41,32,46,159,31,28,43,256,41*76
$GPGSV,3,2,11,17,32,292,42,14,28,060,38,20,27,191,33,19,19,134,33*7A
$GPGSV,3,3,11,09,18,346,26,27,17,333,27,22,14,046,30*4D
$GPRMC,185653.000,A,6416.5359,N,02150.4080,W,33.05,162.63,050912,,,A*4F
$GPGGA,185654.000,6416.5273,N,02150.4014,W,1,11,0.8,50.0,M,60.6,M,,0000*79
$GPGSA,A,3,20,17,01,28,14,22,09,19,27,32,11,,1.7,0.8,1.5*37
$GPRMC,185654.000,A,6416.5273,N,02150.4014,W,32.92,161.36,050912,,,A*40
$GPGGA,185655.000,6416.5189,N,02150.3946,W,1,11,0.8,50.4,M,60.6,M,,0000*73
$GPGSA,A,3,20,17,01,28,14,22,09,19,27,32,11,,1.7,0.8,1.5*37
$GPRMC,185655.000,A,6416.5189,N,02150.3946,W,32.25,160.42,050912,,,A*40
$GPGGA,185656.000,6416.5106,N,02150.3875,W,1,11,0.8,50.7,M,60.6,M,,0000*75
$GPGSA,A,3,20,17,01,28,14,22,09,19,27,32,11,,1.7,0.8,1.5*37
$GPRMC,185656.000,A,6416.5106,N,02150.3875,W,32.16,159.34,050912,,,A*4E
$GPGGA,185657.000,6416.5022,N,02150.3795,W,1,11,0.8,51.0,M,60.6,M,,0000*74
$GPGSA,A,3,20,17,01,28,14,22,09,19,27,32,11,,1.7,0.8,1.5*37
$GPRMC,185657.000,A,6416.5022,N,02150.3795,W,32.78,157.22,050912,,,A*48
$GPGGA,185658.000,6416.4939,N,02150.3706,W,1,11,0.8,51.3,M,60.6,M,,0000*70
$GPGSA,A,3,20,17,01,28,14,22,09,19,27,32,11,,1.7,0.8,1.5*37
$GPGSV,3,1,11,01,77,177,38,11,62,130,41,32,46,159,33,28,43,256,41*74
$GPGSV,3,2,11,17,32,292,37,14,28,060,30,20,27,191,32,19,19,134,20*73
$GPGSV,3,3,11,09,18,346,33,27,17,333,27,22,14,046,32*4B
$GPRMC,185658.000,A,6416.4939,N,02150.3706,W,33.47,154.87,050912,,,A*4E
$GPGGA,185659.000,6416.4855,N,02150.3607,W,1,11,0.8,51.6,M,60.6,M,,0000*7F
$GPGSA,A,3,20,17,01,28,14,22,09,19,27,32,11,,1.7,0.8,1.5*37
$GPRMC,185659.000,A,6416.4855,N,02150.3607,W,34.05,152.65,050912,,,A*4F
$GPGGA,185700.000,6416.4771,N,02150.3502,W,1,11,0.8,51.8,M,60.6,M,,0000*73
$GPGSA,A,3,20,17,01,28,14,22,09,19,27,32,11,,1.7,0.8,1.5*37
$GPRMC,185700.000,A,6416.4771,N,02150.3502,W,34.58,151.12,050912,,,A*46
$GPGGA,185701.000,6416.4687,N,02150.3392,W,1,11,0.8,52.1,M,60.6,M,,0000*7F
$GPGSA,A,3,20,17,01,28,14,22,09,19,27,32,11,,1.7,0.8,1.5*37
$GPRMC,185701.000,A,6416.4687,N,02150.3392,W,35.10,150.21,050912,,,A*4C
$GPGGA,185702.000,6416.4603,N,02150.3277,W,1,11,0.8,52.4,M,60.6,M,,0000*7F
$GPGSA,A,3,20,17,01,28,14,22,09,19,27,32,11,,1.7,0.8,1.5*37
$GPRMC,185702.000,A,6416.4603,N,02150.3277,W,35.60,149.10,050912,,,A*44
$GPGGA,185703.000,6416.4518,N,02150.3158,W,1,11,0.8,52.7,M,60.6,M,,0000*7A
$GPGSA,A,3,20,17,01,28,14,22,09,19,27,32,11,,1.7,0.8,1.5*37
$GPGSV,3,1,11,01,77,177,39,11,62,130,41,32,46,159,31,28,43,256,42*74
$GPGSV,3,2,11,17,32,292,26,14,28,060,30,20,27,191,37,19,19,134,23*75
$GPGSV,3,3,11,09,18,346,28,27,17,333,25,22,14,046,33*42
$GPRMC,185703.000,A,6416.4518,N,02150.3158,W,36.06,148.68,050912,,,A*4F
$GPGGA,185704.000,6416.4433,N,02150.3036,W,1,11,0.8,53.0,M,60.6,M,,0000*7A
$GPGSA,A,3,20,17,01,28,14,22,09,19,27,32,11,,1.7,0.8,1.5*37
$GPRMC,185704.000,A,6416.4433,N,02150.3036,W,36.49,148.20,050912,,,A*4E
$GPGGA,185705.000,6416.4346,N,02150.2913,W,1,11,0.8,53.2,M,60.6,M,,0000*73
$GPGSA,A,3,20,17,01,28,14,22,09,19,27,32,11,,1.7,0.8,1.5*37
$GPRMC,185705.000,A,6416.4346,N,02150.2913,W,36.86,148.19,050912,,,A*4C
$GPGGA,185706.000,6416.4259,N,02150.2790,W,1,11,0.8,53.5,M,60.6,M,,0000*7D
$GPGSA,A,3,20,17,01,28,14,22,09,19,27,32,11,,1.7,0.8,1.5*37
$GPRMC,185706.000,A,6416.4259,N,02150.2790,W,37.24,148.40,050912,,,A*40
$GPGGA,185707.000,6416.4171,N,02150.2665,W,1,11,0.8,53.8,M,60.6,M,,0000*73
$GPGSA,A,3,20,17,01,28,14,22,09,19,27,32,11,,1.7,0.8,1.5*37
$GPRMC,185707.000,A,6416.4171,N,02150.2665,W,37.43,148.43,050912,,,A*41
$GPGGA,185708.000,6416.4082,N,02150.2541,W,1,11,0.8,54.0,M,60.6,M,,0000*7B
$GPGSA,A,3,20,17,01,28,14,22,09,19,27,32,11,,1.7,0.8,1.5*37
$GPGSV,3,1,11,01,77,177,38,11,62,130,41,32,46,159,31,28,43,256,43*74
$GPGSV,3,2,11,17,32,292,29,14,28,060,34,20,27,191,37,19,19,134,24*79
$GPGSV,3,3,11,09,18,346,28,27,17,333,25,22,14,046,34*45
$GPRMC,185708.000,A,6416.4082,N,02150.2541,W,37.82,148.75,050912,,,A*4E
$GPGGA,185709.000,6416.3993,N,02150.2418,W,1,11,0.8,54.3,M,60.6,M,,0000*7A
$GPGSA,A,3,20,17,01,28,14,22,09,19,27,32,11,,1.7,0.8,1.5*37
$GPRMC,185709.000,A,6416.3993,N,02150.2418,W,37.81,149.19,050912,,,A*44
$GPGGA,185710.000,6416.3903,N,02150.2297,W,1,11,0.8,54.5,M,60.6,M,,0000*7C
$GPGSA,A,3,20,17,01,28,14,22,09,19,27,32,11,,1.7,0.8,1.5*37
$GPRMC,185710.000,A,6416.3903,N,02150.2297,W,37.76,150.00,050912,,,A*4C
$GPGGA,185711.000,6416.3811,N,02150.2184,W,1,10,0.9,54.8,M,60.6,M,,0000*73
$GPGSA,A,3,20,17,01,28,14,22,09,19,32,11,,,1.8,0.9,1.5*3C
$GPRMC,185711.000,A,6416.3811,N,02150.2184,W,37.62,151.91,050912,,,A*42
$GPGGA,185712.000,6416.3718,N,02150.2079,W,1,11,0.8,55.0,M,60.6,M,,0000*7C
$GPGSA,A,3,20,17,01,28,14,22,09,19,27,32,11,,1.7,0.8,1.5*37
$GPRMC,185712.000,A,6416.3718,N,02150.2079,W,37.63,154.26,050912,,,A*4C
$GPGGA,185713.000,6416.3623,N,02150.1983,W,1,11,0.8,55.3,M,60.6,M,,0000*78
$GPGSA,A,3,20,17,01,28,14,22,09,19,27,32,11,,1.7,0.8,1.5*37
$GPGSV,3,1,11,01,77,177,37,11,62,130,41,32,46,159,35,28,43,256,44*78
$GPGSV,3,2,11,17,32,292,36,14,28,060,35,20,27,191,38,19,19,134,32*7E
$GPGSV,3,3,11,09,18,346,28,27,17,333,25,22,14,046,28*48
$GPRMC,185713.000,A,6416.3623,N,02150.1983,W,37.59,156.50,050912,,,A*41
$GPGGA,185714.000,6416.3526,N,02150.1893,W,1,11,0.8,55.6,M,60.6,M,,0000*7C
$GPGSA,A,3,20,17,01,28,14,22,09,19,27,32,11,,1.7,0.8,1.5*37
$GPRMC,185714.000,A,6416.3526,N,02150.1893,W,37.71,158.26,050912,,,A*45
$GPGGA,185715.000,6416.3429,N,02150.1806,W,1,11,0.8,55.8,M,60.6,M,,0000*71
$GPGSA,A,3,20,17,01,28,14,22,09,19,27,32,11,,1.7,0.8,1.5*37
$GPRMC,185715.000,A,6416.3429,N,02150.1806,W,37.79,159.25,050912,,,A*4C
$GPGGA,185716.000,6416.3330,N,02150.1722,W,1,10,0.9,56.1,M,60.6,M,,0000*7E
$GPGSA,A,3,20,17,01,28,14,22,19,27,32,11,,,1.8,0.9,1.5*30
$GPRMC,185716.000,A,6416.3330,N,02150.1722,W,38.05,160.07,050912,,,A*47
$GPGGA,185717.000,6416.3231,N,02150.1640,W,1,10,0.9,56.4,M,60.6,M,,0000*7F
$GPGSA,A,3,20,17,01,28,14,22,19,27,32,11,,,1.8,0.9,1.5*30
$GPRMC,185717.000,A,6416.3231,N,02150.1640,W,38.07,160.48,050912,,,A*4A
$GPGGA,185718.000,6416.3131,N,02150.1561,W,1,10,0.9,56.6,M,60.6,M,,0000*71
$GPGSA,A,3,20,17,01,28,14,22,19,27,32,11,,,1.8,0.9,1.5*30
$GPGSV,3,1,11,01,77,177,36,11,62,130,41,32,46,159,36,28,43,256,43*7D
$GPGSV,3,2,11,17,32,292,37,14,28,060,36,20,27,191,29,19,19,134,28*77
$GPGSV,3,3,11,09,18,346,,27,17,333,20,22,14,046,32*4C
$GPRMC,185718.000,A,6416.3131,N,02150.1561,W,38.30,161.53,050912,,,A*49
$GPGGA,185719.000,6416.3029,N,02150.1486,W,1,10,0.9,56.9,M,60.6,M,,0000*7F
$GPGSA,A,3,20,17,01,28,14,22,19,27,32,11,,,1.8,0.9,1.5*30
$GPRMC,185719.000,A,6416.3029,N,02150.1486,W,38.53,162.50,050912,,,A*4D
$GPGGA,185720.000,6416.2926,N,02150.1416,W,1,10,0.9,57.2,M,60.6,M,,0000*71
$GPGSA,A,3,20,17,01,28,14,22,19,27,32,11,,,1.8,0.9,1.5*30
$GPRMC,185720.000,A,6416.2926,N,02150.1416,W,38.78,163.81,050912,,,A*4D
$GPGGA,185721.000,6416.2822,N,02150.1352,W,1,10,0.9,57.4,M,60.6,M,,0000*74
$GPGSA,A,3,20,17,01,28,14,22,19,27,32,11,,,1.8,0.9,1.5*30
$GPRMC,185721.000,A,6416.2822,N,02150.1352,W,38.97,165.45,050912,,,A*41
$GPGGA,185722.000,6416.2717,N,02150.1293,W,1,10,0.9,57.7,M,60.6,M,,0000*71
$GPGSA,A,3,20,17,01,28,14,22,19,27,32,11,,,1.8,0.9,1.5*30
$GPRMC,185722.000,A,6416.2717,N,02150.1293,W,39.01,166.67,050912,,,A*4A
$GPGGA,185723.000,6416.2612,N,02150.1240,W,1,10,0.9,58.0,M,60.6,M,,0000*72
$GPGSA,A,3,20,17,01,28,14,22,19,27,32,11,,,1.8,0.9,1.5*30
$GPGSV,3,1,11,01,77,176,35,11,62,130,41,32,46,158,37,28,43,256,43*7F
$GPGSV,3,2,11,17,32,292,43,14,28,060,34,20,27,191,28,19,19,134,25*7A
$GPGSV,3,3,11,09,18,346,,27,17,333,29,22,14,046,21*47
$GPRMC,185723.000,A,6416.2612,N,02150.1240,W,38.90,168.13,050912,,,A*45
$GPGGA,185724.000,6416.2506,N,02150.1193,W,1,11,0.8,58.2,M,60.6,M,,0000*7C
$GPGSA,A,3,20,17,01,28,14,22,09,19,27,32,11,,1.7,0.8,1.5*37
$GPRMC,185724.000,A,6416.2506,N,02150.1193,W,39.06,169.50,050912,,,A*41
$GPGGA,185725.000,6416.2400,N,02150.1151,W,1,11,0.8,58.5,M,60.6,M,,0000*73
$GPGSA,A,3,20,17,01,28,14,22,09,19,27,32,11,,1.7,0.8,1.5*37
$GPRMC,185725.000,A,6416.2400,N,02150.1151,W,39.02,170.45,050912,,,A*41
$GPGGA,185726.000,6416.2294,N,02150.1110,W,1,11,0.8,58.7,M,60.6,M,,0000*7C
$GPGSA,A,3,20,17,01,28,14,22,09,19,27,32,11,,1.7,0.8,1.5*37
$GPRMC,185726.000,A,6416.2294,N,02150.1110,W,38.93,170.89,050912,,,A*45
$GPGGA,185727.000,6416.2187,N,02150.1071,W,1,11,0.8,58.9,M,60.6,M,,0000*74
$GPGSA,A,3,20,17,01,28,14,22,09,19,27,32,11,,1.7,0.8,1.5*37
$GPRMC,185727.000,A,6416.2187,N,02150.1071,W,38.99,171.27,050912,,,A*4C
$GPGGA,185728.000,6416.2081,N,02150.1031,W,1,10,0.9,59.1,M,60.6,M,,0000*71
$GPGSA,A,3,20,17,01,28,14,22,19,27,32,11,,,1.8,0.9,1.5*30
$GPGSV,3,1,11,01,77,176,35,11,62,130,41,32,46,158,37,28,43,256,44*78
$GPGSV,3,2,11,17,32,292,43,14,28,060,31,20,27,191,29,19,19,134,32*78
$GPGSV,3,3,11,09,18,346,23,27,17,333,30,22,14,046,29*46
$GPRMC,185728.000,A,6416.2081,N,02150.1031,W,38.96,171.04,050912,,,A*4E
$GPGGA,185729.000,6416.1974,N,02150.0991,W,1,10,0.9,59.3,M,60.6,M,,0000*70
$GPGSA,A,3,20,17,01,28,14,22,19,27,32,11,,,1.8,0.9,1.5*30
$GPRMC,185729.000,A,6416.1974,N,02150.0991,W,38.98,171.19,050912,,,A*4F
$GPGGA,185730.000,6416.1866,N,02150.0953,W,1,10,0.9,59.4,M,60.6,M,,0000*73
$GPGSA,A,3,20,17,01,28,14,22,19,27,32,11,,,1.8,0.9,1.5*30
$GPRMC,185730.000,A,6416.1866,N,02150.0953,W,39.39,171.43,050912,,,A*4E
$GPGGA,185731.000,6416.1758,N,02150.0916,W,1,10,0.9,59.5,M,60.6,M,,0000*70
$GPGSA,A,3,20,17,01,28,14,22,19,27,32,11,,,1.8,0.9,1.5*30
$GPRMC,185731.000,A,6416.1758,N,02150.0916,W,39.42,171.84,050912,,,A*4B
$GPGGA,185732.000,6416.1650,N,02150.0880,W,1,10,0.9,59.5,M,60.6,M,,0000*74
$GPGSA,A,3,20,17,01,28,14,22,19,27,32,11,,,1.8,0.9,1.5*30
$GPRMC,185732.000,A,6416.1650,N,02150.0880,W,39.36,172.09,050912,,,A*4A
$GPGGA,185733.000,6416.1542,N,02150.0847,W,1,10,0.9,59.6,M,60.6,M,,0000*7D
$GPGSA,A,3,20,17,01,28,14,22,19,27,32,11,,,1.8,0.9,1.5*30
$GPGSV,3,1,11,01,77,175,34,11,62,130,41,32,46,158,37,28,43,256,44*7A
$GPGSV,3,2,11,17,32,291,44,14,28,060,26,20,27,191,29,19,19,134,26*7F
$GPGSV,3,3,11,09,18,346,,27,17,333,34,22,14,046,26*4C
$GPRMC,185733.000,A,6416.1542,N,02150.0847,W,39.25,172.41,050912,,,A*4E
$GPGGA,185734.000,6416.1434,N,02150.0813,W,1,10,0.9,59.7,M,60.6,M,,0000*7A
$GPGSA,A,3,20,17,01,28,14,22,19,27,32,11,,,1.8,0.9,1.5*30
$GPRMC,185734.000,A,6416.1434,N,02150.0813,W,39.43,172.46,050912,,,A*4F
$GPGGA,185735.000,6416.1325,N,02150.0778,W,1,10,0.9,59.8,M,60.6,M,,0000*71
$GPGSA,A,3,20,17,01,28,14,22,19,27,32,11,,,1.8,0.9,1.5*30
$GPRMC,185735.000,A,6416.1325,N,02150.0778,W,39.64,172.32,050912,,,A*4D
$GPGGA,185736.000,6416.1215,N,02150.0743,W,1,10,0.9,59.9,M,60.6,M,,0000*79
$GPGSA,A,3,20,17,01,28,14,22,19,27,32,11,,,1.8,0.9,1.5*30
$GPRMC,185736.000,A,6416.1215,N,02150.0743,W,39.92,172.14,050912,,,A*49
$GPGGA,185737.000,6416.1104,N,02150.0707,W,1,10,0.9,60.0,M,60.6,M,,0000*78
$GPGSA,A,3,20,17,01,28,14,22,19,27,32,11,,,1.8,0.9,1.5*30
$GPRMC,185737.000,A,6416.1104,N,02150.0707,W,40.59,172.08,050912,,,A*4F
$GPGGA,185738.000,6416.0991,N,02150.0669,W,1,10,0.9,60.2,M,60.6,M,,0000*79
$GPGSA,A,3,20,17,01,28,14,22,19,27,32,11,,,1.8,0.9,1.5*30
$GPGSV,3,1,11,01,77,175,34,11,62,130,40,32,46,158,36,28,43,256,44*7A
$GPGSV,3,2,11,17,32,291,44,14,28,060,31,20,27,191,28,19,19,134,26*78
$GPGSV,3,3,11,09,18,346,,27,17,333,34,22,14,046,29*43
$GPRMC,185738.000,A,6416.0991,N,02150.0669,W,41.17,171.76,050912,,,A*4D
$GPGGA,185739.000,6416.0876,N,02150.0631,W,1,10,0.9,60.2,M,60.6,M,,0000*7D
$GPGSA,A,3,20,17,01,28,14,22,19,27,32,11,,,1.8,0.9,1.5*30
$GPRMC,185739.000,A,6416.0876,N,02150.0631,W,41.74,171.80,050912,,,A*45
$GPGGA,185740.000,6416.0761,N,02150.0593,W,1,10,0.9,60.3,M,60.6,M,,0000*70
$GPGSA,A,3,20,17,01,28,14,22,19,27,32,11,,,1.8,0.9,1.5*30
$GPRMC,185740.000,A,6416.0761,N,02150.0593,W,42.12,171.89,050912,,,A*43
$GPGGA,185741.000,6416.0644,N,02150.0556,W,1,10,0.9,60.5,M,60.6,M,,0000*78
$GPGSA,A,3,20,17,01,28,14,22,19,27,32,11,,,1.8,0.9,1.5*30
$GPRMC,185741.000,A,6416.0644,N,02150.0556,W,42.57,172.31,050912,,,A*4C
$GPGGA,185742.000,6416.0527,N,02150.0522,W,1,10,0.9,60.6,M,60.6,M,,0000*7D
$GPGSA,A,3,20,17,01,28,14,22,19,27,32,11,,,1.8,0.9,1.5*30
$GPRMC,185742.000,A,6416.0527,N,02150.0522,W,42.59,172.80,050912,,,A*4E
$GPGGA,185743.000,6416.0410,N,02150.0490,W,1,10,0.9,60.8,M,60.6,M,,0000*7F
$GPGSA,A,3,20,17,01,28,14,22,19,27,32,11,,,1.8,0.9,1.5*30
$GPGSV,3,1,11,01,77,175,35,11,62,130,40,32,46,158,36,28,43,256,44*7B
$GPGSV,3,2,11,17,32,291,43,14,28,060,32,20,27,191,26,19,19,134,27*73
$GPGSV,3,3,11,09,18,346,,27,17,333,35,22,14,046,29*42
$GPRMC,185743.000,A,6416.0410,N,02150.0490,W,42.50,173.28,050912,,,A*48
$GPGGA,185744.000,6416.0292,N,02150.0459,W,1,10,0.9,60.8,M,60.6,M,,0000*71
$GPGSA,A,3,20,17,01,28,14,22,19,27,32,11,,,1.7,0.9,1.5*3F
$GPRMC,185744.000,A,6416.0292,N,02150.0459,W,42.78,173.62,050912,,,A*42
$GPGGA,185745.000,6416.0174,N,02150.0429,W,1,11,0.8,60.9,M,60.6,M,,0000*7D
$GPGSA,A,3,20,17,01,28,14,22,09,19,27,32,11,,1.7,0.8,1.5*37
$GPRMC,185745.000,A,6416.0174,N,02150.0429,W,42.88,173.65,050912,,,A*47
$GPGGA,185746.000,6416.0055,N,02150.0400,W,1,11,0.8,60.9,M,60.6,M,,0000*77
$GPGSA,A,3,20,17,01,28,14,22,09,19,27,32,11,,1.7,0.8,1.5*37
$GPRMC,185746.000,A,6416.0055,N,02150.0400,W,42.89,173.83,050912,,,A*44
$GPGGA,185747.000,6415.9937,N,02150.0372,W,1,11,0.8,60.9,M,60.6,M,,0000*73
$GPGSA,A,3,20,17,01,28,14,22,09,19,27,32,11,,1.7,0.8,1.5*37
$GPRMC,185747.000,A,6415.9937,N,02150.0372,W,42.99,174.23,050912,,,A*4C
$GPGGA,185748.000,6415.9818,N,02150.0346,W,1,11,0.8,60.9,M,60.6,M,,0000*77
$GPGSA,A,3,20,17,01,28,14,22,09,19,27,32,11,,1.7,0.8,1.5*37
$GPGSV,3,1,11,01,77,175,34,11,62,130,40,32,46,158,34,28,43,256,44*78
$GPGSV,3,2,11,17,32,291,43,14,28,060,37,20,27,191,26,19,19,134,27*76
$GPGSV,3,3,11,09,18,346,20,27,17,333,35,22,14,046,34*4C
$GPRMC,185748.000,A,6415.9818,N,02150.0346,W,42.90,174.54,050912,,,A*41
$GPGGA,185749.000,6415.9700,N,02150.0320,W,1,11,0.8,60.9,M,60.6,M,,0000*70
$GPGSA,A,3,20,17,01,28,14,22,09,19,27,32,11,,1.7,0.8,1.5*37
$GPRMC,185749.000,A,6415.9700,N,02150.0320,W,42.85,174.39,050912,,,A*49
$GPGGA,185750.000,6415.9581,N,02150.0294,W,1,11,0.8,60.9,M,60.6,M,,0000*7D
$GPGSA,A,3,20,17,01,28,14,22,09,19,27,32,11,,1.7,0.8,1.5*37
$GPRMC,185750.000,A,6415.9581,N,02150.0294,W,42.79,174.54,050912,,,A*4C
$GPGGA,185751.000,6415.9463,N,02150.0269,W,1,11,0.8,60.9,M,60.6,M,,0000*73
$GPGSA,A,3,20,17,01,28,14,22,09,19,27,32,11,,1.7,0.8,1.5*37
$GPRMC,185751.000,A,6415.9463,N,02150.0269,W,42.88,174.89,050912,,,A*4C
$GPGGA,185752.000,6415.9344,N,02150.0247,W,1,11,0.8,60.9,M,60.6,M,,0000*7E
$GPGSA,A,3,20,17,01,28,14,22,09,19,27,32,11,,1.7,0.8,1.5*37
$GPRMC,185752.000,A,6415.9344,N,02150.0247,W,43.01,175.28,050912,,,A*4B
$GPGGA,185753.000,6415.9225,N,02150.0226,W,1,11,0.8,60.9,M,60.6,M,,0000*7E
$GPGSA,A,3,20,17,01,28,14,22,09,19,27,32,11,,1.7,0.8,1.5*37
$GPGSV,3,1,11,01,77,175,34,11,61,130,40,32,47,158,34,28,43,256,44*7A
$GPGSV,3,2,11,17,32,291,43,14,28,059,37,20,27,191,31,19,19,134,27*7A
$GPGSV,3,3,11,09,18,345,27,27,17,333,34,22,14,046,34*49
$GPRMC,185753.000,A,6415.9225,N,02150.0226,W,42.93,175.55,050912,,,A*4B
$GPGGA,185754.000,6415.9107,N,02150.0205,W,1,11,0.8,61.0,M,60.6,M,,0000*73
