$GPGGA,051340.221,5333.2109,N,01000.6878,E,1,03,3.4,29.6,M,46.0,M,,0000*69
$GPGSA,A,2,26,17,15,,,,,,,,,,3.5,3.4,1.0*35
$GPRMC,051340.221,A,5333.2109,N,01000.6878,E,1.95,184.31,160912,,,A*6F
$GPGGA,051341.221,5333.2081,N,01000.6887,E,1,03,3.4,31.3,M,46.0,M,,0000*65
$GPGSA,A,2,26,17,15,,,,,,,,,,3.5,3.4,1.0*35
$GPRMC,051341.221,A,5333.2081,N,01000.6887,E,2.03,177.24,160912,,,A*6B
$GPGGA,051342.221,5333.2059,N,01000.6894,E,1,03,3.4,32.7,M,46.0,M,,0000*66
$GPGSA,A,2,26,17,15,,,,,,,,,,3.5,3.4,1.0*35
$GPRMC,051342.221,A,5333.2059,N,01000.6894,E,2.09,182.70,160912,,,A*6E
$GPGGA,051343.221,5333.2057,N,01000.6901,E,1,03,3.4,34.1,M,46.0,M,,0000*64
$GPGSA,A,2,26,17,15,,,,,,,,,,3.5,3.4,1.0*35
$GPGSV,3,1,12,15,68,211,24,26,39,150,23,17,34,105,27,12,10,220,28*75
$GPGSV,3,2,12,27,68,284,,09,52,279,13,28,39,056,23,18,28,287,11*72
$GPGSV,3,3,12,22,13,325,,08,05,087,16,11,04,026,,01,02,041,*7F
$GPRMC,051343.221,A,5333.2057,N,01000.6901,E,0.97,182.46,160912,,,A*6C
$GPGGA,051344.221,5333.2063,N,01000.6903,E,1,03,3.4,35.4,M,46.0,M,,0000*62
$GPGSA,A,2,26,17,15,,,,,,,,,,3.5,3.4,1.0*35
$GPRMC,051350.000,A,5333.2072,N,01000.6782,E,1.01,166.10,160912,,,A*6A
$GPGGA,051351.000,5333.2065,N,01000.6783,E,1,04,3.4,4.9,M,46.0,M,,0000*5F
$GPGSA,A,3,26,12,17,15,,,,,,,,,4.2,3.4,2.4*30
$GPRMC,051351.000,A,5333.2065,N,01000.6783,E,1.55,167.29,160912,,,A*66
$GPGGA,051352.000,5333.2060,N,01000.6783,E,1,04,3.4,5.8,M,46.0,M,,0000*59
$GPGSA,A,3,26,12,17,15,,,,,,,,,4.2,3.4,2.4*30
$GPRMC,051352.000,A,5333.2060,N,01000.6783,E,0.92,179.19,160912,,,A*66
$GPGGA,051353.000,5333.2057,N,01000.6782,E,1,03,5.3,6.6,M,46.0,M,,0000*56
$GPGSA,A,2,12,17,15,,,,,,,,,,5.4,5.3,1.0*34
$GPGSV,3,1,12,15,68,211,23,26,39,150,21,17,34,105,28,12,10,220,28*7F
$GPGSV,3,2,12,27,68,284,,09,52,279,14,28,39,056,23,18,28,287,*75
$GPGSV,3,3,12,22,13,325,,08,05,087,16,11,04,026,,01,02,041,*7F
$GPRMC,051356.000,A,5333.2047,N,01000.6776,E,0.82,189.76,160912,,,A*6A
$GPGGA,051357.000,5333.2042,N,01000.6773,E,1,04,3.4,11.5,M,46.0,M,,0000*6B
$GPGSA,A,3,26,12,17,15,,,,,,,,,4.2,3.4,2.4*30
$GPRMC,051359.000,A,5333.2031,N,01000.6770,E,0.94,187.53,160912,,,A*6C
$GPGGA,051400.000,5333.2022,N,01000.6770,E,1,04,3.4,16.8,M,46.0,M,,0000*61
$GPGSA,A,3,26,12,17,15,,,,,,,,,4.2,3.4,2.4*30
$GPRMC,051400.000,A,5333.2022,N,01000.6770,E,1.55,175.24,160912,,,A*64
$GPGGA,051401.000,5333.2013,N,01000.6771,E,1,04,3.4,18.4,M,46.0,M,,0000*61
$GPGSA,A,3,26,12,17,15,,,,,,,,,4.2,3.4,2.4*30
$GPRMC,051401.000,A,5333.2013,N,01000.6771,E,1.27,180.17,160912,,,A*69
$GPGGA,051402.000,5333.2001,N,01000.6774,E,1,04,3.4,19.8,M,46.0,M,,0000*69
$GPGSA,A,3,26,12,17,15,,,,,,,,,4.2,3.4,2.4*30
$GPRMC,051402.000,A,5333.2001,N,01000.6774,E,2.17,170.10,160912,,,A*64
$GPGGA,051403.000,5333.1990,N,01000.6777,E,1,04,3.4,21.2,M,46.0,M,,0000*68
$GPGSA,A,3,26,12,17,15,,,,,,,,,4.2,3.4,2.4*30
$GPGSV,3,1,12,15,68,211,21,26,39,150,21,17,34,105,27,12,10,220,28*72
$GPGSV,3,2,12,27,68,284,,09,52,279,,28,39,056,23,18,28,287,*70
$GPGSV,3,3,12,22,13,325,,08,05,087,15,11,04,026,,01,02,041,*7C
$GPRMC,051403.000,A,5333.1990,N,01000.6777,E,1.85,174.96,160912,,,A*66
$GPGGA,051404.000,5333.1984,N,01000.6779,E,1,04,3.4,22.1,M,46.0,M,,0000*64
$GPGSA,A,3,26,12,17,15,,,,,,,,,4.2,3.4,2.4*30
$GPRMC,051408.000,A,5333.1967,N,01000.6789,E,0.99,166.65,160912,,,A*67
$GPGGA,051409.000,5333.1960,N,01000.6794,E,1,04,3.4,24.0,M,46.0,M,,0000*67
$GPGSA,A,3,26,12,17,15,,,,,,,,,4.2,3.4,2.4*30
$GPRMC,051409.000,A,5333.1960,N,01000.6794,E,1.48,163.45,160912,,,A*67
$GPGGA,051410.000,5333.1954,N,01000.6798,E,1,04,3.4,24.0,M,46.0,M,,0000*64
$GPGSA,A,3,26,12,17,15,,,,,,,,,4.2,3.4,2.4*30
$GPRMC,051410.000,A,5333.1954,N,01000.6798,E,1.04,158.61,160912,,,A*62
$GPGGA,051411.000,5333.1951,N,01000.6802,E,1,04,3.4,23.8,M,46.0,M,,0000*63
$GPGSA,A,3,26,12,17,15,,,,,,,,,4.2,3.4,2.4*30
$GPRMC,051414.000,A,5333.1938,N,01000.6820,E,1.48,147.99,160912,,,A*61
$GPGGA,051415.000,5333.1931,N,01000.6827,E,1,04,3.4,21.8,M,46.0,M,,0000*64
$GPGSA,A,3,26,12,17,15,,,,,,,,,4.2,3.4,2.4*30
$GPRMC,051415.000,A,5333.1931,N,01000.6827,E,1.49,151.58,160912,,,A*65
$GPGGA,051416.000,5333.1923,N,01000.6835,E,1,04,3.4,21.4,M,46.0,M,,0000*6B
$GPGSA,A,3,26,12,17,15,,,,,,,,,4.2,3.4,2.4*30
$GPRMC,051416.000,A,5333.1923,N,01000.6835,E,1.54,152.89,160912,,,A*65
$GPGGA,051417.000,5333.1914,N,01000.6842,E,1,04,3.4,21.1,M,46.0,M,,0000*6B
$GPGSA,A,3,26,12,17,15,,,,,,,,,4.2,3.4,2.4*30
$GPRMC,051417.000,A,5333.1914,N,01000.6842,E,1.69,161.00,160912,,,A*6F
$GPGGA,051418.000,5333.1907,N,01000.6848,E,1,04,3.4,20.8,M,46.0,M,,0000*64
$GPGSA,A,3,26,12,17,15,,,,,,,,,4.2,3.4,2.4*30
$GPGSV,3,1,12,27,69,284,,15,68,210,22,09,52,279,,26,39,150,24*7B
$GPGSV,3,2,12,28,38,056,24,17,34,105,24,18,28,286,,22,13,325,22*75
$GPGSV,3,3,12,12,10,220,29,08,04,087,14,11,04,025,,01,02,040,16*76
$GPRMC,051418.000,A,5333.1907,N,01000.6848,E,1.24,157.12,160912,,,A*67
$GPGGA,051419.000,5333.1903,N,01000.6853,E,1,04,3.4,20.4,M,46.0,M,,0000*67
$GPGSA,A,3,26,12,17,15,,,,,,,,,4.2,3.4,2.4*30
$GPRMC,051421.000,A,5333.1903,N,01000.6861,E,1.05,356.71,160912,,,A*67
$GPGGA,051422.000,5333.1902,N,01000.6863,E,1,04,3.4,19.5,M,46.0,M,,0000*66
$GPGSA,A,3,26,12,17,15,,,,,,,,,4.2,3.4,2.4*30
$GPRMC,051427.000,A,5333.1891,N,01000.6881,E,1.02,154.73,160912,,,A*60
$GPGGA,051428.000,5333.1885,N,01000.6883,E,1,04,3.4,18.2,M,46.0,M,,0000*6A
$GPGSA,A,3,26,12,17,15,,,,,,,,,4.2,3.4,2.4*30
$GPGSV,3,1,12,27,69,284,,15,68,210,22,09,52,279,,26,39,150,25*7A
$GPGSV,3,2,12,28,38,056,24,17,34,105,24,18,28,286,,22,13,325,23*74
$GPGSV,3,3,12,12,10,220,29,08,04,087,13,11,04,025,,01,02,040,15*72
$GPRMC,051428.000,A,5333.1885,N,01000.6883,E,0.91,169.38,160912,,,A*62
$GPGGA,051429.000,5333.1878,N,01000.6886,E,1,04,3.4,18.3,M,46.0,M,,0000*6D
$GPGSA,A,3,26,12,17,15,,,,,,,,,4.2,3.4,2.4*30
$GPRMC,051429.000,A,5333.1878,N,01000.6886,E,1.25,168.10,160912,,,A*61
$GPGGA,051430.000,5333.1869,N,01000.6889,E,1,04,3.4,18.7,M,46.0,M,,0000*6E
$GPGSA,A,3,26,12,17,15,,,,,,,,,4.2,3.4,2.4*30
$GPRMC,051430.000,A,5333.1869,N,01000.6889,E,1.60,166.98,160912,,,A*69
$GPGGA,051431.000,5333.1861,N,01000.6891,E,1,04,3.4,19.2,M,46.0,M,,0000*6A
$GPGSA,A,3,26,12,17,15,,,,,,,,,4.2,3.4,2.4*30
$GPRMC,051431.000,A,5333.1861,N,01000.6891,E,1.39,173.34,160912,,,A*67
$GPGGA,051432.000,5333.1854,N,01000.6890,E,1,04,3.4,20.1,M,46.0,M,,0000*67
$GPGSA,A,3,26,12,17,15,,,,,,,,,4.2,3.4,2.4*30
$GPRMC,051432.000,A,5333.1854,N,01000.6890,E,0.97,188.60,160912,,,A*63
$GPGGA,051433.000,5333.1847,N,01000.6889,E,1,04,3.4,21.2,M,46.0,M,,0000*6E
$GPGSA,A,3,26,12,17,15,,,,,,,,,4.2,3.4,2.4*30
$GPGSV,3,1,12,27,69,284,,15,68,210,22,09,52,279,,26,39,150,25*7A
$GPGSV,3,2,12,28,38,056,24,17,34,105,24,18,28,286,,22,13,325,24*73
$GPGSV,3,3,12,12,10,220,29,08,04,087,14,11,04,025,,01,02,040,14*74
$GPRMC,051435.000,A,5333.1832,N,01000.6888,E,1.20,178.10,160912,,,A*68
$GPGGA,051436.000,5333.1822,N,01000.6890,E,1,04,3.4,24.3,M,46.0,M,,0000*64
$GPGSA,A,3,26,12,17,15,,,,,,,,,4.2,3.4,2.4*30
$GPRMC,051436.000,A,5333.1822,N,01000.6890,E,1.52,170.08,160912,,,A*67
$GPGGA,051437.000,5333.1813,N,01000.6891,E,1,04,3.4,25.0,M,46.0,M,,0000*64
$GPGSA,A,3,26,12,17,15,,,,,,,,,4.2,3.4,2.4*30
$GPRMC,051437.000,A,5333.1813,N,01000.6891,E,1.32,171.94,160912,,,A*67
$GPGGA,051438.000,5333.1804,N,01000.6893,E,1,04,3.4,25.7,M,46.0,M,,0000*68
$GPGSA,A,3,26,12,17,15,,,,,,,,,4.2,3.4,2.4*30
$GPGSV,3,1,12,27,69,284,,15,68,210,23,09,52,279,,26,39,150,25*7B
$GPGSV,3,2,12,28,38,056,23,17,34,105,25,18,28,286,,22,13,325,24*75
$GPGSV,3,3,12,12,10,220,29,08,04,087,14,11,04,025,,01,02,040,15*75
$GPRMC,051438.000,A,5333.1804,N,01000.6893,E,1.50,172.05,160912,,,A*63
$GPGGA,051439.000,5333.1796,N,01000.6894,E,1,04,3.4,26.4,M,46.0,M,,0000*6A
$GPGSA,A,3,26,12,17,15,,,,,,,,,4.2,3.4,2.4*30
$GPRMC,051439.000,A,5333.1796,N,01000.6894,E,1.27,175.71,160912,,,A*65
$GPGGA,051440.000,5333.1789,N,01000.6895,E,1,04,3.4,27.0,M,46.0,M,,0000*6E
$GPGSA,A,3,26,12,17,15,,,,,,,,,4.2,3.4,2.4*30
$GPRMC,051440.000,A,5333.1789,N,01000.6895,E,1.26,168.99,160912,,,A*6F
$GPGGA,051441.000,5333.1781,N,01000.6897,E,1,04,3.4,27.4,M,46.0,M,,0000*61
$GPGSA,A,3,26,12,17,15,,,,,,,,,4.2,3.4,2.4*30
$GPRMC,051441.000,A,5333.1781,N,01000.6897,E,1.38,160.33,160912,,,A*63
$GPGGA,051442.000,5333.1774,N,01000.6899,E,1,04,3.4,27.8,M,46.0,M,,0000*6A
$GPGSA,A,3,26,12,17,15,,,,,,,,,4.2,3.4,2.4*30
$GPRMC,051442.000,A,5333.1774,N,01000.6899,E,1.33,164.00,160912,,,A*6B
$GPGGA,051443.000,5333.1767,N,01000.6900,E,1,04,3.4,28.0,M,46.0,M,,0000*6F
$GPGSA,A,3,26,12,17,15,,,,,,,,,4.2,3.4,2.4*30
$GPGSV,3,1,12,27,69,284,,15,68,210,24,09,52,279,,26,39,150,26*7F
$GPGSV,3,2,12,28,38,056,22,17,34,105,25,18,28,286,,22,13,325,24*74
$GPGSV,3,3,12,12,10,220,27,08,04,087,,11,04,025,,01,02,040,14*7F
$GPRMC,051443.000,A,5333.1767,N,01000.6900,E,1.15,166.55,160912,,,A*6F
$GPGGA,051444.000,5333.1760,N,01000.6901,E,1,04,3.4,28.1,M,46.0,M,,0000*6F
$GPGSA,A,3,26,12,17,15,,,,,,,,,4.2,3.4,2.4*30
$GPRMC,051444.000,A,5333.1760,N,01000.6901,E,1.05,167.60,160912,,,A*68
$GPGGA,051445.000,5333.1754,N,01000.6902,E,1,04,3.4,28.2,M,46.0,M,,0000*69
$GPGSA,A,3,26,12,17,15,,,,,,,,,4.2,3.4,2.4*30
$GPRMC,051445.000,A,5333.1754,N,01000.6902,E,0.92,167.15,160912,,,A*60
$GPGGA,051446.000,5333.1748,N,01000.6904,E,1,04,3.4,28.3,M,46.0,M,,0000*60
$GPGSA,A,3,26,12,17,15,,,,,,,,,4.2,3.4,2.4*30
$GPRMC,051503.000,A,5333.1718,N,01000.6888,E,0.89,164.99,160912,,,A*65
$GPGGA,051504.000,5333.1712,N,01000.6889,E,1,04,3.4,32.8,M,46.0,M,,0000*6C
$GPGSA,A,3,26,12,17,15,,,,,,,,,4.2,3.4,2.4*30
$GPRMC,051504.000,A,5333.1712,N,01000.6889,E,1.35,164.42,160912,,,A*69
$GPGGA,051505.000,5333.1705,N,01000.6890,E,1,04,3.4,33.0,M,46.0,M,,0000*6A
$GPGSA,A,3,26,12,17,15,,,,,,,,,4.2,3.4,2.4*30
$GPRMC,051505.000,A,5333.1705,N,01000.6890,E,1.32,166.33,160912,,,A*65
$GPGGA,051506.000,5333.1702,N,01000.6890,E,1,04,3.4,33.0,M,46.0,M,,0000*6E
$GPGSA,A,3,26,12,17,15,,,,,,,,,4.2,3.4,2.4*30
$GPRMC,051511.000,A,5333.1688,N,01000.6889,E,0.86,159.23,160912,,,A*6F
$GPGGA,051512.000,5333.1683,N,01000.6890,E,1,03,4.5,33.9,M,46.0,M,,0000*6B
$GPGSA,A,2,26,12,17,,,,,,,,,,4.6,4.5,1.0*30
$GPRMC,051512.000,A,5333.1683,N,01000.6890,E,0.96,160.43,160912,,,A*62
$GPGGA,051513.000,5333.1679,N,01000.6890,E,1,03,4.5,34.1,M,46.0,M,,0000*60
$GPGSA,A,2,26,12,17,,,,,,,,,,4.6,4.5,1.0*30
$GPGSV,3,1,12,27,69,284,,15,68,210,16,09,52,279,,26,39,150,26*7E
$GPGSV,3,2,12,28,38,056,13,17,34,105,29,18,28,286,,22,13,325,20*7E
$GPGSV,3,3,12,12,10,220,26,08,04,087,,11,04,025,,01,02,040,*7B
$GPRMC,051513.000,A,5333.1679,N,01000.6890,E,0.81,159.28,160912,,,A*67
$GPGGA,051514.000,5333.1676,N,01000.6891,E,1,03,4.5,34.2,M,46.0,M,,0000*6A
$GPGSA,A,2,26,12,17,,,,,,,,,,4.6,4.5,1.0*30
$GPRMC,051530.000,A,5333.1689,N,01000.6853,E,0.85,330.12,160912,,,A*66
$GPGGA,051531.000,5333.1694,N,01000.6846,E,1,04,3.4,39.0,M,46.0,M,,0000*65
$GPGSA,A,3,26,12,17,15,,,,,,,,,4.2,3.4,2.4*30
$GPRMC,051531.000,A,5333.1694,N,01000.6846,E,1.46,328.46,160912,,,A*69
$GPGGA,051532.000,5333.1701,N,01000.6838,E,1,04,3.4,39.8,M,46.0,M,,0000*6A
$GPGSA,A,3,26,12,17,15,,,,,,,,,4.2,3.4,2.4*30
$GPRMC,051532.000,A,5333.1701,N,01000.6838,E,1.88,331.96,160912,,,A*69
$GPGGA,051533.000,5333.1709,N,01000.6830,E,1,04,3.4,40.5,M,46.0,M,,0000*68
$GPGSA,A,3,26,12,17,15,,,,,,,,,4.2,3.4,2.4*30
$GPGSV,3,1,12,27,69,284,,15,67,209,16,09,53,279,,26,38,150,28*77
$GPGSV,3,2,12,28,38,056,18,17,34,104,27,18,28,286,20,22,13,324,14*7E
$GPGSV,3,3,12,12,11,220,27,08,04,087,,11,04,025,,01,02,040,*7B
$GPRMC,051533.000,A,5333.1709,N,01000.6830,E,2.23,333.48,160912,,,A*6B
$GPGGA,051534.000,5333.1717,N,01000.6823,E,1,04,3.4,41.2,M,46.0,M,,0000*64
$GPGSA,A,3,26,12,17,15,,,,,,,,,4.2,3.4,2.4*30
$GPRMC,051534.000,A,5333.1717,N,01000.6823,E,2.31,334.87,160912,,,A*66
$GPGGA,051535.000,5333.1725,N,01000.6815,E,1,04,3.4,42.0,M,46.0,M,,0000*60
$GPGSA,A,3,26,12,17,15,,,,,,,,,4.2,3.4,2.4*30
$GPRMC,051535.000,A,5333.1725,N,01000.6815,E,2.40,331.79,160912,,,A*61
$GPGGA,051536.000,5333.1732,N,01000.6806,E,1,04,3.4,42.8,M,46.0,M,,0000*6F
$GPGSA,A,3,26,12,17,15,,,,,,,,,4.2,3.4,2.4*30
$GPRMC,051536.000,A,5333.1732,N,01000.6806,E,2.24,328.76,160912,,,A*63
$GPGGA,051537.000,5333.1739,N,01000.6801,E,1,04,3.4,43.6,M,46.0,M,,0000*6D
$GPGSA,A,3,26,12,17,15,,,,,,,,,4.2,3.4,2.4*30
$GPRMC,051537.000,A,5333.1739,N,01000.6801,E,1.89,343.24,160912,,,A*60
$GPGGA,051538.000,5333.1745,N,01000.6797,E,1,04,3.4,44.0,M,46.0,M,,0000*68
$GPGSA,A,3,26,12,17,15,,,,,,,,,4.2,3.4,2.4*30
$GPGSV,3,1,12,27,69,284,,15,67,209,22,09,53,279,,26,38,150,27*7F
$GPGSV,3,2,12,28,38,056,18,17,34,104,21,18,28,286,20,22,13,324,14*78
$GPGSV,3,3,12,12,11,220,27,08,04,087,,11,04,025,,01,02,040,*7B
$GPRMC,051538.000,A,5333.1745,N,01000.6797,E,1.33,350.92,160912,,,A*6A
$GPGGA,051539.000,5333.1749,N,01000.6796,E,1,04,3.4,44.1,M,46.0,M,,0000*65
$GPGSA,A,3,26,12,17,15,,,,,,,,,4.2,3.4,2.4*30
$GPRMC,051541.000,A,5333.1758,N,01000.6794,E,0.93,4.98,160912,,,A*68
$GPGGA,051542.000,5333.1765,N,01000.6794,E,1,04,3.4,42.8,M,46.0,M,,0000*6A
$GPGSA,A,3,26,12,17,15,,,,,,,,,4.2,3.4,2.4*30
$GPRMC,051542.000,A,5333.1765,N,01000.6794,E,1.43,7.28,160912,,,A*61
$GPGGA,051543.000,5333.1773,N,01000.6795,E,1,04,3.4,41.9,M,46.0,M,,0000*6F
$GPGSA,A,3,26,12,17,15,,,,,,,,,4.2,3.4,2.4*30
$GPGSV,3,1,12,27,69,284,,15,67,209,22,09,53,279,,26,38,150,27*7F
$GPGSV,3,2,12,28,38,056,18,17,34,104,20,18,28,286,20,22,13,324,17*7A
$GPGSV,3,3,12,12,11,220,27,08,04,087,,11,04,025,,01,02,040,*7B
$GPRMC,051543.000,A,5333.1773,N,01000.6795,E,1.49,6.32,160912,,,A*66
$GPGGA,051544.000,5333.1779,N,01000.6795,E,1,04,3.4,40.9,M,46.0,M,,0000*63
$GPGSA,A,3,26,12,17,15,,,,,,,,,4.2,3.4,2.4*30
$GPRMC,051544.000,A,5333.1779,N,01000.6795,E,1.11,3.66,160912,,,A*62
$GPGGA,051545.000,5333.1785,N,01000.6796,E,1,04,3.4,39.8,M,46.0,M,,0000*6D
$GPGSA,A,3,26,12,17,15,,,,,,,,,4.2,3.4,2.4*30
$GPRMC,051545.000,A,5333.1785,N,01000.6796,E,1.20,358.10,160912,,,A*6D
$GPGGA,051546.000,5333.1793,N,01000.6799,E,1,04,3.4,38.5,M,46.0,M,,0000*6A
$GPGSA,A,3,26,12,17,15,,,,,,,,,4.2,3.4,2.4*30
$GPRMC,051546.000,A,5333.1793,N,01000.6799,E,1.97,19.04,160912,,,A*59
$GPGGA,051547.000,5333.1806,N,01000.6800,E,1,04,3.4,37.3,M,46.0,M,,0000*6E
$GPGSA,A,3,26,12,17,15,,,,,,,,,4.2,3.4,2.4*30
$GPRMC,051547.000,A,5333.1806,N,01000.6800,E,3.03,1.40,160912,,,A*62
$GPGGA,051548.000,5333.1818,N,01000.6799,E,1,04,3.4,36.2,M,46.0,M,,0000*61
$GPGSA,A,3,26,12,17,15,,,,,,,,,4.2,3.4,2.4*30
$GPGSV,3,1,12,27,69,284,,15,67,209,22,09,53,279,,26,38,150,27*7F
$GPGSV,3,2,12,28,38,056,18,17,34,104,19,18,28,286,19,22,13,324,18*75
$GPGSV,3,3,12,12,11,220,27,08,04,087,,11,04,025,,01,02,040,*7B
$GPRMC,051548.000,A,5333.1818,N,01000.6799,E,2.90,356.35,160912,,,A*65
$GPGGA,051549.000,5333.1833,N,01000.6796,E,1,04,3.4,35.1,M,46.0,M,,0000*66
$GPGSA,A,3,26,12,17,15,,,,,,,,,4.1,3.4,2.4*33
$GPRMC,051549.000,A,5333.1833,N,01000.6796,E,3.65,353.30,160912,,,A*69
$GPGGA,051550.000,5333.1848,N,01000.6792,E,1,03,3.7,34.2,M,46.0,M,,0000*60
$GPGSA,A,2,26,12,15,,,,,,,,,,3.8,3.7,1.0*3E
$GPRMC,051550.000,A,5333.1848,N,01000.6792,E,3.44,350.30,160912,,,A*69
$GPGGA,051551.000,5333.1864,N,01000.6789,E,1,04,3.4,33.2,M,46.0,M,,0000*66
$GPGSA,A,3,26,12,17,15,,,,,,,,,4.1,3.4,2.4*33
$GPRMC,051551.000,A,5333.1864,N,01000.6789,E,3.43,351.67,160912,,,A*68
$GPGGA,051552.000,5333.1879,N,01000.6786,E,1,04,3.4,32.3,M,46.0,M,,0000*66
$GPGSA,A,3,26,12,17,15,,,,,,,,,4.1,3.4,2.4*33
$GPRMC,051552.000,A,5333.1879,N,01000.6786,E,3.54,351.19,160912,,,A*67
$GPGGA,051553.000,5333.1898,N,01000.6783,E,1,04,3.4,31.5,M,46.0,M,,0000*68
$GPGSA,A,3,26,12,17,15,,,,,,,,,4.1,3.4,2.4*33
$GPGSV,3,1,12,27,69,284,23,15,67,209,21,09,53,279,,26,38,150,27*7D
$GPGSV,3,2,12,28,38,056,17,17,34,104,18,18,28,286,18,22,13,324,20*71
$GPGSV,3,3,12,12,11,220,27,08,04,087,,11,04,025,,01,02,040,*7B
$GPRMC,051553.000,A,5333.1898,N,01000.6783,E,4.37,356.21,160912,,,A*62
$GPGGA,051554.000,5333.1916,N,01000.6781,E,1,04,3.4,30.6,M,46.0,M,,0000*68
$GPGSA,A,3,26,12,17,15,,,,,,,,,4.1,3.4,2.4*33
$GPRMC,051554.000,A,5333.1916,N,01000.6781,E,4.29,356.67,160912,,,A*6D
$GPGGA,051555.000,5333.1930,N,01000.6779,E,1,04,3.4,29.8,M,46.0,M,,0000*6C
$GPGSA,A,3,26,12,17,15,,,,,,,,,4.1,3.4,2.4*33
$GPRMC,051555.000,A,5333.1930,N,01000.6779,E,3.33,356.86,160912,,,A*6C
$GPGGA,051556.000,5333.1943,N,01000.6779,E,1,04,3.4,29.0,M,46.0,M,,0000*63
$GPGSA,A,3,26,12,17,15,,,,,,,,,4.1,3.4,2.4*33
$GPRMC,051556.000,A,5333.1943,N,01000.6779,E,2.77,5.27,160912,,,A*64
$GPGGA,051557.000,5333.1956,N,01000.6780,E,1,04,3.4,28.3,M,46.0,M,,0000*62
$GPGSA,A,3,26,12,17,15,,,,,,,,,4.1,3.4,2.4*33
$GPRMC,051557.000,A,5333.1956,N,01000.6780,E,2.91,8.46,160912,,,A*65
$GPGGA,051558.000,5333.1966,N,01000.6779,E,1,04,3.4,27.8,M,46.0,M,,0000*6C
$GPGSA,A,3,26,12,17,15,,,,,,,,,4.1,3.4,2.4*33
$GPGSV,3,1,12,27,69,284,23,15,67,209,16,09,53,279,,26,38,150,26*78
$GPGSV,3,2,12,28,38,056,16,17,34,104,18,18,28,286,16,22,13,324,21*7F
$GPGSV,3,3,12,12,11,220,27,08,04,087,,11,04,025,,01,02,040,*7B
$GPRMC,051558.000,A,5333.1966,N,01000.6779,E,2.25,4.70,160912,,,A*69
$GPGGA,051559.000,5333.1974,N,01000.6778,E,1,03,3.7,27.3,M,46.0,M,,0000*60
$GPGSA,A,2,26,12,15,,,,,,,,,,3.8,3.7,1.0*3E
$GPRMC,051559.000,A,5333.1974,N,01000.6778,E,1.53,359.24,160912,,,A*62
$GPGGA,051600.000,5333.1982,N,01000.6775,E,1,03,3.7,27.1,M,46.0,M,,0000*69
$GPGSA,A,2,26,12,15,,,,,,,,,,3.8,3.7,1.0*3E
$GPRMC,051600.000,A,5333.1982,N,01000.6775,E,1.30,345.30,160912,,,A*64
$GPGGA,051601.000,5333.1990,N,01000.6772,E,1,04,3.4,26.9,M,46.0,M,,0000*61
$GPGSA,A,3,26,12,17,15,,,,,,,,,4.1,3.4,2.4*33
$GPRMC,051601.000,A,5333.1990,N,01000.6772,E,1.38,359.79,160912,,,A*69
$GPGGA,051602.000,5333.1998,N,01000.6770,E,1,04,3.4,26.9,M,46.0,M,,0000*68
$GPGSA,A,3,26,12,17,15,,,,,,,,,4.1,3.4,2.4*33
$GPRMC,051602.000,A,5333.1998,N,01000.6770,E,1.26,354.50,160912,,,A*69
$GPGGA,051603.000,5333.2002,N,01000.6765,E,1,04,3.4,27.2,M,46.0,M,,0000*6E
$GPGSA,A,3,26,12,17,15,,,,,,,,,4.1,3.4,2.4*33
$GPGSV,3,1,12,27,69,284,23,15,67,209,16,09,53,279,,26,38,150,26*78
$GPGSV,3,2,12,28,38,056,14,17,34,104,20,18,28,286,15,22,13,324,22*76
$GPGSV,3,3,12,12,11,220,27,08,04,087,,11,04,025,,01,02,040,*7B
$GPRMC,051603.000,A,5333.2002,N,01000.6765,E,0.81,328.46,160912,,,A*65
$GPGGA,051604.000,5333.2006,N,01000.6762,E,1,04,3.4,27.7,M,46.0,M,,0000*6F
$GPGSA,A,3,26,12,17,15,,,,,,,,,4.1,3.4,2.4*33
$GPRMC,051605.000,A,5333.2010,N,01000.6760,E,0.83,13.70,160912,,,A*59
$GPGGA,051606.000,5333.2013,N,01000.6757,E,1,04,3.4,28.8,M,46.0,M,,0000*6F
$GPGSA,A,3,26,12,17,15,,,,,,,,,4.1,3.4,2.4*33
$GPRMC,051609.000,A,5333.2002,N,01000.6749,E,1.41,170.50,160912,,,A*64
$GPGGA,051610.000,5333.1994,N,01000.6749,E,1,03,4.3,32.4,M,46.0,M,,0000*62
$GPGSA,A,2,26,12,17,,,,,,,,,,4.4,4.3,1.0*34
$GPRMC,051610.000,A,5333.1994,N,01000.6749,E,1.83,164.73,160912,,,A*63
$GPGGA,051611.000,5333.1983,N,01000.6749,E,1,03,4.3,33.5,M,46.0,M,,0000*65
$GPGSA,A,2,26,12,17,,,,,,,,,,4.4,4.3,1.0*34
$GPRMC,051611.000,A,5333.1983,N,01000.6749,E,2.68,167.59,160912,,,A*69
$GPGGA,051612.000,5333.1968,N,01000.6749,E,1,03,4.3,34.6,M,46.0,M,,0000*67
$GPGSA,A,2,26,12,17,,,,,,,,,,4.4,4.3,1.0*34
$GPRMC,051612.000,A,5333.1968,N,01000.6749,E,3.27,170.57,160912,,,A*6D
$GPGGA,051613.000,5333.1952,N,01000.6749,E,1,03,4.3,35.7,M,46.0,M,,0000*6F
$GPGSA,A,2,26,12,17,,,,,,,,,,4.4,4.3,1.0*34
$GPGSV,3,1,12,27,69,284,23,15,67,209,17,09,53,279,,26,38,150,26*79
$GPGSV,3,2,12,28,38,056,,17,34,104,24,18,28,286,14,22,13,324,21*75
$GPGSV,3,3,12,12,11,220,27,08,04,087,,11,04,025,,01,02,040,*7B
$GPRMC,051613.000,A,5333.1952,N,01000.6749,E,3.34,169.90,160912,,,A*64
$GPGGA,051614.000,5333.1936,N,01000.6749,E,1,03,4.3,36.9,M,46.0,M,,0000*67
$GPGSA,A,2,26,12,17,,,,,,,,,,4.4,4.3,1.0*34
$GPRMC,051614.000,A,5333.1936,N,01000.6749,E,3.20,171.14,160912,,,A*61
$GPGGA,051615.000,5333.1922,N,01000.6748,E,1,03,4.3,38.1,M,46.0,M,,0000*64
$GPGSA,A,2,26,12,17,,,,,,,,,,4.4,4.3,1.0*34
$GPRMC,051615.000,A,5333.1922,N,01000.6748,E,2.62,170.92,160912,,,A*6C
$GPGGA,051616.000,5333.1910,N,01000.6747,E,1,03,4.3,39.2,M,46.0,M,,0000*6B
$GPGSA,A,2,26,12,17,,,,,,,,,,4.4,4.3,1.0*34
$GPRMC,051616.000,A,5333.1910,N,01000.6747,E,1.89,169.98,160912,,,A*65
$GPGGA,051617.000,5333.1900,N,01000.6746,E,1,03,4.3,40.2,M,46.0,M,,0000*64
$GPGSA,A,2,26,12,17,,,,,,,,,,4.4,4.3,1.0*34
$GPRMC,051617.000,A,5333.1900,N,01000.6746,E,1.37,171.48,160912,,,A*65
$GPGGA,051618.000,5333.1890,N,01000.6745,E,1,04,3.4,41.2,M,46.0,M,,0000*66
$GPGSA,A,3,26,12,17,15,,,,,,,,,4.1,3.4,2.4*33
$GPGSV,3,1,12,27,69,284,23,15,67,209,19,09,53,279,,26,38,150,25*74
$GPGSV,3,2,12,28,38,056,,17,34,104,25,18,28,286,14,22,13,324,15*73
$GPGSV,3,3,12,12,11,220,28,08,04,087,,11,04,025,,01,02,040,*74
$GPRMC,051618.000,A,5333.1890,N,01000.6745,E,1.14,171.36,160912,,,A*69
$GPGGA,051619.000,5333.1882,N,01000.6744,E,1,04,3.4,42.0,M,46.0,M,,0000*64
$GPGSA,A,3,26,12,17,15,,,,,,,,,4.1,3.4,2.4*33
$GPRMC,051620.000,A,5333.1873,N,01000.6744,E,1.05,168.45,160912,,,A*62
$GPGGA,051621.000,5333.1864,N,01000.6744,E,1,04,3.4,43.5,M,46.0,M,,0000*63
$GPGSA,A,3,26,12,17,15,,,,,,,,,4.1,3.4,2.4*33
$GPRMC,051621.000,A,5333.1864,N,01000.6744,E,1.03,168.86,160912,,,A*6C
$GPGGA,051622.000,5333.1857,N,01000.6744,E,1,04,3.4,44.2,M,46.0,M,,0000*60
$GPGSA,A,3,26,12,17,15,,,,,,,,,4.1,3.4,2.4*33
$GPRMC,051623.000,A,5333.1846,N,01000.6745,E,1.33,169.20,160912,,,A*61
$GPGGA,051624.000,5333.1834,N,01000.6747,E,1,04,3.4,45.6,M,46.0,M,,0000*65
$GPGSA,A,3,26,12,17,15,,,,,,,,,4.1,3.4,2.4*33
$GPRMC,051624.000,A,5333.1834,N,01000.6747,E,1.55,169.74,160912,,,A*60
$GPGGA,051625.000,5333.1821,N,01000.6750,E,1,04,3.4,46.3,M,46.0,M,,0000*60
$GPGSA,A,3,26,12,17,15,,,,,,,,,4.1,3.4,2.4*33
$GPRMC,051625.000,A,5333.1821,N,01000.6750,E,1.67,168.91,160912,,,A*68
$GPGGA,051626.000,5333.1807,N,01000.6754,E,1,04,3.4,47.0,M,46.0,M,,0000*61
$GPGSA,A,3,26,12,17,15,,,,,,,,,4.1,3.4,2.4*33
$GPRMC,051626.000,A,5333.1807,N,01000.6754,E,2.07,164.93,160912,,,A*60
$GPGGA,051627.000,5333.1794,N,01000.6758,E,1,04,3.4,47.5,M,46.0,M,,0000*6C
$GPGSA,A,3,26,12,17,15,,,,,,,,,4.1,3.4,2.4*33
$GPRMC,051627.000,A,5333.1794,N,01000.6758,E,1.79,166.86,160912,,,A*64
$GPGGA,051628.000,5333.1783,N,01000.6762,E,1,04,3.3,47.9,M,46.0,M,,0000*67
$GPGSA,A,3,26,12,17,15,,,,,,,,,4.1,3.3,2.4*34
$GPGSV,3,1,12,27,69,284,24,15,67,209,24,09,53,279,19,26,38,150,25*75
$GPGSV,3,2,12,28,38,056,,17,34,104,26,18,28,286,16,22,13,324,*76
$GPGSV,3,3,12,12,11,220,29,08,04,087,,11,04,025,,01,02,040,*75
$GPRMC,051628.000,A,5333.1783,N,01000.6762,E,1.45,166.28,160912,,,A*6F
$GPGGA,051629.000,5333.1775,N,01000.6766,E,1,04,3.3,47.7,M,46.0,M,,0000*65
$GPGSA,A,3,26,12,17,15,,,,,,,,,4.1,3.3,2.4*34
$GPRMC,051636.000,A,5333.1730,N,01000.6818,E,1.44,357.33,160912,,,A*61
$GPGGA,051637.000,5333.1730,N,01000.6823,E,1,04,3.3,34.8,M,46.0,M,,0000*6E
$GPGSA,A,3,26,12,17,15,,,,,,,,,4.1,3.3,2.4*34
$GPRMC,051637.000,A,5333.1730,N,01000.6823,E,1.72,352.41,160912,,,A*6D
$GPGGA,051638.000,5333.1723,N,01000.6831,E,1,04,3.3,33.0,M,46.0,M,,0000*6F
$GPGSA,A,3,26,12,17,15,,,,,,,,,4.1,3.3,2.4*34
$GPGSV,3,1,12,27,69,284,25,15,67,209,25,09,53,279,18,26,38,150,24*75
$GPGSV,3,2,12,28,38,056,,17,34,104,26,18,28,286,18,22,13,324,*78
$GPGSV,3,3,12,12,11,220,29,08,04,087,,11,04,025,,01,02,040,*75
$GPRMC,051643.000,A,5333.1697,N,01000.6863,E,0.90,0.66,160912,,,A*6A
$GPGGA,051644.000,5333.1695,N,01000.6865,E,1,04,3.3,24.5,M,46.0,M,,0000*6A
$GPGSA,A,3,26,12,17,15,,,,,,,,,4.1,3.3,2.4*34
$GPRMC,051644.000,A,5333.1695,N,01000.6865,E,1.10,350.85,160912,,,A*6B
$GPGGA,051645.000,5333.1694,N,01000.6868,E,1,04,3.3,23.5,M,46.0,M,,0000*60
$GPGSA,A,3,26,12,17,15,,,,,,,,,4.1,3.3,2.4*34
$GPRMC,051645.000,A,5333.1694,N,01000.6868,E,0.85,8.67,160912,,,A*69
$GPGGA,051646.000,5333.1690,N,01000.6871,E,1,04,3.3,22.9,M,46.0,M,,0000*62
$GPGSA,A,3,26,12,17,15,,,,,,,,,4.1,3.3,2.4*34
$GPRMC,051653.000,A,5333.1674,N,01000.6885,E,1.24,347.13,160912,,,A*62
$GPGGA,051654.000,5333.1679,N,01000.6884,E,1,03,3.8,17.4,M,46.0,M,,0000*6B
$GPGSA,A,2,26,12,15,,,,,,,,,,3.9,3.8,1.0*30
$GPRMC,051654.000,A,5333.1679,N,01000.6884,E,2.20,348.82,160912,,,A*69
$GPGGA,051655.000,5333.1682,N,01000.6886,E,1,03,3.8,16.7,M,46.0,M,,0000*6E
$GPGSA,A,2,26,12,15,,,,,,,,,,3.9,3.8,1.0*30
$GPRMC,051655.000,A,5333.1682,N,01000.6886,E,1.67,4.18,160912,,,A*66
$GPGGA,051656.000,5333.1684,N,01000.6888,E,1,03,3.8,16.0,M,46.0,M,,0000*62
$GPGSA,A,2,26,12,15,,,,,,,,,,3.9,3.8,1.0*30
$GPRMC,051656.000,A,5333.1684,N,01000.6888,E,1.27,0.53,160912,,,A*62
$GPGGA,051657.000,5333.1684,N,01000.6891,E,1,04,3.3,15.3,M,46.0,M,,0000*67
$GPGSA,A,3,26,12,17,15,,,,,,,,,4.1,3.3,2.4*34
$GPRMC,051657.000,A,5333.1684,N,01000.6891,E,0.87,10.07,160912,,,A*50
$GPGGA,051658.000,5333.1689,N,01000.6889,E,1,03,3.8,14.5,M,46.0,M,,0000*67
$GPGSA,A,2,26,12,15,,,,,,,,,,3.9,3.8,1.0*30
$GPGSV,3,1,12,27,70,285,22,15,67,208,26,09,54,279,15,26,37,150,23*7B
$GPGSV,3,2,12,28,37,056,,17,35,103,18,18,28,285,22,22,13,324,22*76
$GPGSV,3,3,12,12,11,220,29,11,04,025,,08,04,088,,01,03,040,19*73
$GPRMC,051658.000,A,5333.1689,N,01000.6889,E,1.96,336.83,160912,,,A*61
$GPGGA,051659.000,5333.1692,N,01000.6887,E,1,03,3.8,13.9,M,46.0,M,,0000*69
$GPGSA,A,2,26,12,15,,,,,,,,,,3.9,3.8,1.0*30
$GPRMC,051659.000,A,5333.1692,N,01000.6887,E,1.61,337.00,160912,,,A*66
$GPGGA,051700.000,5333.1693,N,01000.6890,E,1,03,3.8,13.3,M,46.0,M,,0000*69
$GPGSA,A,2,26,12,15,,,,,,,,,,3.9,3.8,1.0*30
$GPRMC,051700.000,A,5333.1693,N,01000.6890,E,0.94,11.07,160912,,,A*57
$GPGGA,051701.000,5333.1691,N,01000.6896,E,1,03,3.8,12.8,M,46.0,M,,0000*66
$GPGSA,A,2,26,12,15,,,,,,,,,,3.9,3.8,1.0*30
$GPRMC,051701.000,A,5333.1691,N,01000.6896,E,0.91,88.19,160912,,,A*58
$GPGGA,051702.000,5333.1692,N,01000.6900,E,1,04,3.3,12.0,M,46.0,M,,0000*6C
$GPGSA,A,3,26,12,17,15,,,,,,,,,4.1,3.3,2.4*34
$GPRMC,051702.000,A,5333.1692,N,01000.6900,E,0.81,32.06,160912,,,A*58
$GPGGA,051703.000,5333.1694,N,01000.6901,E,1,03,3.8,11.4,M,46.0,M,,0000*61
$GPGSA,A,2,26,12,15,,,,,,,,,,3.9,3.8,1.0*30
$GPGSV,3,1,12,27,70,285,20,15,67,208,26,09,54,279,15,26,37,150,23*79
$GPGSV,3,2,12,28,37,056,15,17,35,103,17,18,28,285,22,22,13,324,22*7D
$GPGSV,3,3,12,12,11,220,30,11,04,025,,08,04,088,,01,03,040,19*7B
$GPRMC,051703.000,A,5333.1694,N,01000.6901,E,0.97,344.01,160912,,,A*6C
$GPGGA,051704.000,5333.1697,N,01000.6902,E,1,03,3.8,10.8,M,46.0,M,,0000*6B
$GPGSA,A,2,26,12,15,,,,,,,,,,3.9,3.8,1.0*30
$GPRMC,051704.000,A,5333.1697,N,01000.6902,E,1.12,356.96,160912,,,A*6A
$GPGGA,051705.000,5333.1699,N,01000.6906,E,1,03,3.8,10.3,M,46.0,M,,0000*6B
$GPGSA,A,2,26,12,15,,,,,,,,,,3.9,3.8,1.0*30
$GPRMC,051706.000,A,5333.1701,N,01000.6909,E,0.97,43.52,160912,,,A*5E
$GPGGA,051707.000,5333.1705,N,01000.6911,E,1,03,3.8,9.3,M,46.0,M,,0000*53
$GPGSA,A,2,26,12,15,,,,,,,,,,3.9,3.8,1.0*30
$GPRMC,051707.000,A,5333.1705,N,01000.6911,E,1.25,17.43,160912,,,A*5B
$GPGGA,051708.000,5333.1714,N,01000.6913,E,1,04,3.3,8.5,M,46.0,M,,0000*55
$GPGSA,A,3,26,12,17,15,,,,,,,,,4.1,3.3,2.4*34
$GPGSV,3,1,12,27,70,285,19,15,67,208,26,09,54,279,16,26,37,150,24*77
$GPGSV,3,2,12,28,37,056,15,17,35,103,18,18,28,285,23,22,13,324,22*73
$GPGSV,3,3,12,12,11,220,30,11,04,025,,08,04,088,,01,03,040,19*7B
$GPRMC,051708.000,A,5333.1714,N,01000.6913,E,2.16,2.53,160912,,,A*60
$GPGGA,051709.000,5333.1724,N,01000.6916,E,1,04,3.3,7.5,M,46.0,M,,0000*5D
$GPGSA,A,3,26,12,17,15,,,,,,,,,4.1,3.3,2.4*34
$GPRMC,051709.000,A,5333.1724,N,01000.6916,E,2.46,8.56,160912,,,A*6D
$GPGGA,051710.000,5333.1731,N,01000.6919,E,1,04,3.3,6.5,M,46.0,M,,0000*5F
$GPGSA,A,3,26,12,17,15,,,,,,,,,4.1,3.3,2.4*34
$GPRMC,051710.000,A,5333.1731,N,01000.6919,E,1.77,10.69,160912,,,A*5A
$GPGGA,051711.000,5333.1738,N,01000.6920,E,1,04,3.3,5.5,M,46.0,M,,0000*5E
$GPGSA,A,3,26,12,17,15,,,,,,,,,4.1,3.3,2.4*34
$GPRMC,051711.000,A,5333.1738,N,01000.6920,E,1.61,0.72,160912,,,A*64
$GPGGA,051712.000,5333.1746,N,01000.6919,E,1,04,3.3,4.7,M,46.0,M,,0000*5D
$GPGSA,A,3,26,12,17,15,,,,,,,,,4.1,3.3,2.4*34
$GPRMC,051712.000,A,5333.1746,N,01000.6919,E,1.67,351.51,160912,,,A*64
$GPGGA,051713.000,5333.1753,N,01000.6917,E,1,04,3.3,4.0,M,46.0,M,,0000*51
$GPGSA,A,3,26,12,17,15,,,,,,,,,4.1,3.3,2.4*34
$GPGSV,3,1,12,27,70,285,19,15,67,208,26,09,54,280,17,28,37,056,16*78
$GPGSV,3,2,12,26,37,150,24,17,35,103,19,18,28,285,23,22,14,324,22*7E
$GPGSV,3,3,12,12,11,220,30,11,04,024,,08,03,088,19,01,03,039,19*7B
$GPRMC,051713.000,A,5333.1753,N,01000.6917,E,1.75,341.54,160912,,,A*68
$GPGGA,051714.000,5333.1758,N,01000.6916,E,1,04,3.3,3.5,M,46.0,M,,0000*5E
$GPGSA,A,3,26,12,17,15,,,,,,,,,4.1,3.3,2.4*34
$GPRMC,051714.000,A,5333.1758,N,01000.6916,E,1.16,356.68,160912,,,A*69
$GPGGA,051715.000,5333.1757,N,01000.6917,E,1,04,3.3,3.3,M,46.0,M,,0000*57
$GPGSA,A,3,26,12,17,15,,,,,,,,,4.1,3.3,2.4*34
$GPRMC,051722.000,A,5333.1741,N,01000.6920,E,1.04,131.06,160912,,,A*69
$GPGGA,051723.000,5333.1737,N,01000.6924,E,1,04,3.3,5.9,M,46.0,M,,0000*58
$GPGSA,A,3,26,12,17,15,,,,,,,,,4.1,3.3,2.4*34
$GPGSV,3,1,12,27,70,285,19,15,67,207,26,09,54,280,19,28,37,056,16*79
$GPGSV,3,2,12,26,37,150,24,17,35,103,27,18,28,285,,22,14,324,20*70
$GPGSV,3,3,12,12,11,220,23,11,04,024,,08,03,088,18,01,03,039,18*79
$GPRMC,051723.000,A,5333.1737,N,01000.6924,E,1.24,123.18,160912,,,A*63
$GPGGA,051724.000,5333.1732,N,01000.6926,E,1,04,3.3,6.8,M,46.0,M,,0000*5A
$GPGSA,A,3,26,12,17,15,,,,,,,,,4.1,3.3,2.4*34
$GPRMC,051724.000,A,5333.1732,N,01000.6926,E,1.14,144.73,160912,,,A*6C
$GPGGA,051725.000,5333.1726,N,01000.6925,E,1,04,3.3,7.7,M,46.0,M,,0000*53
$GPGSA,A,3,26,12,17,15,,,,,,,,,4.1,3.3,2.4*34
$GPRMC,051725.000,A,5333.1726,N,01000.6925,E,1.18,177.41,160912,,,A*66
$GPGGA,051726.000,5333.1724,N,01000.6924,E,1,04,3.3,8.6,M,46.0,M,,0000*5D
$GPGSA,A,3,26,12,17,15,,,,,,,,,4.1,3.3,2.4*34
$GPRMC,051728.000,A,5333.1715,N,01000.6919,E,1.33,186.55,160912,,,A*66
$GPGGA,051729.000,5333.1709,N,01000.6917,E,1,04,3.3,11.5,M,46.0,M,,0000*66
$GPGSA,A,3,26,12,17,15,,,,,,,,,4.1,3.3,2.4*34
$GPRMC,051729.000,A,5333.1709,N,01000.6917,E,1.12,187.88,160912,,,A*66
$GPGGA,051730.000,5333.1704,N,01000.6915,E,1,04,3.3,12.5,M,46.0,M,,0000*62
$GPGSA,A,3,26,12,17,15,,,,,,,,,4.1,3.3,2.4*34
$GPRMC,051730.000,A,5333.1704,N,01000.6915,E,0.86,179.88,160912,,,A*6C
$GPGGA,051731.000,5333.1698,N,01000.6914,E,1,04,3.3,13.6,M,46.0,M,,0000*64
$GPGSA,A,3,26,12,17,15,,,,,,,,,4.1,3.3,2.4*34
$GPRMC,051731.000,A,5333.1698,N,01000.6914,E,1.27,170.51,160912,,,A*6F
$GPGGA,051732.000,5333.1692,N,01000.6912,E,1,04,3.3,14.8,M,46.0,M,,0000*62
$GPGSA,A,3,26,12,17,15,,,,,,,,,4.1,3.3,2.4*34
$GPRMC,051732.000,A,5333.1692,N,01000.6912,E,0.88,176.37,160912,,,A*62
$GPGGA,051733.000,5333.1687,N,01000.6910,E,1,04,3.3,16.0,M,46.0,M,,0000*6F
$GPGSA,A,3,26,12,17,15,,,,,,,,,4.1,3.3,2.4*34
$GPGSV,3,1,12,27,70,285,17,15,67,207,25,09,54,280,21,28,37,056,15*7C
$GPGSV,3,2,12,26,37,150,24,17,35,103,29,18,28,285,,22,14,324,18*75
$GPGSV,3,3,12,12,11,220,25,11,04,024,,08,03,088,16,01,03,039,18*71
$GPRMC,051733.000,A,5333.1687,N,01000.6910,E,1.09,173.38,160912,,,A*67
$GPGGA,051734.000,5333.1680,N,01000.6909,E,1,04,3.3,17.3,M,46.0,M,,0000*65
$GPGSA,A,3,26,12,17,15,,,,,,,,,4.1,3.3,2.4*34
$GPRMC,051734.000,A,5333.1680,N,01000.6909,E,1.43,172.08,160912,,,A*63
$GPGGA,051735.000,5333.1676,N,01000.6906,E,1,04,3.3,18.5,M,46.0,M,,0000*6B
$GPGSA,A,3,26,12,17,15,,,,,,,,,4.1,3.3,2.4*34
$GPRMC,051738.000,A,5333.1663,N,01000.6899,E,2.35,171.18,160912,,,A*6A
$GPGGA,051739.000,5333.1653,N,01000.6899,E,1,04,3.3,23.4,M,46.0,M,,0000*6E
$GPGSA,A,3,26,12,17,15,,,,,,,,,4.1,3.3,2.4*34
$GPRMC,051739.000,A,5333.1653,N,01000.6899,E,2.72,166.51,160912,,,A*60
$GPGGA,051740.000,5333.1644,N,01000.6900,E,1,04,3.3,24.7,M,46.0,M,,0000*63
$GPGSA,A,3,26,12,17,15,,,,,,,,,4.1,3.3,2.4*34
$GPRMC,051740.000,A,5333.1644,N,01000.6900,E,2.32,161.90,160912,,,A*67
$GPGGA,051741.000,5333.1636,N,01000.6901,E,1,04,3.3,25.9,M,46.0,M,,0000*69
$GPGSA,A,3,26,12,17,15,,,,,,,,,4.1,3.3,2.4*34
$GPRMC,051741.000,A,5333.1636,N,01000.6901,E,2.03,164.89,160912,,,A*6D
$GPGGA,051742.000,5333.1631,N,01000.6901,E,1,04,3.3,27.1,M,46.0,M,,0000*67
$GPGSA,A,3,26,12,17,15,,,,,,,,,4.1,3.3,2.4*34
$GPRMC,051742.000,A,5333.1631,N,01000.6901,E,0.93,144.81,160912,,,A*68
$GPGGA,051743.000,5333.1628,N,01000.6898,E,1,04,3.3,28.3,M,46.0,M,,0000*62
$GPGSA,A,3,26,12,17,15,,,,,,,,,4.1,3.3,2.4*34
$GPGSV,3,1,12,27,70,285,14,15,67,207,25,09,54,280,18,28,37,056,15*75
$GPGSV,3,2,12,26,37,150,19,17,35,103,30,18,28,285,,22,14,324,17*7C
$GPGSV,3,3,12,12,11,220,26,11,04,024,,08,03,088,17,01,03,039,16*7D
$GPRMC,051748.000,A,5333.1638,N,01000.6878,E,1.15,338.22,160912,,,A*6B
$GPGGA,051749.000,5333.1640,N,01000.6875,E,1,04,3.3,30.1,M,46.0,M,,0000*6E
$GPGSA,A,3,26,12,17,15,,,,,,,,,4.1,3.3,2.4*34
$GPRMC,051749.000,A,5333.1640,N,01000.6875,E,0.94,337.96,160912,,,A*60
$GPGGA,051750.000,5333.1637,N,01000.6876,E,1,04,3.3,30.2,M,46.0,M,,0000*66
$GPGSA,A,3,26,12,17,15,,,,,,,,,4.1,3.3,2.4*34
$GPRMC,051750.000,A,5333.1637,N,01000.6876,E,0.88,157.47,160912,,,A*6E
$GPGGA,051751.000,5333.1632,N,01000.6877,E,1,04,3.3,30.3,M,46.0,M,,0000*62
$GPGSA,A,3,26,12,17,15,,,,,,,,,4.1,3.3,2.4*34
$GPRMC,051751.000,A,5333.1632,N,01000.6877,E,1.33,159.75,160912,,,A*65
$GPGGA,051752.000,5333.1626,N,01000.6879,E,1,04,3.3,30.4,M,46.0,M,,0000*6D
$GPGSA,A,3,26,12,17,15,,,,,,,,,4.1,3.3,2.4*34
$GPRMC,051752.000,A,5333.1626,N,01000.6879,E,1.70,160.96,160912,,,A*6D
$GPGGA,051753.000,5333.1619,N,01000.6883,E,1,04,3.3,30.4,M,46.0,M,,0000*65
$GPGSA,A,3,26,12,17,15,,,,,,,,,4.1,3.3,2.4*34
$GPGSV,3,1,12,27,70,285,,15,67,207,24,09,54,280,18,28,37,056,14*70
$GPGSV,3,2,12,26,37,150,19,17,35,103,32,18,28,285,,22,14,324,23*79
$GPGSV,3,3,12,12,11,220,31,11,04,024,,08,03,088,16,01,03,039,14*78
$GPRMC,051753.000,A,5333.1619,N,01000.6883,E,2.26,158.48,160912,,,A*6D
$GPGGA,051754.000,5333.1611,N,01000.6887,E,1,03,6.5,30.4,M,46.0,M,,0000*6A
$GPGSA,A,2,12,17,15,,,,,,,,,,6.5,6.5,1.0*33
$GPRMC,051754.000,A,5333.1611,N,01000.6887,E,2.70,158.09,160912,,,A*60
$GPGGA,051755.000,5333.1601,N,01000.6892,E,1,03,6.5,30.4,M,46.0,M,,0000*6E
$GPGSA,A,2,12,17,15,,,,,,,,,,6.5,6.5,1.0*33
$GPRMC,051755.000,A,5333.1601,N,01000.6892,E,3.02,159.27,160912,,,A*6D
$GPGGA,051756.000,5333.1598,N,01000.6894,E,1,04,3.3,30.4,M,46.0,M,,0000*6C
$GPGSA,A,3,26,12,17,15,,,,,,,,,4.1,3.3,2.4*34
$GPRMC,051756.000,A,5333.1598,N,01000.6894,E,1.29,161.45,160912,,,A*6F
$GPGGA,051757.000,5333.1597,N,01000.6893,E,1,04,3.3,30.3,M,46.0,M,,0000*62
$GPGSA,A,3,26,12,17,15,,,,,,,,,4.1,3.3,2.4*34
$GPRMC,051800.000,A,5333.1588,N,01000.6895,E,1.46,162.27,160912,,,A*6D
$GPGGA,051801.000,5333.1576,N,01000.6901,E,1,04,3.3,31.3,M,46.0,M,,0000*6A
$GPGSA,A,3,26,12,17,15,,,,,,,,,4.1,3.3,2.4*34
$GPRMC,051801.000,A,5333.1576,N,01000.6901,E,3.26,159.92,160912,,,A*63
$GPGGA,051802.000,5333.1563,N,01000.6906,E,1,04,3.3,31.8,M,46.0,M,,0000*61
$GPGSA,A,3,26,12,17,15,,,,,,,,,4.1,3.3,2.4*34
$GPRMC,051802.000,A,5333.1563,N,01000.6906,E,3.22,162.18,160912,,,A*6D
$GPGGA,051803.000,5333.1547,N,01000.6915,E,1,04,3.3,32.4,M,46.0,M,,0000*6B
$GPGSA,A,3,26,12,17,15,,,,,,,,,4.1,3.3,2.4*34
$GPGSV,3,1,12,27,70,285,,15,67,207,25,09,54,280,15,28,37,056,*79
$GPGSV,3,2,12,26,37,150,18,17,35,103,32,18,28,285,,22,14,324,22*79
$GPGSV,3,3,12,12,11,220,30,11,04,024,,08,03,088,14,01,03,039,*7E
$GPRMC,051803.000,A,5333.1547,N,01000.6915,E,4.41,160.81,160912,,,A*68
$GPGGA,051804.000,5333.1529,N,01000.6925,E,1,04,3.3,32.9,M,46.0,M,,0000*6A
$GPGSA,A,3,26,12,17,15,,,,,,,,,4.1,3.3,2.4*34
$GPRMC,051804.000,A,5333.1529,N,01000.6925,E,4.92,160.34,160912,,,A*64
$GPGGA,051805.000,5333.1513,N,01000.6933,E,1,04,3.3,33.4,M,46.0,M,,0000*69
$GPGSA,A,3,26,12,17,15,,,,,,,,,4.1,3.3,2.4*34
$GPRMC,051805.000,A,5333.1513,N,01000.6933,E,4.10,161.80,160912,,,A*6F
$GPGGA,051806.000,5333.1503,N,01000.6937,E,1,04,3.3,33.9,M,46.0,M,,0000*62
$GPGSA,A,3,26,12,17,15,,,,,,,,,4.1,3.3,2.4*34
$GPRMC,051806.000,A,5333.1503,N,01000.6937,E,2.45,163.75,160912,,,A*67
$GPGGA,051807.000,5333.1495,N,01000.6941,E,1,03,6.5,34.4,M,46.0,M,,0000*62
$GPGSA,A,2,12,17,15,,,,,,,,,,6.6,6.5,1.0*30
$GPRMC,051807.000,A,5333.1495,N,01000.6941,E,1.72,164.04,160912,,,A*6F
$GPGGA,051808.000,5333.1490,N,01000.6943,E,1,03,6.5,34.7,M,46.0,M,,0000*69
$GPGSA,A,2,12,17,15,,,,,,,,,,6.6,6.5,1.0*30
$GPGSV,3,1,12,27,70,285,,15,67,207,25,09,54,280,17,28,37,056,*7B
$GPGSV,3,2,12,26,37,150,18,17,35,103,31,18,28,285,,22,14,324,21*79
$GPGSV,3,3,12,12,11,220,31,11,04,024,,08,03,088,12,01,03,039,*79
$GPRMC,051808.000,A,5333.1490,N,01000.6943,E,0.86,165.27,160912,,,A*6D
$GPGGA,051809.000,5333.1490,N,01000.6942,E,1,04,3.3,34.8,M,46.0,M,,0000*62
$GPGSA,A,3,26,12,17,15,,,,,,,,,4.1,3.3,2.4*34
$GPRMC,051811.000,A,5333.1495,N,01000.6938,E,0.86,340.95,160912,,,A*60
$GPGGA,051812.000,5333.1498,N,01000.6935,E,1,04,3.3,35.3,M,46.0,M,,0000*6A
$GPGSA,A,3,26,12,17,15,,,,,,,,,4.1,3.3,2.4*34
$GPRMC,051816.000,A,5333.1510,N,01000.6924,E,1.09,335.75,160912,,,A*6C
$GPGGA,051817.000,5333.1513,N,01000.6921,E,1,04,3.3,36.3,M,46.0,M,,0000*6B
$GPGSA,A,3,26,12,17,15,,,,,,,,,4.1,3.3,2.4*34
$GPRMC,051820.000,A,5333.1525,N,01000.6912,E,1.86,340.30,160912,,,A*6E
$GPGGA,051821.000,5333.1532,N,01000.6907,E,1,04,3.3,36.6,M,46.0,M,,0000*6C
$GPGSA,A,3,26,12,17,15,,,,,,,,,4.1,3.3,2.4*34
$GPRMC,051821.000,A,5333.1532,N,01000.6907,E,2.32,339.43,160912,,,A*6B
$GPGGA,051822.000,5333.1539,N,01000.6903,E,1,04,3.3,36.5,M,46.0,M,,0000*63
$GPGSA,A,3,26,12,17,15,,,,,,,,,4.1,3.3,2.4*34
$GPRMC,051822.000,A,5333.1539,N,01000.6903,E,2.09,342.08,160912,,,A*6C
$GPGGA,051823.000,5333.1542,N,01000.6901,E,1,04,3.3,36.3,M,46.0,M,,0000*6A
$GPGSA,A,3,26,12,17,15,,,,,,,,,4.1,3.3,2.4*34
$GPGSV,3,1,12,27,70,285,,15,66,207,25,09,54,280,19,28,37,056,20*76
$GPGSV,3,2,12,26,37,150,18,17,35,103,30,18,28,284,,22,14,323,17*7B
$GPGSV,3,3,12,12,12,220,31,11,04,024,,08,03,088,,01,03,039,*79
$GPRMC,051823.000,A,5333.1542,N,01000.6901,E,0.91,346.61,160912,,,A*6B
$GPGGA,051824.000,5333.1543,N,01000.6901,E,1,04,3.3,36.1,M,46.0,M,,0000*6E
$GPGSA,A,3,26,12,17,15,,,,,,,,,4.1,3.3,2.4*34
$GPRMC,051825.000,A,5333.1538,N,01000.6905,E,1.53,153.95,160912,,,A*66
$GPGGA,051826.000,5333.1538,N,01000.6905,E,1,04,3.3,35.6,M,46.0,M,,0000*60
$GPGSA,A,3,26,12,17,15,,,,,,,,,4.1,3.3,2.4*34
$GPRMC,051828.000,A,5333.1534,N,01000.6910,E,1.29,152.98,160912,,,A*62
$GPGGA,051829.000,5333.1535,N,01000.6911,E,1,04,3.3,34.6,M,46.0,M,,0000*66
$GPGSA,A,3,26,12,17,15,,,,,,,,,4.1,3.3,2.4*34
$GPRMC,051834.000,A,5333.1547,N,01000.6907,E,1.12,344.69,160912,,,A*6E
$GPGGA,051835.000,5333.1549,N,01000.6906,E,1,03,6.7,32.6,M,46.0,M,,0000*66
$GPGSA,A,2,12,17,15,,,,,,,,,,6.8,6.7,1.0*3C
$GPRMC,051838.000,A,5333.1560,N,01000.6901,E,1.08,342.28,160912,,,A*69
$GPGGA,051839.000,5333.1566,N,01000.6897,E,1,03,6.7,31.6,M,46.0,M,,0000*6D
$GPGSA,A,2,12,17,15,,,,,,,,,,6.8,6.7,1.0*3C
$GPRMC,051839.000,A,5333.1566,N,01000.6897,E,1.82,339.77,160912,,,A*64
$GPGGA,051840.000,5333.1574,N,01000.6892,E,1,03,6.7,31.3,M,46.0,M,,0000*60
$GPGSA,A,2,12,17,15,,,,,,,,,,6.8,6.7,1.0*3C
$GPRMC,051840.000,A,5333.1574,N,01000.6892,E,2.46,339.00,160912,,,A*67
$GPGGA,051841.000,5333.1583,N,01000.6886,E,1,03,6.7,31.0,M,46.0,M,,0000*6F
$GPGSA,A,2,12,17,15,,,,,,,,,,6.8,6.7,1.0*3C
$GPRMC,051841.000,A,5333.1583,N,01000.6886,E,3.22,339.18,160912,,,A*61
$GPGGA,051842.000,5333.1592,N,01000.6879,E,1,03,6.8,30.8,M,46.0,M,,0000*6A
$GPGSA,A,2,12,17,15,,,,,,,,,,6.8,6.8,1.0*33
$GPRMC,051842.000,A,5333.1592,N,01000.6879,E,3.08,338.61,160912,,,A*65
$GPGGA,051843.000,5333.1599,N,01000.6875,E,1,03,6.8,30.4,M,46.0,M,,0000*60
$GPGSA,A,2,12,17,15,,,,,,,,,,6.8,6.8,1.0*33
$GPGSV,3,1,12,27,70,285,,15,66,207,25,09,54,280,22,28,37,056,19*74
$GPGSV,3,2,12,26,37,150,16,17,35,103,27,18,28,284,,22,14,323,13*77
$GPGSV,3,3,12,12,12,220,32,11,04,024,17,08,03,088,,01,03,039,*7C
$GPRMC,051843.000,A,5333.1599,N,01000.6875,E,2.35,339.10,160912,,,A*6B
$GPGGA,051844.000,5333.1605,N,01000.6873,E,1,03,6.8,29.9,M,46.0,M,,0000*62
$GPGSA,A,2,12,17,15,,,,,,,,,,6.8,6.8,1.0*33
$GPRMC,051844.000,A,5333.1605,N,01000.6873,E,1.77,348.70,160912,,,A*69
$GPGGA,051845.000,5333.1609,N,01000.6873,E,1,03,6.8,29.4,M,46.0,M,,0000*62
$GPGSA,A,2,12,17,15,,,,,,,,,,6.8,6.8,1.0*33
$GPRMC,051845.000,A,5333.1609,N,01000.6873,E,1.35,1.71,160912,,,A*6D
$GPGGA,051846.000,5333.1611,N,01000.6874,E,1,03,6.8,29.0,M,46.0,M,,0000*6B
$GPGSA,A,2,12,17,15,,,,,,,,,,6.8,6.8,1.0*33
$GPRMC,051853.000,A,5333.1628,N,01000.6872,E,1.63,346.98,160912,,,A*6C
$GPGGA,051854.000,5333.1636,N,01000.6869,E,1,04,3.3,24.3,M,46.0,M,,0000*66
$GPGSA,A,3,26,12,17,15,,,,,,,,,4.1,3.3,2.4*34
$GPRMC,051854.000,A,5333.1636,N,01000.6869,E,1.44,349.53,160912,,,A*63
$GPGGA,051855.000,5333.1645,N,01000.6865,E,1,03,6.8,23.5,M,46.0,M,,0000*67
$GPGSA,A,2,12,17,15,,,,,,,,,,6.9,6.8,1.0*32
$GPRMC,051855.000,A,5333.1645,N,01000.6865,E,1.73,345.36,160912,,,A*61
$GPGGA,051856.000,5333.1655,N,01000.6861,E,1,04,3.3,22.6,M,46.0,M,,0000*6A
$GPGSA,A,3,26,12,17,15,,,,,,,,,4.1,3.3,2.4*34
$GPRMC,051856.000,A,5333.1655,N,01000.6861,E,1.91,348.54,160912,,,A*62
$GPGGA,051857.000,5333.1664,N,01000.6858,E,1,04,3.3,21.7,M,46.0,M,,0000*61
$GPGSA,A,3,26,12,17,15,,,,,,,,,4.1,3.3,2.5*35
$GPRMC,051857.000,A,5333.1664,N,01000.6858,E,1.56,351.78,160912,,,A*66
$GPGGA,051858.000,5333.1671,N,01000.6855,E,1,04,3.3,20.9,M,46.0,M,,0000*68
$GPGSA,A,3,26,12,17,15,,,,,,,,,4.1,3.3,2.5*35
$GPGSV,3,1,12,27,70,286,,15,66,206,26,09,54,280,19,28,37,056,17*73
$GPGSV,3,2,12,26,36,150,19,17,35,102,27,18,27,284,,22,14,323,21*76
$GPGSV,3,3,12,12,12,220,31,11,04,024,17,01,03,039,,08,03,088,*7F
$GPRMC,051858.000,A,5333.1671,N,01000.6855,E,1.03,352.87,160912,,,A*63
$GPGGA,051859.000,5333.1676,N,01000.6853,E,1,04,3.3,20.2,M,46.0,M,,0000*63
$GPGSA,A,3,26,12,17,15,,,,,,,,,4.1,3.3,2.5*35
$GPRMC,051859.000,A,5333.1676,N,01000.6853,E,0.97,348.21,160912,,,A*68
$GPGGA,051900.000,5333.1679,N,01000.6851,E,1,04,3.3,19.6,M,46.0,M,,0000*6D
$GPGSA,A,3,26,12,17,15,,,,,,,,,4.1,3.3,2.5*35
$GPRMC,051900.000,A,5333.1679,N,01000.6851,E,0.81,345.88,160912,,,A*61
$GPGGA,051901.000,5333.1685,N,01000.6848,E,1,04,3.3,19.0,M,46.0,M,,0000*61
$GPGSA,A,3,26,12,17,15,,,,,,,,,4.1,3.3,2.5*35
$GPRMC,051901.000,A,5333.1685,N,01000.6848,E,1.55,346.09,160912,,,A*69
$GPGGA,051902.000,5333.1689,N,01000.6846,E,1,04,3.3,18.5,M,46.0,M,,0000*64
$GPGSA,A,3,26,12,17,15,,,,,,,,,4.1,3.3,2.5*35
$GPRMC,051902.000,A,5333.1689,N,01000.6846,E,1.02,350.65,160912,,,A*67
$GPGGA,051903.000,5333.1689,N,01000.6847,E,1,04,3.3,18.1,M,46.0,M,,0000*60
$GPGSA,A,3,26,12,17,15,,,,,,,,,4.1,3.3,2.5*35
$GPGSV,3,1,12,27,70,286,,15,66,206,26,09,54,280,19,28,37,056,17*73
$GPGSV,3,2,12,26,36,150,20,17,35,102,27,18,27,284,,22,14,323,22*7F
$GPGSV,3,3,12,12,12,220,31,11,04,024,15,01,03,039,,08,03,088,*7D
$GPRMC,051906.000,A,5333.1678,N,01000.6853,E,1.75,155.42,160912,,,A*6B
$GPGGA,051907.000,5333.1675,N,01000.6855,E,1,04,3.3,17.5,M,46.0,M,,0000*6F
$GPGSA,A,3,26,12,17,15,,,,,,,,,4.1,3.3,2.5*35
$GPRMC,051908.000,A,5333.1671,N,01000.6858,E,1.07,152.56,160912,,,A*60
$GPGGA,051909.000,5333.1666,N,01000.6861,E,1,04,3.3,17.2,M,46.0,M,,0000*63
$GPGSA,A,3,26,12,17,15,,,,,,,,,4.1,3.3,2.5*35
$GPRMC,051909.000,A,5333.1666,N,01000.6861,E,1.03,153.77,160912,,,A*6B
$GPGGA,051910.000,5333.1661,N,01000.6864,E,1,04,3.3,17.1,M,46.0,M,,0000*6A
$GPGSA,A,3,26,12,17,15,,,,,,,,,4.1,3.3,2.5*35
$GPRMC,051910.000,A,5333.1661,N,01000.6864,E,1.40,154.62,160912,,,A*65
$GPGGA,051911.000,5333.1656,N,01000.6867,E,1,04,3.3,17.0,M,46.0,M,,0000*6D
$GPGSA,A,3,26,12,17,15,,,,,,,,,4.1,3.3,2.5*35
$GPRMC,051911.000,A,5333.1656,N,01000.6867,E,0.99,156.53,160912,,,A*66
$GPGGA,051912.000,5333.1651,N,01000.6870,E,1,04,3.3,17.1,M,46.0,M,,0000*6E
$GPGSA,A,3,26,12,17,15,,,,,,,,,4.1,3.3,2.5*35
$GPRMC,051912.000,A,5333.1651,N,01000.6870,E,1.40,155.83,160912,,,A*6F
$GPGGA,051913.000,5333.1649,N,01000.6870,E,1,04,3.3,17.2,M,46.0,M,,0000*65
$GPGSA,A,3,26,12,17,15,,,,,,,,,4.1,3.3,2.5*35
$GPGSV,3,1,12,27,70,286,,15,66,206,25,09,54,280,17,28,37,056,19*70
$GPGSV,3,2,12,26,36,150,21,17,35,102,27,18,27,284,,22,14,323,23*7F
$GPGSV,3,3,12,12,12,220,30,11,04,024,,01,03,039,,08,03,088,*78
$GPRMC,051915.000,A,5333.1652,N,01000.6868,E,1.17,341.65,160912,,,A*6F
$GPGGA,051916.000,5333.1656,N,01000.6865,E,1,04,3.3,17.1,M,46.0,M,,0000*69
$GPGSA,A,3,26,12,17,15,,,,,,,,,4.1,3.3,2.5*35
$GPRMC,051916.000,A,5333.1656,N,01000.6865,E,1.17,341.88,160912,,,A*66
$GPGGA,051917.000,5333.1657,N,01000.6865,E,1,04,3.3,17.0,M,46.0,M,,0000*68
$GPGSA,A,3,26,12,17,15,,,,,,,,,4.1,3.3,2.5*35
$GPRMC,051932.000,A,5333.1662,N,01000.6872,E,1.02,149.79,160912,,,A*61
$GPGGA,051933.000,5333.1658,N,01000.6874,E,1,04,3.2,12.6,M,46.0,M,,0000*63
$GPGSA,A,3,26,12,17,15,,,,,,,,,4.1,3.2,2.5*34
$GPGSV,3,1,12,27,71,286,,15,66,206,24,09,55,280,,28,36,056,19*76
$GPGSV,3,2,12,26,36,150,23,17,35,102,30,18,27,284,22,22,14,323,22*7A
$GPGSV,3,3,12,12,12,220,30,11,04,024,,01,03,039,,08,03,088,*78
$GPRMC,051933.000,A,5333.1658,N,01000.6874,E,0.93,156.86,160912,,,A*68
$GPGGA,051934.000,5333.1655,N,01000.6875,E,1,04,3.2,12.8,M,46.0,M,,0000*66
$GPGSA,A,3,26,12,17,15,,,,,,,,,4.1,3.2,2.5*34
$GPRMC,051943.000,A,5333.1647,N,01000.6870,E,1.35,154.93,160912,,,A*6E
$GPGGA,051944.000,5333.1641,N,01000.6873,E,1,04,3.2,16.4,M,46.0,M,,0000*6A
$GPGSA,A,3,26,12,17,15,,,,,,,,,4.1,3.2,2.5*34
$GPRMC,051944.000,A,5333.1641,N,01000.6873,E,1.59,159.79,160912,,,A*6F
$GPGGA,051945.000,5333.1633,N,01000.6877,E,1,04,3.2,16.5,M,46.0,M,,0000*6B
$GPGSA,A,3,26,12,17,15,,,,,,,,,4.1,3.2,2.5*34
$GPRMC,051945.000,A,5333.1633,N,01000.6877,E,1.99,160.56,160912,,,A*64
$GPGGA,051946.000,5333.1627,N,01000.6880,E,1,04,3.2,16.5,M,46.0,M,,0000*65
$GPGSA,A,3,26,12,17,15,,,,,,,,,4.1,3.2,2.5*34
$GPRMC,051946.000,A,5333.1627,N,01000.6880,E,1.37,160.30,160912,,,A*6E
$GPGGA,051947.000,5333.1625,N,01000.6882,E,1,04,3.2,16.3,M,46.0,M,,0000*62
$GPGSA,A,3,26,12,17,15,,,,,,,,,4.1,3.2,2.5*34
$GPRMC,051948.000,A,5333.1628,N,01000.6880,E,1.00,341.18,160912,,,A*60
$GPGGA,051949.000,5333.1630,N,01000.6879,E,1,04,3.2,16.1,M,46.0,M,,0000*6E
$GPGSA,A,3,26,12,17,15,,,,,,,,,4.1,3.2,2.5*34
$GPRMC,051951.000,A,5333.1626,N,01000.6883,E,1.14,151.95,160912,,,A*66
$GPGGA,051952.000,5333.1620,N,01000.6887,E,1,04,3.2,15.3,M,46.0,M,,0000*65
$GPGSA,A,3,26,12,17,15,,,,,,,,,4.1,3.2,2.5*34
$GPRMC,051952.000,A,5333.1620,N,01000.6887,E,1.87,155.49,160912,,,A*68
$GPGGA,051953.000,5333.1612,N,01000.6893,E,1,04,3.2,14.9,M,46.0,M,,0000*6B
$GPGSA,A,3,26,12,17,15,,,,,,,,,4.1,3.2,2.5*34
$GPGSV,3,1,12,27,71,286,,15,66,205,22,09,55,280,,28,36,056,18*72
$GPGSV,3,2,12,26,36,150,22,17,36,102,29,18,27,284,21,22,14,323,23*72
$GPGSV,3,3,12,12,12,220,29,11,04,023,,01,03,039,,08,02,088,*76
$GPRMC,051953.000,A,5333.1612,N,01000.6893,E,3.01,155.17,160912,,,A*6A
$GPGGA,051954.000,5333.1603,N,01000.6900,E,1,04,3.2,14.4,M,46.0,M,,0000*6A
$GPGSA,A,3,26,12,17,15,,,,,,,,,4.1,3.2,2.5*34
$GPRMC,051954.000,A,5333.1603,N,01000.6900,E,3.10,154.80,160912,,,A*69
$GPGGA,051955.000,5333.1594,N,01000.6906,E,1,04,3.2,13.9,M,46.0,M,,0000*6A
$GPGSA,A,3,26,12,17,15,,,,,,,,,4.1,3.2,2.5*34
$GPRMC,051955.000,A,5333.1594,N,01000.6906,E,2.96,156.11,160912,,,A*66
$GPGGA,051956.000,5333.1584,N,01000.6913,E,1,04,3.2,13.5,M,46.0,M,,0000*60
$GPGSA,A,3,26,12,17,15,,,,,,,,,4.1,3.2,2.5*34
$GPRMC,051956.000,A,5333.1584,N,01000.6913,E,3.29,157.21,160912,,,A*67
$GPGGA,051957.000,5333.1573,N,01000.6921,E,1,04,3.2,13.1,M,46.0,M,,0000*6C
$GPGSA,A,3,26,12,17,15,,,,,,,,,4.1,3.2,2.5*34
$GPRMC,051957.000,A,5333.1573,N,01000.6921,E,3.28,156.90,160912,,,A*65
$GPGGA,051958.000,5333.1564,N,01000.6928,E,1,04,3.2,12.5,M,46.0,M,,0000*69
$GPGSA,A,3,26,12,17,15,,,,,,,,,4.1,3.2,2.5*34
$GPGSV,3,1,12,27,71,286,,15,66,205,22,09,55,280,,28,36,056,17*7D
$GPGSV,3,2,12,26,36,150,22,17,36,102,28,18,27,284,21,22,14,323,22*72
$GPGSV,3,3,12,12,12,220,28,11,04,023,,01,03,039,,08,02,088,*77
$GPRMC,051958.000,A,5333.1564,N,01000.6928,E,2.68,153.80,160912,,,A*64
$GPGGA,051959.000,5333.1559,N,01000.6931,E,1,04,3.2,12.0,M,46.0,M,,0000*6B
$GPGSA,A,3,26,12,17,15,,,,,,,,,4.1,3.2,2.5*34
$GPRMC,051959.000,A,5333.1559,N,01000.6931,E,1.16,157.31,160912,,,A*67
$GPGGA,052000.000,5333.1561,N,01000.6929,E,1,04,3.2,11.7,M,46.0,M,,0000*6B
$GPGSA,A,3,26,12,17,15,,,,,,,,,4.1,3.2,2.5*34
$GPRMC,052000.000,A,5333.1561,N,01000.6929,E,1.01,339.13,160912,,,A*6F
$GPGGA,052001.000,5333.1564,N,01000.6928,E,1,04,3.2,11.4,M,46.0,M,,0000*6D
$GPGSA,A,3,26,12,17,15,,,,,,,,,4.1,3.2,2.5*34
$GPRMC,052001.000,A,5333.1564,N,01000.6928,E,0.91,344.68,160912,,,A*64
$GPGGA,052002.000,5333.1563,N,01000.6928,E,1,04,3.2,11.3,M,46.0,M,,0000*6E
$GPGSA,A,3,26,12,17,15,,,,,,,,,4.1,3.2,2.5*34
$GPRMC,052004.000,A,5333.1572,N,01000.6919,E,2.38,337.16,160912,,,A*68
$GPGGA,052005.000,5333.1579,N,01000.6912,E,1,04,3.2,11.5,M,46.0,M,,0000*6D
$GPGSA,A,3,26,12,17,15,,,,,,,,,4.1,3.2,2.5*34
$GPRMC,052005.000,A,5333.1579,N,01000.6912,E,2.54,337.59,160912,,,A*68
$GPGGA,052006.000,5333.1585,N,01000.6906,E,1,04,3.2,11.9,M,46.0,M,,0000*64
$GPGSA,A,3,26,12,17,15,,,,,,,,,4.1,3.2,2.5*34
$GPRMC,052006.000,A,5333.1585,N,01000.6906,E,1.71,335.99,160912,,,A*67
$GPGGA,052007.000,5333.1588,N,01000.6902,E,1,04,3.2,12.1,M,46.0,M,,0000*67
$GPGSA,A,3,26,12,17,15,,,,,,,,,4.1,3.2,2.5*34
$GPRMC,052007.000,A,5333.1588,N,01000.6902,E,0.87,350.59,160912,,,A*68
$GPGGA,052008.000,5333.1592,N,01000.6896,E,1,04,3.2,12.4,M,46.0,M,,0000*6A
$GPGSA,A,3,26,12,17,15,,,,,,,,,4.1,3.2,2.5*34
$GPGSV,3,1,12,27,71,286,,15,66,205,21,09,55,280,17,28,36,056,16*79
$GPGSV,3,2,12,26,36,150,20,17,36,102,21,18,27,284,21,22,14,323,22*79
$GPGSV,3,3,12,12,12,220,27,11,04,023,,01,03,039,18,08,02,088,*71
$GPRMC,052008.000,A,5333.1592,N,01000.6896,E,0.93,323.68,160912,,,A*63
$GPGGA,052009.000,5333.1598,N,01000.6887,E,1,04,3.2,12.9,M,46.0,M,,0000*6C
$GPGSA,A,3,26,12,17,15,,,,,,,,,4.1,3.2,2.5*34
$GPRMC,052009.000,A,5333.1598,N,01000.6887,E,1.96,321.05,160912,,,A*65
$GPGGA,052010.000,5333.1604,N,01000.6882,E,1,03,3.9,13.3,M,46.0,M,,0000*60
$GPGSA,A,2,26,12,15,,,,,,,,,,4.1,3.9,1.0*3E
$GPRMC,052010.000,A,5333.1604,N,01000.6882,E,1.41,343.08,160912,,,A*6D
$GPGGA,052011.000,5333.1611,N,01000.6877,E,1,04,3.2,13.5,M,46.0,M,,0000*65
$GPGSA,A,3,26,12,17,15,,,,,,,,,4.1,3.2,2.5*34
$GPRMC,052011.000,A,5333.1611,N,01000.6877,E,1.47,353.38,160912,,,A*66
$GPGGA,052012.000,5333.1620,N,01000.6872,E,1,03,3.9,13.7,M,46.0,M,,0000*6F
$GPGSA,A,2,26,12,15,,,,,,,,,,4.1,3.9,1.0*3E
$GPRMC,052012.000,A,5333.1620,N,01000.6872,E,1.79,348.20,160912,,,A*6C
$GPGGA,052013.000,5333.1627,N,01000.6866,E,1,04,3.2,13.9,M,46.0,M,,0000*6E
$GPGSA,A,3,26,12,17,15,,,,,,,,,4.1,3.2,2.5*34
$GPGSV,3,1,12,27,71,286,,15,66,205,22,09,55,280,17,28,36,056,15*79
$GPGSV,3,2,12,26,36,150,25,17,36,102,17,18,27,284,21,22,14,323,22*79
$GPGSV,3,3,12,12,12,220,27,11,04,023,,01,03,039,18,08,02,088,*71
$GPRMC,052013.000,A,5333.1627,N,01000.6866,E,1.19,347.56,160912,,,A*67
$GPGGA,052014.000,5333.1635,N,01000.6860,E,1,04,3.2,14.2,M,46.0,M,,0000*60
$GPGSA,A,3,26,12,17,15,,,,,,,,,4.1,3.2,2.5*34
$GPRMC,052014.000,A,5333.1635,N,01000.6860,E,1.42,349.42,160912,,,A*60
$GPGGA,052015.000,5333.1641,N,01000.6857,E,1,04,3.2,14.4,M,46.0,M,,0000*60
$GPGSA,A,3,26,12,17,15,,,,,,,,,4.1,3.2,2.5*34
$GPRMC,052015.000,A,5333.1641,N,01000.6857,E,0.98,7.78,160912,,,A*60
$GPGGA,052016.000,5333.1649,N,01000.6853,E,1,04,3.2,14.4,M,46.0,M,,0000*6F
$GPGSA,A,3,26,12,17,15,,,,,,,,,4.1,3.2,2.5*34
$GPRMC,052016.000,A,5333.1649,N,01000.6853,E,1.37,12.00,160912,,,A*50
$GPGGA,052017.000,5333.1657,N,01000.6851,E,1,04,3.2,14.4,M,46.0,M,,0000*63
$GPGSA,A,3,26,12,17,15,,,,,,,,,4.1,3.2,2.5*34
$GPRMC,052017.000,A,5333.1657,N,01000.6851,E,1.40,21.23,160912,,,A*5D
$GPGGA,052018.000,5333.1668,N,01000.6847,E,1,04,3.2,14.3,M,46.0,M,,0000*60
$GPGSA,A,3,26,12,17,15,,,,,,,,,4.1,3.2,2.5*34
$GPGSV,3,1,12,27,71,286,,15,66,205,22,09,55,280,16,28,36,056,14*79
$GPGSV,3,2,12,26,36,150,23,17,36,102,16,18,27,284,21,22,14,323,22*7E
$GPGSV,3,3,12,12,12,220,26,11,04,023,,01,03,039,18,08,02,088,*70
$GPRMC,052018.000,A,5333.1668,N,01000.6847,E,1.96,9.34,160912,,,A*6E
$GPGGA,052019.000,5333.1677,N,01000.6840,E,1,04,3.2,14.2,M,46.0,M,,0000*69
$GPGSA,A,3,26,12,17,15,,,,,,,,,4.1,3.2,2.5*34
$GPRMC,052019.000,A,5333.1677,N,01000.6840,E,1.62,347.50,160912,,,A*66
$GPGGA,052020.000,5333.1689,N,01000.6833,E,1,03,3.9,14.0,M,46.0,M,,0000*68
$GPGSA,A,2,26,12,15,,,,,,,,,,4.1,3.9,1.0*3E
$GPRMC,052020.000,A,5333.1689,N,01000.6833,E,2.53,356.65,160912,,,A*6E
$GPGGA,052021.000,5333.1701,N,01000.6827,E,1,03,3.9,13.8,M,46.0,M,,0000*62
$GPGSA,A,2,26,12,15,,,,,,,,,,4.1,3.9,1.0*3E
$GPRMC,052021.000,A,5333.1701,N,01000.6827,E,2.42,357.93,160912,,,A*63
$GPGGA,052022.000,5333.1712,N,01000.6822,E,1,03,3.9,13.5,M,46.0,M,,0000*6B
$GPGSA,A,2,26,12,15,,,,,,,,,,4.1,3.9,1.0*3E
$GPRMC,052022.000,A,5333.1712,N,01000.6822,E,2.04,0.60,160912,,,A*68
$GPGGA,052023.000,5333.1722,N,01000.6812,E,1,03,3.9,13.2,M,46.0,M,,0000*6D
$GPGSA,A,2,26,12,15,,,,,,,,,,4.1,3.9,1.0*3E
$GPGSV,3,1,12,27,71,286,18,15,66,205,22,09,55,280,15,28,36,056,*76
$GPGSV,3,2,12,26,36,150,23,17,36,102,,18,27,284,21,22,14,323,23*78
$GPGSV,3,3,12,12,12,220,24,11,04,023,,01,03,039,18,08,02,088,*72
$GPRMC,052023.000,A,5333.1722,N,01000.6812,E,2.23,337.02,160912,,,A*6F
$GPGGA,052024.000,5333.1732,N,01000.6797,E,1,03,3.9,12.7,M,46.0,M,,0000*6D
$GPGSA,A,2,26,12,15,,,,,,,,,,4.1,3.9,1.0*3E
$GPRMC,052024.000,A,5333.1732,N,01000.6797,E,2.79,310.42,160912,,,A*65
$GPGGA,052025.000,5333.1743,N,01000.6778,E,1,03,3.9,12.3,M,46.0,M,,0000*6F
$GPGSA,A,2,26,12,15,,,,,,,,,,4.1,3.9,1.0*3E
$GPRMC,052025.000,A,5333.1743,N,01000.6778,E,3.48,311.13,160912,,,A*65
$GPGGA,052026.000,5333.1757,N,01000.6761,E,1,03,3.9,11.9,M,46.0,M,,0000*68
$GPGSA,A,2,26,12,15,,,,,,,,,,4.1,3.9,1.0*3E
$GPRMC,052026.000,A,5333.1757,N,01000.6761,E,3.74,323.09,160912,,,A*6E
$GPGGA,052027.000,5333.1768,N,01000.6744,E,1,03,4.0,11.4,M,46.0,M,,0000*61
$GPGSA,A,2,26,12,15,,,,,,,,,,4.1,4.0,1.0*30
$GPRMC,052027.000,A,5333.1768,N,01000.6744,E,2.99,315.04,160912,,,A*6E
$GPGGA,052028.000,5333.1781,N,01000.6724,E,1,03,4.0,11.0,M,46.0,M,,0000*6B
$GPGSA,A,2,26,12,15,,,,,,,,,,4.1,4.0,1.0*30
$GPGSV,3,1,12,27,71,286,23,15,66,205,21,09,55,280,14,28,36,056,*7C
$GPGSV,3,2,12,26,36,150,21,17,36,102,,18,27,284,21,22,14,323,23*7A
$GPGSV,3,3,12,12,12,220,24,11,04,023,,01,03,039,18,08,02,088,*72
$GPRMC,052028.000,A,5333.1781,N,01000.6724,E,3.83,315.30,160912,,,A*6D
$GPGGA,052029.000,5333.1790,N,01000.6717,E,1,03,4.0,10.7,M,46.0,M,,0000*6C
$GPGSA,A,2,26,12,15,,,,,,,,,,4.1,4.0,1.0*30
$GPRMC,052029.000,A,5333.1790,N,01000.6717,E,1.57,348.15,160912,,,A*68
$GPGGA,052030.000,5333.1799,N,01000.6711,E,1,03,4.0,10.3,M,46.0,M,,0000*6F
$GPGSA,A,2,26,12,15,,,,,,,,,,4.1,4.0,1.0*30
$GPRMC,052030.000,A,5333.1799,N,01000.6711,E,1.96,352.45,160912,,,A*6C
$GPGGA,052031.000,5333.1806,N,01000.6704,E,1,03,4.0,10.0,M,46.0,M,,0000*60
$GPGSA,A,2,26,12,15,,,,,,,,,,4.1,4.0,1.0*30
$GPRMC,052031.000,A,5333.1806,N,01000.6704,E,1.90,339.40,160912,,,A*6E
$GPGGA,052032.000,5333.1811,N,01000.6696,E,1,03,4.0,9.6,M,46.0,M,,0000*51
$GPGSA,A,2,26,12,15,,,,,,,,,,4.1,4.0,1.0*30
$GPRMC,052032.000,A,5333.1811,N,01000.6696,E,1.49,327.60,160912,,,A*68
$GPGGA,052033.000,5333.1810,N,01000.6688,E,1,03,4.0,9.1,M,46.0,M,,0000*59
$GPGSA,A,2,26,12,15,,,,,,,,,,4.1,4.0,1.0*30
$GPGSV,3,1,12,27,71,286,23,15,66,205,21,09,55,280,15,28,36,056,*7D
$GPGSV,3,2,12,26,36,150,21,17,36,102,,18,27,284,21,22,14,323,23*7A
$GPGSV,3,3,12,12,12,220,24,11,04,023,,01,03,039,18,08,02,088,*72
$GPRMC,052033.000,A,5333.1810,N,01000.6688,E,1.10,244.30,160912,,,A*6A
$GPGGA,052034.000,5333.1809,N,01000.6687,E,1,03,4.0,8.7,M,46.0,M,,0000*5E
$GPGSA,A,2,26,12,15,,,,,,,,,,4.1,4.0,1.0*30
$GPRMC,052035.000,A,5333.1805,N,01000.6689,E,1.31,134.03,160912,,,A*6E
$GPGGA,052036.000,5333.1799,N,01000.6697,E,1,03,4.0,7.9,M,46.0,M,,0000*5A
$GPGSA,A,2,26,12,15,,,,,,,,,,4.1,4.0,1.0*30
$GPRMC,052036.000,A,5333.1799,N,01000.6697,E,2.25,124.38,160912,,,A*67
$GPGGA,052037.000,5333.1792,N,01000.6706,E,1,03,4.0,7.5,M,46.0,M,,0000*55
$GPGSA,A,2,26,12,15,,,,,,,,,,4.1,4.0,1.0*30
$GPRMC,052037.000,A,5333.1792,N,01000.6706,E,2.86,127.05,160912,,,A*60
$GPGGA,052038.000,5333.1780,N,01000.6717,E,1,03,4.0,7.2,M,46.0,M,,0000*5E
$GPGSA,A,2,26,12,15,,,,,,,,,,4.1,4.0,1.0*30
$GPGSV,3,1,12,27,71,286,22,15,66,205,20,09,55,280,15,28,36,056,*7D
$GPGSV,3,2,12,26,36,150,20,17,36,102,12,18,27,284,21,22,14,323,22*79
$GPGSV,3,3,12,12,12,220,26,11,04,023,,01,03,039,18,08,02,088,*70
$GPRMC,052038.000,A,5333.1780,N,01000.6717,E,3.53,138.51,160912,,,A*6A
$GPGGA,052039.000,5333.1766,N,01000.6725,E,1,03,4.0,6.9,M,46.0,M,,0000*5C
$GPGSA,A,2,26,12,15,,,,,,,,,,4.1,4.0,1.0*30
$GPRMC,052039.000,A,5333.1766,N,01000.6725,E,3.40,150.26,160912,,,A*6E
$GPGGA,052040.000,5333.1757,N,01000.6726,E,1,03,4.0,6.7,M,46.0,M,,0000*5D
$GPGSA,A,2,26,12,15,,,,,,,,,,4.1,4.0,1.0*30
$GPRMC,052040.000,A,5333.1757,N,01000.6726,E,1.65,175.59,160912,,,A*6B
$GPGGA,052041.000,5333.1753,N,01000.6724,E,1,03,4.0,6.5,M,46.0,M,,0000*58
$GPGSA,A,2,26,12,15,,,,,,,,,,4.1,4.0,1.0*30
$GPRMC,052042.000,A,5333.1755,N,01000.6721,E,0.98,328.62,160912,,,A*6D
$GPGGA,052043.000,5333.1757,N,01000.6717,E,0,00,,6.1,M,46.0,M,,0000*72
$GPGSA,A,1,,,,,,,,,,,,,,,*1E
$GPGSV,3,1,12,27,71,286,22,15,66,205,17,09,55,280,17,28,36,056,*7B
$GPGSV,3,2,12,26,36,150,20,17,36,102,13,18,27,284,21,22,14,323,22*78
$GPGSV,3,3,12,12,12,220,26,11,04,023,,01,03,039,18,08,02,088,*70
$GPRMC,052051.000,A,5333.1787,N,01000.6702,E,3.33,18.84,160912,,,A*5B
$GPGGA,052052.000,5333.1802,N,01000.6707,E,1,03,3.7,4.5,M,46.0,M,,0000*52
$GPGSA,A,2,26,12,17,,,,,,,,,,3.8,3.7,1.0*3C
$GPRMC,052052.000,A,5333.1802,N,01000.6707,E,3.69,17.45,160912,,,A*52
$GPGGA,052053.000,5333.1819,N,01000.6709,E,1,03,3.7,4.1,M,46.0,M,,0000*53
$GPGSA,A,2,26,12,17,,,,,,,,,,3.8,3.7,1.0*3C
$GPGSV,3,1,12,27,71,286,22,15,66,205,,09,55,280,17,28,36,056,*7D
$GPGSV,3,2,12,26,36,150,20,17,36,102,16,18,27,284,21,22,14,323,21*7E
$GPGSV,3,3,12,12,12,220,24,11,04,023,,01,03,039,18,08,02,088,*72
$GPRMC,052053.000,A,5333.1819,N,01000.6709,E,4.05,15.41,160912,,,A*5C
$GPGGA,052054.000,5333.1845,N,01000.6702,E,1,03,3.7,3.6,M,46.0,M,,0000*56
$GPGSA,A,2,26,12,17,,,,,,,,,,3.8,3.7,1.0*3C
$GPRMC,052054.000,A,5333.1845,N,01000.6702,E,5.85,355.07,160912,,,A*65
$GPGGA,052055.000,5333.1877,N,01000.6689,E,1,03,3.7,3.1,M,46.0,M,,0000*53
$GPGSA,A,2,26,12,17,,,,,,,,,,3.8,3.7,1.0*3C
$GPRMC,052055.000,A,5333.1877,N,01000.6689,E,7.27,348.12,160912,,,A*65
$GPGGA,052056.000,5333.1901,N,01000.6677,E,1,03,3.7,2.6,M,46.0,M,,0000*57
$GPGSA,A,2,26,12,17,,,,,,,,,,3.8,3.7,1.0*3C
$GPRMC,052056.000,A,5333.1901,N,01000.6677,E,5.69,343.33,160912,,,A*67
$GPGGA,052057.000,5333.1914,N,01000.6666,E,1,03,3.7,2.2,M,46.0,M,,0000*56
$GPGSA,A,2,26,12,17,,,,,,,,,,3.8,3.7,1.0*3C
$GPRMC,052057.000,A,5333.1914,N,01000.6666,E,2.96,334.47,160912,,,A*66
$GPGGA,052058.000,5333.1929,N,01000.6655,E,1,03,3.7,1.8,M,46.0,M,,0000*5E
$GPGSA,A,2,26,12,17,,,,,,,,,,3.8,3.7,1.0*3C
$GPGSV,3,1,12,27,71,286,22,15,66,205,,09,55,280,16,28,36,056,*7C
$GPGSV,3,2,12,26,36,150,20,17,36,102,15,18,27,284,20,22,14,323,20*7D
$GPGSV,3,3,12,12,12,220,23,11,04,023,,01,03,039,18,08,02,088,*75
$GPRMC,052058.000,A,5333.1929,N,01000.6655,E,2.93,335.05,160912,,,A*65
$GPGGA,052059.000,5333.1943,N,01000.6644,E,0,00,,1.4,M,46.0,M,,0000*77
$GPGSA,A,1,,,,,,,,,,,,,,,*1E
$GPRMC,052100.000,A,5333.1961,N,01000.6630,E,3.93,335.51,160912,,,A*66
$GPGGA,052101.000,5333.1972,N,01000.6622,E,1,03,3.7,0.8,M,46.0,M,,0000*5C
$GPGSA,A,2,26,12,17,,,,,,,,,,3.8,3.7,1.0*3C
$GPRMC,052101.000,A,5333.1972,N,01000.6622,E,2.32,344.07,160912,,,A*69
$GPGGA,052102.000,5333.1979,N,01000.6620,E,1,03,3.7,0.5,M,46.0,M,,0000*5B
$GPGSA,A,2,26,12,17,,,,,,,,,,3.8,3.7,1.0*3C
$GPRMC,052102.000,A,5333.1979,N,01000.6620,E,1.54,7.69,160912,,,A*6C
$GPGGA,052103.000,5333.1986,N,01000.6621,E,1,03,3.7,0.3,M,46.0,M,,0000*5D
$GPGSA,A,2,26,12,17,,,,,,,,,,3.8,3.7,1.0*3C
$GPGSV,3,1,12,27,71,286,21,15,66,205,,09,55,280,16,28,36,056,*7F
$GPGSV,3,2,12,26,36,150,21,17,36,102,14,18,27,284,18,22,14,323,20*76
$GPGSV,3,3,12,12,12,220,23,11,04,023,,01,03,039,19,08,02,088,*74
$GPRMC,052103.000,A,5333.1986,N,01000.6621,E,2.06,32.40,160912,,,A*55
$GPGGA,052104.000,5333.1998,N,01000.6623,E,1,03,3.7,0.2,M,46.0,M,,0000*56
