$GPGGA,181448.000,6543.7654,N,01623.8719,W,1,09,1.0,364.4,M,59.7,M,,0000*4D
$GPGSA,A,3,22,03,09,19,27,32,28,01,11,,,,1.9,1.0,1.6*31
$GPRMC,181448.000,A,6543.7654,N,01623.8719,W,42.43,358.52,020912,,,A*49
$GPGGA,181449.000,6543.7771,N,01623.8735,W,1,09,1.0,364.0,M,59.7,M,,0000*40
$GPGSA,A,3,22,03,09,19,27,32,28,01,11,,,,1.9,1.0,1.6*31
$GPRMC,181449.000,A,6543.7771,N,01623.8735,W,42.43,357.06,020912,,,A*4E
$GPGGA,181450.000,6543.7888,N,01623.8759,W,1,09,1.0,363.6,M,59.7,M,,0000*4A
$GPGSA,A,3,22,03,09,19,27,32,28,01,11,,,,1.9,1.0,1.6*31
$GPRMC,181450.000,A,6543.7888,N,01623.8759,W,42.57,355.38,020912,,,A*4F
$GPGGA,181451.000,6543.8005,N,01623.8788,W,1,09,1.0,363.3,M,59.7,M,,0000*40
$GPGSA,A,3,22,03,09,19,27,32,28,01,11,,,,1.9,1.0,1.6*31
$GPRMC,181451.000,A,6543.8005,N,01623.8788,W,42.50,354.24,020912,,,A*4B
$GPGGA,181452.000,6543.8122,N,01623.8823,W,1,09,1.0,362.9,M,59.7,M,,0000*42
$GPGSA,A,3,22,03,09,19,27,32,28,01,11,,,,1.9,1.0,1.6*31
$GPGSV,3,1,12,11,68,204,34,01,53,229,23,19,44,138,39,28,42,291,35*70
$GPGSV,3,2,12,22,36,063,42,32,21,176,29,14,19,087,,27,17,358,31*79
$GPGSV,3,3,12,03,13,138,30,09,12,012,21,17,08,294,24,18,06,036,32*74
$GPRMC,181452.000,A,6543.8122,N,01623.8823,W,42.57,353.23,020912,,,A*45
$GPGGA,181453.000,6543.8239,N,01623.8864,W,1,09,1.0,362.6,M,59.7,M,,0000*46
$GPGSA,A,3,22,03,09,19,27,32,28,01,11,,,,1.9,1.0,1.6*31
$GPRMC,181453.000,A,6543.8239,N,01623.8864,W,42.56,352.01,020912,,,A*4E
$GPGGA,181454.000,6543.8355,N,01623.8912,W,1,09,1.0,362.2,M,59.7,M,,0000*4E
$GPGSA,A,3,22,03,09,19,27,32,28,01,11,,,,1.9,1.0,1.6*31
$GPRMC,181454.000,A,6543.8355,N,01623.8912,W,42.60,350.85,020912,,,A*49
$GPGGA,181455.000,6543.8471,N,01623.8965,W,1,09,1.0,362.0,M,59.7,M,,0000*4C
$GPGSA,A,3,22,03,09,19,27,32,28,01,11,,,,1.9,1.0,1.6*31
$GPRMC,181455.000,A,6543.8471,N,01623.8965,W,42.50,349.41,020912,,,A*4A
$GPGGA,181456.000,6543.8586,N,01623.9028,W,1,09,1.0,361.7,M,59.7,M,,0000*43
$GPGSA,A,3,22,03,09,19,27,32,28,01,11,,,,1.9,1.0,1.6*31
$GPRMC,181456.000,A,6543.8586,N,01623.9028,W,42.50,347.70,020912,,,A*4D
$GPGGA,181457.000,6543.8701,N,01623.9092,W,1,09,1.0,361.5,M,59.7,M,,0000*4C
$GPGSA,A,3,22,03,09,19,27,32,28,01,11,,,,1.9,1.0,1.6*31
$GPGSV,3,1,12,11,68,204,34,01,53,229,21,19,44,138,34,28,42,291,22*79
$GPGSV,3,2,12,22,36,063,42,32,21,176,17,14,19,087,,27,17,358,34*71
$GPGSV,3,3,12,03,13,138,23,09,12,012,31,17,08,294,30,18,06,036,20*71
$GPRMC,181457.000,A,6543.8701,N,01623.9092,W,42.51,347.43,020912,,,A*41
$GPGGA,181458.000,6543.8816,N,01623.9157,W,1,09,1.0,361.3,M,59.7,M,,0000*44
$GPGSA,A,3,22,03,09,19,27,32,28,01,11,,,,1.9,1.0,1.6*31
$GPRMC,181458.000,A,6543.8816,N,01623.9157,W,42.53,347.22,020912,,,A*4A
$GPGGA,181459.000,6543.8932,N,01623.9222,W,1,09,1.0,361.2,M,59.7,M,,0000*42
$GPGSA,A,3,22,03,09,19,27,32,28,01,11,,,,1.9,1.0,1.6*31
$GPRMC,181459.000,A,6543.8932,N,01623.9222,W,42.66,347.20,020912,,,A*49
$GPGGA,181500.000,6543.9047,N,01623.9287,W,1,09,1.0,361.1,M,59.7,M,,0000*49
$GPGSA,A,3,22,03,09,19,27,32,28,01,11,,,,1.9,1.0,1.6*31
$GPRMC,181500.000,A,6543.9047,N,01623.9287,W,42.65,347.43,020912,,,A*47
$GPGGA,181501.000,6543.9162,N,01623.9352,W,1,09,1.0,361.0,M,59.7,M,,0000*46
$GPGSA,A,3,22,03,09,19,27,32,28,01,11,,,,1.9,1.0,1.6*31
$GPRMC,181501.000,A,6543.9162,N,01623.9352,W,42.58,347.17,020912,,,A*46
$GPGGA,181502.000,6543.9278,N,01623.9419,W,1,09,1.0,361.0,M,59.7,M,,0000*45
$GPGSA,A,3,22,03,09,19,27,32,28,01,11,,,,1.9,1.0,1.6*31
$GPGSV,3,1,12,11,68,204,34,01,53,229,20,19,44,138,34,28,42,291,21*7B
$GPGSV,3,2,12,22,36,063,42,32,21,176,15,14,19,087,,27,17,358,33*74
$GPGSV,3,3,12,03,13,138,21,09,12,012,33,17,08,294,29,18,06,036,25*7C
$GPRMC,181502.000,A,6543.9278,N,01623.9419,W,42.53,347.05,020912,,,A*4D
$GPGGA,181503.000,6543.9393,N,01623.9486,W,1,09,1.0,360.9,M,59.7,M,,0000*4E
$GPGSA,A,3,22,03,09,19,27,32,28,01,11,,,,1.9,1.0,1.6*31
$GPRMC,181503.000,A,6543.9393,N,01623.9486,W,42.62,346.73,020912,,,A*4C
$GPGGA,181504.000,6543.9508,N,01623.9552,W,1,09,1.0,361.0,M,59.7,M,,0000*4D
$GPGSA,A,3,22,03,09,19,27,32,28,01,11,,,,1.9,1.0,1.6*31
$GPRMC,181504.000,A,6543.9508,N,01623.9552,W,42.71,347.15,020912,,,A*44
$GPGGA,181505.000,6543.9625,N,01623.9619,W,1,09,1.0,361.1,M,59.7,M,,0000*4D
$GPGSA,A,3,22,03,09,19,27,32,28,01,11,,,,1.9,1.0,1.6*31
$GPRMC,181505.000,A,6543.9625,N,01623.9619,W,42.91,347.09,020912,,,A*46
$GPGGA,181506.000,6543.9741,N,01623.9687,W,1,09,1.0,361.2,M,59.7,M,,0000*49
$GPGSA,A,3,22,03,09,19,27,32,28,01,11,,,,1.9,1.0,1.6*31
$GPRMC,181506.000,A,6543.9741,N,01623.9687,W,42.98,346.81,020912,,,A*49
$GPGGA,181507.000,6543.9857,N,01623.9754,W,1,09,1.0,361.3,M,59.7,M,,0000*4E
$GPGSA,A,3,22,03,09,19,27,32,28,01,11,,,,1.9,1.0,1.6*31
$GPGSV,3,1,12,11,68,204,26,01,53,229,33,19,44,138,34,28,42,291,22*79
$GPGSV,3,2,12,22,36,063,41,32,21,176,24,14,19,087,,27,17,358,33*75
$GPGSV,3,3,12,03,13,138,28,09,12,012,33,17,08,294,29,18,06,036,32*73
$GPRMC,181507.000,A,6543.9857,N,01623.9754,W,42.94,346.99,020912,,,A*4A
$GPGGA,181508.000,6543.9974,N,01623.9818,W,1,09,1.0,361.4,M,59.7,M,,0000*41
$GPGSA,A,3,22,03,09,19,27,32,28,01,11,,,,1.9,1.0,1.6*31
$GPRMC,181508.000,A,6543.9974,N,01623.9818,W,42.96,347.50,020912,,,A*44
$GPGGA,181509.000,6544.0091,N,01623.9879,W,1,09,1.0,361.5,M,59.7,M,,0000*4A
$GPGSA,A,3,22,03,09,19,27,32,28,01,11,,,,1.9,1.0,1.6*31
$GPRMC,181509.000,A,6544.0091,N,01623.9879,W,42.98,348.36,020912,,,A*4F
$GPGGA,181510.000,6544.0207,N,01623.9933,W,1,09,1.0,361.7,M,59.7,M,,0000*42
$GPGSA,A,3,22,03,09,19,27,32,28,01,11,,,,1.9,1.0,1.6*31
$GPRMC,181510.000,A,6544.0207,N,01623.9933,W,42.77,349.56,020912,,,A*43
$GPGGA,181511.000,6544.0325,N,01623.9980,W,1,09,1.0,361.8,M,59.7,M,,0000*45
$GPGSA,A,3,22,03,09,19,27,32,28,01,11,,,,1.9,1.0,1.6*31
$GPRMC,181511.000,A,6544.0325,N,01623.9980,W,42.75,351.17,020912,,,A*45
$GPGGA,181512.000,6544.0443,N,01624.0018,W,1,09,1.0,361.9,M,59.7,M,,0000*46
$GPGSA,A,3,22,03,09,19,27,32,28,01,11,,,,1.9,1.0,1.6*31
$GPGSV,3,1,12,11,68,204,26,01,53,229,33,19,44,138,33,28,42,291,32*7F
$GPGSV,3,2,12,22,36,063,41,32,21,176,30,14,19,087,,27,17,358,34*77
$GPGSV,3,3,12,03,13,138,33,09,12,012,22,17,08,294,15,18,06,036,29*7C
$GPRMC,181512.000,A,6544.0443,N,01624.0018,W,42.77,352.83,020912,,,A*4B
$GPGGA,181513.000,6544.0561,N,01624.0049,W,1,09,1.0,362.0,M,59.7,M,,0000*48
$GPGSA,A,3,22,03,09,19,27,32,28,01,11,,,,1.9,1.0,1.6*31
$GPRMC,181513.000,A,6544.0561,N,01624.0049,W,42.79,354.27,020912,,,A*49
$GPGGA,181514.000,6544.0679,N,01624.0075,W,1,09,1.0,362.1,M,59.7,M,,0000*4B
$GPGSA,A,3,22,03,09,19,27,32,28,01,11,,,,1.9,1.0,1.6*31
$GPRMC,181514.000,A,6544.0679,N,01624.0075,W,42.83,355.50,020912,,,A*4F
$GPGGA,181515.000,6544.0797,N,01624.0095,W,1,09,1.0,362.2,M,59.7,M,,0000*46
$GPGSA,A,3,22,03,09,19,27,32,28,01,11,,,,1.9,1.0,1.6*31
$GPRMC,181515.000,A,6544.0797,N,01624.0095,W,42.69,356.50,020912,,,A*46
$GPGGA,181516.000,6544.0916,N,01624.0111,W,1,09,1.0,362.2,M,59.7,M,,0000*4F
$GPGSA,A,3,22,03,09,19,27,32,28,01,11,,,,1.9,1.0,1.6*31
$GPRMC,181516.000,A,6544.0916,N,01624.0111,W,42.76,357.20,020912,,,A*47
$GPGGA,181517.000,6544.1035,N,01624.0123,W,1,09,1.0,362.3,M,59.7,M,,0000*47
$GPGSA,A,3,22,03,09,19,27,32,28,01,11,,,,1.9,1.0,1.6*31
$GPGSV,3,1,12,11,68,203,27,01,54,229,28,19,44,138,39,28,42,291,32*7E
$GPGSV,3,2,12,22,36,063,41,32,21,176,28,14,19,087,,27,17,358,30*7A
$GPGSV,3,3,12,03,13,138,35,09,12,012,32,17,08,294,26,18,06,036,31*72
$GPRMC,181517.000,A,6544.1035,N,01624.0123,W,42.93,358.13,020912,,,A*4A
$GPGGA,181518.000,6544.1154,N,01624.0129,W,1,09,1.0,362.3,M,59.7,M,,0000*44
$GPGSA,A,3,22,03,09,19,27,32,28,01,11,,,,1.9,1.0,1.6*31
$GPRMC,181518.000,A,6544.1154,N,01624.0129,W,42.95,359.25,020912,,,A*4B
$GPGGA,181519.000,6544.1273,N,01624.0129,W,1,09,1.0,362.3,M,59.7,M,,0000*43
$GPGSA,A,3,22,03,09,19,27,32,28,01,11,,,,1.9,1.0,1.6*31
$GPRMC,181519.000,A,6544.1273,N,01624.0129,W,42.89,0.46,020912,,,A*4B
$GPGGA,181520.000,6544.1392,N,01624.0120,W,1,09,1.0,362.2,M,59.7,M,,0000*4F
$GPGSA,A,3,22,03,09,19,27,32,28,01,11,,,,1.9,1.0,1.6*31
$GPRMC,181520.000,A,6544.1392,N,01624.0120,W,42.83,2.43,020912,,,A*4B
$GPGGA,181521.000,6544.1511,N,01624.0101,W,1,09,1.0,362.2,M,59.7,M,,0000*40
$GPGSA,A,3,22,03,09,19,27,32,28,01,11,,,,1.9,1.0,1.6*31
$GPRMC,181521.000,A,6544.1511,N,01624.0101,W,42.96,4.21,020912,,,A*42
$GPGGA,181522.000,6544.1629,N,01624.0077,W,1,08,1.0,362.1,M,59.7,M,,0000*49
$GPGSA,A,3,22,03,09,19,27,32,28,11,,,,,1.9,1.0,1.6*30
$GPGSV,3,1,12,11,68,203,28,01,54,229,,19,44,138,38,28,42,291,36*7E
$GPGSV,3,2,12,22,36,063,32,32,21,176,28,14,19,087,,27,17,358,31*7F
$GPGSV,3,3,12,03,13,138,29,09,12,012,24,17,08,294,31,18,06,036,32*7D
$GPRMC,181522.000,A,6544.1629,N,01624.0077,W,42.82,5.33,020912,,,A*4E
$GPGGA,181523.000,6544.1747,N,01624.0046,W,1,09,1.0,362.0,M,59.7,M,,0000*43
$GPGSA,A,3,22,03,09,19,27,32,28,01,11,,,,1.9,1.0,1.6*31
$GPRMC,181523.000,A,6544.1747,N,01624.0046,W,42.94,6.46,020912,,,A*42
$GPGGA,181524.000,6544.1865,N,01624.0012,W,1,09,1.0,361.8,M,59.7,M,,0000*41
$GPGSA,A,3,22,03,09,19,27,32,28,01,11,,,,1.9,1.0,1.6*31
$GPRMC,181524.000,A,6544.1865,N,01624.0012,W,42.82,7.37,020912,,,A*4B
$GPGGA,181525.000,6544.1982,N,01623.9970,W,1,09,1.0,361.7,M,59.7,M,,0000*44
$GPGSA,A,3,22,03,09,19,27,32,28,01,11,,,,1.9,1.0,1.6*31
$GPRMC,181525.000,A,6544.1982,N,01623.9970,W,42.76,8.70,020912,,,A*46
$GPGGA,181526.000,6544.2099,N,01623.9921,W,1,09,1.0,361.4,M,59.7,M,,0000*40
$GPGSA,A,3,22,03,09,19,27,32,28,01,11,,,,1.9,1.0,1.6*31
$GPRMC,181526.000,A,6544.2099,N,01623.9921,W,42.73,10.05,020912,,,A*7F
$GPGGA,181527.000,6544.2215,N,01623.9865,W,1,09,1.0,361.2,M,59.7,M,,0000*40
$GPGSA,A,3,22,03,09,19,27,32,28,01,11,,,,1.9,1.0,1.6*31
$GPGSV,3,1,12,11,68,203,28,01,54,229,37,19,44,138,37,28,42,291,31*72
$GPGSV,3,2,12,22,36,063,38,32,21,176,20,14,19,087,,27,17,358,23*7E
$GPGSV,3,3,12,03,13,138,31,09,12,012,33,17,08,294,23,18,06,036,32*71
$GPRMC,181527.000,A,6544.2215,N,01623.9865,W,42.82,11.51,020912,,,A*77
$GPGGA,181528.000,6544.2331,N,01623.9802,W,1,09,1.0,360.9,M,59.7,M,,0000*43
$GPGSA,A,3,22,03,09,19,27,32,28,01,11,,,,1.9,1.0,1.6*31
$GPRMC,181528.000,A,6544.2331,N,01623.9802,W,42.66,13.07,020912,,,A*75
$GPGGA,181529.000,6544.2445,N,01623.9732,W,1,09,1.0,360.6,M,59.7,M,,0000*45
$GPGSA,A,3,22,03,09,19,27,32,28,01,11,,,,1.9,1.0,1.6*31
$GPRMC,181529.000,A,6544.2445,N,01623.9732,W,42.67,14.36,020912,,,A*78
$GPGGA,181530.000,6544.2559,N,01623.9657,W,1,09,1.0,360.3,M,59.7,M,,0000*46
$GPGSA,A,3,22,03,09,19,27,32,28,01,11,,,,1.9,1.0,1.6*31
$GPRMC,181530.000,A,6544.2559,N,01623.9657,W,42.65,15.43,020912,,,A*7F
$GPGGA,181531.000,6544.2673,N,01623.9577,W,1,09,1.0,360.0,M,59.7,M,,0000*4E
$GPGSA,A,3,22,03,09,19,27,32,28,01,11,,,,1.9,1.0,1.6*31
$GPRMC,181531.000,A,6544.2673,N,01623.9577,W,42.55,16.46,020912,,,A*71
$GPGGA,181532.000,6544.2785,N,01623.9492,W,1,09,1.0,359.8,M,59.7,M,,0000*4D
$GPGSA,A,3,22,03,09,19,27,32,28,01,11,,,,1.9,1.0,1.6*31
$GPGSV,3,1,12,11,68,203,27,01,54,229,30,19,44,138,30,28,42,291,18*76
$GPGSV,3,2,12,22,36,063,28,32,21,176,27,14,19,087,,27,17,358,36*7C
$GPGSV,3,3,12,03,13,138,31,09,12,012,33,17,08,294,34,18,06,036,26*72
$GPRMC,181532.000,A,6544.2785,N,01623.9492,W,42.54,17.59,020912,,,A*7E
$GPGGA,181533.000,6544.2897,N,01623.9401,W,1,09,1.0,359.5,M,59.7,M,,0000*47
$GPGSA,A,3,22,03,09,19,27,32,28,01,11,,,,1.9,1.0,1.6*31
$GPRMC,181533.000,A,6544.2897,N,01623.9401,W,42.52,18.63,020912,,,A*79
$GPGGA,181534.000,6544.3008,N,01623.9305,W,1,09,1.0,359.4,M,59.7,M,,0000*4D
$GPGSA,A,3,22,03,09,19,27,32,28,01,11,,,,1.9,1.0,1.6*31
$GPRMC,181534.000,A,6544.3008,N,01623.9305,W,42.44,19.60,020912,,,A*77
$GPGGA,181535.000,6544.3118,N,01623.9202,W,1,09,1.0,359.3,M,59.7,M,,0000*4D
$GPGSA,A,3,22,03,09,19,27,32,28,01,11,,,,1.9,1.0,1.6*31
$GPRMC,181535.000,A,6544.3118,N,01623.9202,W,42.69,20.95,020912,,,A*7F
$GPGGA,181536.000,6544.3228,N,01623.9092,W,1,09,1.0,359.4,M,59.7,M,,0000*42
$GPGSA,A,3,22,03,09,19,27,32,28,01,11,,,,1.9,1.0,1.6*31
$GPRMC,181536.000,A,6544.3228,N,01623.9092,W,42.73,22.46,020912,,,A*70
$GPGGA,181537.000,6544.3336,N,01623.8976,W,1,09,1.0,359.4,M,59.7,M,,0000*4F
$GPGSA,A,3,22,03,09,19,27,32,28,01,11,,,,1.9,1.0,1.6*31
$GPGSV,3,1,12,11,68,203,27,01,54,229,30,19,44,138,32,28,42,291,29*76
$GPGSV,3,2,12,22,36,063,35,32,21,176,28,14,19,087,,27,18,358,23*74
$GPGSV,3,3,12,09,12,012,27,03,12,138,30,17,09,294,29,18,06,036,33*7E
$GPRMC,181537.000,A,6544.3336,N,01623.8976,W,42.62,23.84,020912,,,A*72
$GPGGA,181538.000,6544.3444,N,01623.8854,W,1,09,1.0,359.5,M,59.7,M,,0000*42
$GPGSA,A,3,22,03,09,19,27,32,28,01,11,,,,1.9,1.0,1.6*31
$GPRMC,181538.000,A,6544.3444,N,01623.8854,W,42.60,25.12,020912,,,A*75
$GPGGA,181539.000,6544.3550,N,01623.8725,W,1,09,1.0,359.7,M,59.7,M,,0000*4C
$GPGSA,A,3,22,03,09,19,27,32,28,01,11,,,,1.9,1.0,1.6*31
$GPRMC,181539.000,A,6544.3550,N,01623.8725,W,42.65,26.36,020912,,,A*79
$GPGGA,181540.000,6544.3655,N,01623.8591,W,1,09,1.0,359.8,M,59.7,M,,0000*46
$GPGSA,A,3,22,03,09,19,27,32,28,01,11,,,,1.9,1.0,1.6*31
$GPRMC,181540.000,A,6544.3655,N,01623.8591,W,42.70,27.75,020912,,,A*7E
$GPGGA,181541.000,6544.3758,N,01623.8449,W,1,09,1.0,359.9,M,59.7,M,,0000*4E
$GPGSA,A,3,22,03,09,19,27,32,28,01,11,,,,1.9,1.0,1.6*31
$GPRMC,181541.000,A,6544.3758,N,01623.8449,W,42.76,29.27,020912,,,A*78
$GPGGA,181542.000,6544.3861,N,01623.8302,W,1,09,1.0,360.1,M,59.7,M,,0000*42
$GPGSA,A,3,22,03,09,19,27,32,28,01,11,,,,1.9,1.0,1.6*31
$GPGSV,3,1,12,11,68,203,16,01,54,229,23,19,44,138,37,28,42,291,26*7C
$GPGSV,3,2,12,22,36,063,30,32,21,176,28,14,19,087,,27,18,358,28*7A
$GPGSV,3,3,12,09,12,012,35,03,12,138,34,17,09,294,27,18,06,036,25*70
$GPRMC,181542.000,A,6544.3861,N,01623.8302,W,42.62,30.36,020912,,,A*7B
$GPGGA,181543.000,6544.3961,N,01623.8151,W,1,09,1.0,360.3,M,59.7,M,,0000*44
$GPGSA,A,3,22,03,09,19,27,32,28,01,11,,,,1.9,1.0,1.6*31
$GPRMC,181543.000,A,6544.3961,N,01623.8151,W,42.56,31.55,020912,,,A*7C
$GPGGA,181544.000,6544.4061,N,01623.7996,W,1,09,1.0,360.6,M,59.7,M,,0000*44
$GPGSA,A,3,22,03,09,19,27,32,28,01,11,,,,1.9,1.0,1.6*31
$GPRMC,181544.000,A,6544.4061,N,01623.7996,W,42.42,32.44,020912,,,A*7F
$GPGGA,181545.000,6544.4159,N,01623.7836,W,1,09,1.0,360.9,M,59.7,M,,0000*4B
$GPGSA,A,3,22,03,09,19,27,32,28,01,11,,,,1.9,1.0,1.6*31
$GPRMC,181545.000,A,6544.4159,N,01623.7836,W,42.44,33.66,020912,,,A*78
$GPGGA,181546.000,6544.4256,N,01623.7670,W,1,09,1.0,361.3,M,59.7,M,,0000*43
$GPGSA,A,3,22,03,09,19,27,32,28,01,11,,,,1.9,1.0,1.6*31
$GPRMC,181546.000,A,6544.4256,N,01623.7670,W,42.48,35.07,020912,,,A*76
$GPGGA,181547.000,6544.4350,N,01623.7500,W,1,09,1.0,361.7,M,59.7,M,,0000*45
$GPGSA,A,3,22,03,09,19,27,32,28,01,11,,,,1.9,1.0,1.6*31
$GPGSV,3,1,12,11,68,203,31,01,54,229,27,19,44,138,38,28,42,291,34*71
$GPGSV,3,2,12,22,36,063,36,32,21,176,25,14,19,087,,27,18,358,19*73
$GPGSV,3,3,12,09,12,012,28,03,12,138,34,17,09,294,33,18,06,036,31*7C
$GPRMC,181547.000,A,6544.4350,N,01623.7500,W,42.27,36.49,020912,,,A*74
$GPGGA,181548.000,6544.4443,N,01623.7324,W,1,09,1.0,362.1,M,59.7,M,,0000*4A
$GPGSA,A,3,22,03,09,19,27,32,28,01,11,,,,1.9,1.0,1.6*31
$GPRMC,181548.000,A,6544.4443,N,01623.7324,W,42.37,37.58,020912,,,A*7E
$GPGGA,181549.000,6544.4535,N,01623.7143,W,1,09,1.0,362.5,M,59.7,M,,0000*4C
$GPGSA,A,3,22,03,09,19,27,32,28,01,11,,,,1.9,1.0,1.6*31
$GPRMC,181549.000,A,6544.4535,N,01623.7143,W,42.43,38.89,020912,,,A*7C
$GPGGA,181550.000,6544.4625,N,01623.6958,W,1,09,1.0,362.9,M,59.7,M,,0000*49
$GPGSA,A,3,22,03,09,19,27,32,28,01,11,,,,1.9,1.0,1.6*31
$GPRMC,181550.000,A,6544.4625,N,01623.6958,W,42.33,40.18,020912,,,A*75
$GPGGA,181551.000,6544.4714,N,01623.6768,W,1,09,1.0,363.3,M,59.7,M,,0000*4D
$GPGSA,A,3,22,03,09,19,27,32,28,01,11,,,,1.9,1.0,1.6*31
$GPRMC,181551.000,A,6544.4714,N,01623.6768,W,42.55,41.41,020912,,,A*77
$GPGGA,181552.000,6544.4800,N,01623.6573,W,1,09,1.0,363.7,M,59.7,M,,0000*48
$GPGSA,A,3,22,03,09,19,27,32,28,01,11,,,,1.9,1.0,1.6*31
$GPGSV,3,1,12,11,68,202,33,01,54,229,26,19,44,138,42,28,42,291,34*7E
$GPGSV,3,2,12,22,36,063,38,32,21,176,30,14,19,087,,27,18,358,24*77
$GPGSV,3,3,12,09,13,012,22,03,12,138,26,17,09,294,28,18,06,036,24*7A
$GPRMC,181552.000,A,6544.4800,N,01623.6573,W,42.55,42.85,020912,,,A*7D
$GPGGA,181553.000,6544.4884,N,01623.6374,W,1,09,1.0,364.0,M,59.7,M,,0000*44
$GPGSA,A,3,22,03,09,19,27,32,28,01,11,,,,1.9,1.0,1.6*31
$GPRMC,181553.000,A,6544.4884,N,01623.6374,W,42.44,44.17,020912,,,A*7C
$GPGGA,181554.000,6544.4966,N,01623.6169,W,1,09,1.0,364.3,M,59.7,M,,0000*43
$GPGSA,A,3,22,03,09,19,27,32,28,01,11,,,,1.9,1.0,1.6*31
$GPRMC,181554.000,A,6544.4966,N,01623.6169,W,42.46,45.58,020912,,,A*70
$GPGGA,181555.000,6544.5047,N,01623.5961,W,1,09,1.0,364.6,M,59.7,M,,0000*4F
$GPGSA,A,3,22,03,09,19,27,32,28,01,11,,,,1.9,1.0,1.6*31
$GPRMC,181555.000,A,6544.5047,N,01623.5961,W,42.52,46.68,020912,,,A*7C
$GPGGA,181556.000,6544.5127,N,01623.5750,W,1,08,1.1,364.9,M,59.7,M,,0000*48
$GPGSA,A,3,22,09,19,27,32,28,01,11,,,,,2.1,1.1,1.8*36
$GPRMC,181556.000,A,6544.5127,N,01623.5750,W,42.61,47.39,020912,,,A*71
$GPGGA,181557.000,6544.5205,N,01623.5536,W,1,09,1.0,365.1,M,59.7,M,,0000*41
$GPGSA,A,3,22,14,09,19,27,32,28,01,11,,,,2.0,1.0,1.8*33
$GPGSV,3,1,12,11,68,202,26,01,54,229,19,19,44,138,43,28,42,291,34*77
$GPGSV,3,2,12,22,36,063,38,32,21,176,35,14,19,087,37,27,18,358,26*74
$GPGSV,3,3,12,09,13,012,21,03,12,138,,17,09,294,30,18,06,036,20*70
$GPRMC,181557.000,A,6544.5205,N,01623.5536,W,42.56,48.27,020912,,,A*75
$GPGGA,181558.000,6544.5281,N,01623.5319,W,1,09,1.0,365.4,M,59.7,M,,0000*4C
$GPGSA,A,3,22,14,09,19,27,32,28,01,11,,,,2.0,1.0,1.8*33
$GPRMC,181558.000,A,6544.5281,N,01623.5319,W,42.59,49.34,020912,,,A*71
$GPGGA,181559.000,6544.5357,N,01623.5100,W,1,09,1.0,365.6,M,59.7,M,,0000*4F
$GPGSA,A,3,22,14,09,19,27,32,28,01,11,,,,2.0,1.0,1.8*33
$GPRMC,181559.000,A,6544.5357,N,01623.5100,W,42.59,49.94,020912,,,A*7A
$GPGGA,181600.000,6544.5432,N,01623.4881,W,1,09,1.0,365.9,M,59.7,M,,0000*4A
$GPGSA,A,3,22,14,09,19,27,32,28,01,11,,,,2.0,1.0,1.8*33
$GPRMC,181600.000,A,6544.5432,N,01623.4881,W,42.46,50.02,020912,,,A*79
$GPGGA,181601.000,6544.5507,N,01623.4663,W,1,09,1.0,366.1,M,59.7,M,,0000*45
$GPGSA,A,3,22,14,09,19,27,32,28,01,11,,,,2.0,1.0,1.8*33
$GPRMC,181601.000,A,6544.5507,N,01623.4663,W,42.42,49.96,020912,,,A*7C
$GPGGA,181602.000,6544.5582,N,01623.4445,W,1,09,1.0,366.4,M,59.7,M,,0000*48
$GPGSA,A,3,22,14,09,19,27,32,28,01,11,,,,2.0,1.0,1.8*33
$GPGSV,3,1,12,11,68,202,31,01,54,229,27,19,44,138,44,28,42,291,33*7C
$GPGSV,3,2,12,22,36,063,38,32,21,176,35,14,19,087,36,27,18,358,27*74
$GPGSV,3,3,12,09,13,012,26,03,12,138,,17,09,294,34,18,06,036,26*75
$GPRMC,181602.000,A,6544.5582,N,01623.4445,W,42.45,49.79,020912,,,A*72
$GPGGA,181603.000,6544.5658,N,01623.4228,W,1,09,1.0,366.6,M,59.7,M,,0000*42
$GPGSA,A,3,22,14,09,19,27,32,28,01,11,,,,2.0,1.0,1.8*33
$GPRMC,181603.000,A,6544.5658,N,01623.4228,W,42.49,49.40,020912,,,A*7C
$GPGGA,181604.000,6544.5735,N,01623.4012,W,1,09,1.0,366.8,M,59.7,M,,0000*4A
$GPGSA,A,3,22,14,09,19,27,32,28,01,11,,,,2.0,1.0,1.8*33
$GPRMC,181604.000,A,6544.5735,N,01623.4012,W,42.61,48.81,020912,,,A*7C
$GPGGA,181605.000,6544.5813,N,01623.3799,W,1,09,1.0,367.0,M,59.7,M,,0000*4A
$GPGSA,A,3,22,14,09,19,27,32,28,01,11,,,,2.0,1.0,1.8*33
$GPRMC,181605.000,A,6544.5813,N,01623.3799,W,42.65,47.80,020912,,,A*7F
$GPGGA,181606.000,6544.5894,N,01623.3592,W,1,09,1.0,367.2,M,59.7,M,,0000*4D
$GPGSA,A,3,22,14,09,19,27,32,28,01,11,,,,2.0,1.0,1.8*33
$GPRMC,181606.000,A,6544.5894,N,01623.3592,W,42.61,46.39,020912,,,A*7D
$GPGGA,181607.000,6544.5977,N,01623.3391,W,1,09,1.0,367.3,M,59.7,M,,0000*44
$GPGSA,A,3,22,14,09,19,27,32,28,01,11,,,,2.0,1.0,1.8*33
$GPGSV,3,1,12,11,68,202,32,01,54,229,28,19,44,138,43,28,42,291,33*77
$GPGSV,3,2,12,22,36,062,37,32,21,176,32,14,19,087,35,27,18,358,21*78
$GPGSV,3,3,12,09,13,012,26,03,12,138,,17,09,294,28,18,06,036,29*77
$GPRMC,181607.000,A,6544.5977,N,01623.3391,W,42.59,44.24,020912,,,A*70
$GPGGA,181608.000,6544.6064,N,01623.3198,W,1,09,1.0,367.3,M,59.7,M,,0000*48
$GPGSA,A,3,22,14,09,19,27,32,28,01,11,,,,2.0,1.0,1.8*33
$GPRMC,181608.000,A,6544.6064,N,01623.3198,W,42.53,42.33,020912,,,A*76
$GPGGA,181609.000,6544.6152,N,01623.3011,W,1,09,1.0,367.3,M,59.7,M,,0000*4D
$GPGSA,A,3,22,14,09,19,27,32,28,01,11,,,,2.0,1.0,1.8*33
$GPRMC,181609.000,A,6544.6152,N,01623.3011,W,42.50,40.86,020912,,,A*7C
$GPGGA,181610.000,6544.6243,N,01623.2829,W,1,09,1.0,367.2,M,59.7,M,,0000*45
$GPGSA,A,3,22,14,09,19,27,32,28,01,11,,,,2.0,1.0,1.8*33
$GPRMC,181610.000,A,6544.6243,N,01623.2829,W,42.66,39.17,020912,,,A*76
$GPGGA,181611.000,6544.6336,N,01623.2653,W,1,09,1.0,367.1,M,59.7,M,,0000*47
$GPGSA,A,3,22,14,09,19,27,32,28,01,11,,,,2.0,1.0,1.8*33
$GPRMC,181611.000,A,6544.6336,N,01623.2653,W,42.81,37.44,020912,,,A*76
$GPGGA,181612.000,6544.6432,N,01623.2486,W,1,09,1.0,367.1,M,59.7,M,,0000*4D
$GPGSA,A,3,22,14,09,19,27,32,28,01,11,,,,2.0,1.0,1.8*33
$GPGSV,3,1,12,11,68,202,27,01,54,229,26,19,44,138,43,28,42,291,34*7A
$GPGSV,3,2,12,22,36,062,31,32,21,176,30,14,19,087,29,27,18,358,30*71
$GPGSV,3,3,12,09,13,012,33,03,12,138,,17,09,294,33,18,06,036,32*73
$GPRMC,181612.000,A,6544.6432,N,01623.2486,W,42.71,35.33,020912,,,A*71
$GPGGA,181613.000,6544.6530,N,01623.2327,W,1,09,1.0,367.2,M,59.7,M,,0000*40
$GPGSA,A,3,22,14,09,19,27,32,28,01,11,,,,2.0,1.0,1.8*33
$GPRMC,181613.000,A,6544.6530,N,01623.2327,W,42.83,33.45,020912,,,A*75
$GPGGA,181614.000,6544.6630,N,01623.2174,W,1,09,1.0,367.2,M,59.7,M,,0000*40
$GPGSA,A,3,22,14,09,19,27,32,28,01,11,,,,2.0,1.0,1.8*33
$GPRMC,181614.000,A,6544.6630,N,01623.2174,W,42.85,31.77,020912,,,A*70
$GPGGA,181615.000,6544.6732,N,01623.2029,W,1,09,1.0,367.2,M,59.7,M,,0000*4B
$GPGSA,A,3,22,14,09,19,27,32,28,01,11,,,,2.0,1.0,1.8*33
$GPRMC,181615.000,A,6544.6732,N,01623.2029,W,42.80,29.85,020912,,,A*7A
$GPGGA,181616.000,6544.6836,N,01623.1892,W,1,08,1.1,367.3,M,59.7,M,,0000*49
$GPGSA,A,3,14,09,19,27,32,28,01,11,,,,,2.3,1.1,2.0*3A
$GPRMC,181616.000,A,6544.6836,N,01623.1892,W,42.75,28.29,020912,,,A*74
$GPGGA,181617.000,6544.6941,N,01623.1762,W,1,08,1.1,367.3,M,59.7,M,,0000*49
$GPGSA,A,3,14,09,19,27,32,28,01,11,,,,,2.3,1.1,2.0*3A
$GPGSV,3,1,12,11,68,202,29,01,54,229,29,19,44,138,37,28,42,291,29*74
$GPGSV,3,2,12,22,36,062,,32,21,176,28,14,19,087,30,27,18,358,30*72
$GPGSV,3,3,12,09,13,012,30,03,12,138,,17,09,294,24,18,06,036,30*74
$GPRMC,181617.000,A,6544.6941,N,01623.1762,W,42.68,26.62,020912,,,A*79
$GPGGA,181618.000,6544.7048,N,01623.1642,W,1,09,1.1,367.2,M,59.7,M,,0000*44
$GPGSA,A,3,03,14,09,19,27,32,28,01,11,,,,2.1,1.1,1.8*30
$GPRMC,181618.000,A,6544.7048,N,01623.1642,W,42.71,24.65,020912,,,A*79
$GPGGA,181619.000,6544.7156,N,01623.1529,W,1,09,1.1,367.2,M,59.7,M,,0000*45
$GPGSA,A,3,03,14,09,19,27,32,28,01,11,,,,2.1,1.1,1.8*30
$GPRMC,181619.000,A,6544.7156,N,01623.1529,W,42.64,22.93,020912,,,A*73
$GPGGA,181620.000,6544.7266,N,01623.1425,W,1,09,1.1,367.3,M,59.7,M,,0000*43
$GPGSA,A,3,03,14,09,19,27,32,28,01,11,,,,2.1,1.1,1.8*30
$GPRMC,181620.000,A,6544.7266,N,01623.1425,W,42.52,21.13,020912,,,A*7A
$GPGGA,181621.000,6544.7376,N,01623.1329,W,1,09,1.1,367.4,M,59.7,M,,0000*4E
$GPGSA,A,3,03,14,09,19,27,32,28,01,11,,,,2.1,1.1,1.8*30
$GPRMC,181621.000,A,6544.7376,N,01623.1329,W,42.49,19.39,020912,,,A*79
$GPGGA,181622.000,6544.7488,N,01623.1242,W,1,09,1.1,367.4,M,59.7,M,,0000*47
$GPGSA,A,3,03,14,09,19,27,32,28,01,11,,,,2.1,1.1,1.8*30
$GPGSV,3,1,12,11,68,202,28,01,54,229,29,19,44,138,38,28,42,291,31*73
$GPGSV,3,2,12,22,36,062,,32,21,176,28,14,19,087,30,27,18,358,36*74
$GPGSV,3,3,12,09,13,012,34,03,12,138,27,17,09,294,32,18,06,036,32*70
$GPRMC,181622.000,A,6544.7488,N,01623.1242,W,42.46,17.53,020912,,,A*7D
$GPGGA,181623.000,6544.7601,N,01623.1162,W,1,09,1.1,367.5,M,59.7,M,,0000*45
$GPGSA,A,3,03,14,09,19,27,32,28,01,11,,,,2.1,1.1,1.8*30
$GPRMC,181623.000,A,6544.7601,N,01623.1162,W,42.59,16.02,020912,,,A*75
$GPGGA,181624.000,6544.7715,N,01623.1090,W,1,09,1.1,367.7,M,59.7,M,,0000*48
$GPGSA,A,3,03,14,09,19,27,32,28,01,11,,,,2.1,1.1,1.8*30
$GPRMC,181624.000,A,6544.7715,N,01623.1090,W,42.58,14.29,020912,,,A*70
$GPGGA,181625.000,6544.7830,N,01623.1027,W,1,09,1.1,367.8,M,59.7,M,,0000*42
$GPGSA,A,3,03,14,09,19,27,32,28,01,11,,,,2.1,1.1,1.8*30
$GPRMC,181625.000,A,6544.7830,N,01623.1027,W,42.59,12.45,020912,,,A*78
$GPGGA,181626.000,6544.7946,N,01623.0975,W,1,09,1.1,367.9,M,59.7,M,,0000*4F
$GPGSA,A,3,03,14,09,19,27,32,28,01,11,,,,2.1,1.1,1.8*30
$GPRMC,181626.000,A,6544.7946,N,01623.0975,W,42.48,10.32,020912,,,A*76
$GPGGA,181627.000,6544.8062,N,01623.0932,W,1,09,1.1,368.1,M,59.7,M,,0000*4A
$GPGSA,A,3,03,14,09,19,27,32,28,01,11,,,,2.1,1.1,1.8*30
$GPGSV,3,1,12,11,68,202,23,01,54,229,27,19,44,138,39,28,42,291,34*72
$GPGSV,3,2,12,22,36,062,,32,21,176,19,14,19,087,25,27,18,358,27*72
$GPGSV,3,3,12,09,13,012,34,03,12,138,25,17,09,294,28,18,06,036,28*72
$GPRMC,181627.000,A,6544.8062,N,01623.0932,W,42.44,8.43,020912,,,A*47
$GPGGA,181628.000,6544.8179,N,01623.0898,W,1,09,1.1,368.4,M,59.7,M,,0000*4A
$GPGSA,A,3,03,14,09,19,27,32,28,01,11,,,,2.1,1.1,1.8*30
$GPRMC,181628.000,A,6544.8179,N,01623.0898,W,42.67,6.66,020912,,,A*4A
$GPGGA,181629.000,6544.8297,N,01623.0872,W,1,09,1.1,368.6,M,59.7,M,,0000*4E
$GPGSA,A,3,03,14,09,19,27,32,28,01,11,,,,2.1,1.1,1.8*30
$GPRMC,181629.000,A,6544.8297,N,01623.0872,W,42.83,5.08,020912,,,A*4D
$GPGGA,181630.000,6544.8415,N,01623.0855,W,1,09,1.1,368.8,M,59.7,M,,0000*41
$GPGSA,A,3,03,14,09,19,27,32,28,01,11,,,,2.1,1.1,1.8*30
$GPRMC,181630.000,A,6544.8415,N,01623.0855,W,42.71,3.32,020912,,,A*4E
$GPGGA,181631.000,6544.8533,N,01623.0846,W,1,09,1.1,368.9,M,59.7,M,,0000*46
$GPGSA,A,3,03,14,09,19,27,32,28,01,11,,,,2.1,1.1,1.8*30
$GPRMC,181631.000,A,6544.8533,N,01623.0846,W,42.67,1.64,020912,,,A*4E
$GPGGA,181632.000,6544.8651,N,01623.0845,W,1,09,1.1,369.0,M,59.7,M,,0000*49
$GPGSA,A,3,03,14,09,19,27,32,28,01,11,,,,2.1,1.1,1.8*30
$GPGSV,3,1,12,11,68,202,31,01,54,229,36,19,44,138,39,28,42,291,33*76
$GPGSV,3,2,12,22,36,062,,32,21,176,27,14,19,087,34,27,18,358,34*7D
$GPGSV,3,3,12,09,13,012,34,03,12,138,25,17,09,294,24,18,06,036,29*7F
$GPRMC,181632.000,A,6544.8651,N,01623.0845,W,42.62,0.15,020912,,,A*4B
$GPGGA,181633.000,6544.8769,N,01623.0849,W,1,09,1.1,369.1,M,59.7,M,,0000*4F
$GPGSA,A,3,03,14,09,19,27,32,28,01,11,,,,2.1,1.1,1.8*30
$GPRMC,181633.000,A,6544.8769,N,01623.0849,W,42.61,359.17,020912,,,A*42
$GPGGA,181634.000,6544.8886,N,01623.0856,W,1,09,1.1,369.1,M,59.7,M,,0000*48
$GPGSA,A,3,03,14,09,19,27,32,28,01,11,,,,2.1,1.1,1.8*30
$GPRMC,181634.000,A,6544.8886,N,01623.0856,W,42.61,358.43,020912,,,A*45
$GPGGA,181635.000,6544.9004,N,01623.0866,W,1,09,1.1,369.2,M,59.7,M,,0000*4A
$GPGSA,A,3,03,14,09,19,27,32,28,01,11,,,,2.1,1.1,1.8*30
$GPRMC,181635.000,A,6544.9004,N,01623.0866,W,42.62,358.11,020912,,,A*40
$GPGGA,181636.000,6544.9122,N,01623.0876,W,1,09,1.1,369.2,M,59.7,M,,0000*4D
$GPGSA,A,3,03,14,09,19,27,32,28,01,11,,,,2.1,1.1,1.8*30
$GPRMC,181636.000,A,6544.9122,N,01623.0876,W,42.60,358.03,020912,,,A*46
$GPGGA,181637.000,6544.9240,N,01623.0885,W,1,09,1.1,369.2,M,59.7,M,,0000*47
$GPGSA,A,3,03,14,09,19,27,32,28,01,11,,,,2.1,1.1,1.8*30
$GPGSV,3,1,12,11,68,202,32,01,54,229,37,19,44,138,40,28,42,290,26*7F
$GPGSV,3,2,12,22,36,062,,32,21,176,30,14,19,087,34,27,18,357,33*73
$GPGSV,3,3,12,09,13,011,34,03,12,138,30,17,09,294,30,18,06,036,28*7C
$GPRMC,181637.000,A,6544.9240,N,01623.0885,W,42.58,358.16,020912,,,A*43
$GPGGA,181638.000,6544.9358,N,01623.0895,W,1,09,1.1,369.2,M,59.7,M,,0000*41
$GPGSA,A,3,03,14,09,19,27,32,28,01,11,,,,2.1,1.1,1.8*30
$GPRMC,181638.000,A,6544.9358,N,01623.0895,W,42.47,358.07,020912,,,A*4B
$GPGGA,181639.000,6544.9475,N,01623.0905,W,1,09,1.1,369.2,M,59.7,M,,0000*40
$GPGSA,A,3,03,14,09,19,27,32,28,01,11,,,,2.1,1.1,1.8*30
$GPRMC,181639.000,A,6544.9475,N,01623.0905,W,42.34,358.05,020912,,,A*4C
$GPGGA,181640.000,6544.9592,N,01623.0914,W,1,09,1.1,369.2,M,59.7,M,,0000*46
$GPGSA,A,3,03,14,09,19,27,32,28,01,11,,,,2.1,1.1,1.8*30
$GPRMC,181640.000,A,6544.9592,N,01623.0914,W,42.27,358.20,020912,,,A*4F
$GPGGA,181641.000,6544.9709,N,01623.0922,W,1,09,1.1,369.3,M,59.7,M,,0000*43
$GPGSA,A,3,03,14,09,19,27,32,28,01,11,,,,2.1,1.1,1.8*30
$GPRMC,181641.000,A,6544.9709,N,01623.0922,W,42.21,358.44,020912,,,A*4F
$GPGGA,181642.000,6544.9826,N,01623.0930,W,1,09,1.1,369.4,M,59.7,M,,0000*46
$GPGSA,A,3,03,14,09,19,27,32,28,01,11,,,,2.1,1.1,1.8*30
$GPGSV,3,1,12,11,68,202,33,01,54,229,34,19,44,138,40,28,42,290,33*79
$GPGSV,3,2,12,22,36,062,,32,21,176,30,14,19,087,33,27,18,357,33*74
$GPGSV,3,3,12,09,13,011,33,03,12,138,31,17,09,294,31,18,06,036,29*7A
$GPRMC,181642.000,A,6544.9826,N,01623.0930,W,42.17,358.64,020912,,,A*4A
$GPGGA,181643.000,6544.9943,N,01623.0938,W,1,09,1.1,369.5,M,59.7,M,,0000*4C
$GPGSA,A,3,03,14,09,19,27,32,28,01,11,,,,2.1,1.1,1.8*30
$GPRMC,181643.000,A,6544.9943,N,01623.0938,W,42.17,358.54,020912,,,A*42
$GPGGA,181644.000,6545.0060,N,01623.0946,W,1,09,1.1,369.6,M,59.7,M,,0000*41
$GPGSA,A,3,03,14,09,19,27,32,28,01,11,,,,2.1,1.1,1.8*30
$GPRMC,181644.000,A,6545.0060,N,01623.0946,W,42.18,358.65,020912,,,A*41
$GPGGA,181645.000,6545.0177,N,01623.0951,W,1,09,1.1,369.8,M,59.7,M,,0000*4F
$GPGSA,A,3,03,14,09,19,27,32,28,01,11,,,,2.1,1.1,1.8*30
$GPRMC,181645.000,A,6545.0177,N,01623.0951,W,42.20,359.14,020912,,,A*4D
$GPGGA,181646.000,6545.0294,N,01623.0954,W,1,09,1.1,370.0,M,59.7,M,,0000*47
$GPGSA,A,3,03,14,09,19,27,32,28,01,11,,,,2.1,1.1,1.8*30
$GPRMC,181646.000,A,6545.0294,N,01623.0954,W,42.24,359.74,020912,,,A*47
$GPGGA,181647.000,6545.0412,N,01623.0954,W,1,09,1.1,370.2,M,59.7,M,,0000*4C
$GPGSA,A,3,03,14,09,19,27,32,28,01,11,,,,2.1,1.1,1.8*30
$GPGSV,3,1,12,11,68,201,33,01,54,229,32,19,43,138,40,28,42,290,35*7D
$GPGSV,3,2,12,22,36,062,,32,21,176,31,14,19,087,33,27,18,357,33*75
$GPGSV,3,3,12,09,13,011,34,03,12,138,32,17,09,294,24,18,06,036,29*7A
$GPRMC,181647.000,A,6545.0412,N,01623.0954,W,42.36,0.24,020912,,,A*47
$GPGGA,181648.000,6545.0529,N,01623.0951,W,1,09,1.1,370.4,M,59.7,M,,0000*49
$GPGSA,A,3,03,14,09,19,27,32,28,01,11,,,,2.1,1.1,1.8*30
$GPRMC,181648.000,A,6545.0529,N,01623.0951,W,42.42,0.91,020912,,,A*49
$GPGGA,181649.000,6545.0647,N,01623.0944,W,1,09,1.1,370.6,M,59.7,M,,0000*45
$GPGSA,A,3,03,14,09,19,27,32,28,01,11,,,,2.1,1.1,1.8*30
$GPRMC,181649.000,A,6545.0647,N,01623.0944,W,42.49,1.65,020912,,,A*46
$GPGGA,181650.000,6545.0765,N,01623.0935,W,1,09,1.1,370.8,M,59.7,M,,0000*44
$GPGSA,A,3,03,14,09,19,27,32,28,01,11,,,,2.1,1.1,1.8*30
$GPRMC,181650.000,A,6545.0765,N,01623.0935,W,42.51,2.29,020912,,,A*4B
$GPGGA,181651.000,6545.0883,N,01623.0922,W,1,09,1.1,371.0,M,59.7,M,,0000*4D
$GPGSA,A,3,03,14,09,19,27,32,28,01,11,,,,2.1,1.1,1.8*30
$GPRMC,181651.000,A,6545.0883,N,01623.0922,W,42.54,2.94,020912,,,A*48
$GPGGA,181652.000,6545.1001,N,01623.0905,W,1,09,1.1,371.1,M,59.7,M,,0000*49
$GPGSA,A,3,03,14,09,19,27,32,28,01,11,,,,2.1,1.1,1.8*30
$GPGSV,3,1,12,11,68,201,34,01,54,229,24,19,43,138,39,28,42,290,35*73
$GPGSV,3,2,12,22,36,062,,32,21,176,24,14,19,087,33,27,18,357,33*71
$GPGSV,3,3,12,09,13,011,31,03,12,138,27,17,09,294,27,18,06,036,29*78
$GPRMC,181652.000,A,6545.1001,N,01623.0905,W,42.57,3.73,020912,,,A*46
$GPGGA,181653.000,6545.1118,N,01623.0884,W,1,09,1.1,371.1,M,59.7,M,,0000*49
$GPGSA,A,3,03,14,09,19,27,32,28,01,11,,,,2.1,1.1,1.8*30
$GPRMC,181653.000,A,6545.1118,N,01623.0884,W,42.64,4.72,020912,,,A*40
$GPGGA,181654.000,6545.1236,N,01623.0856,W,1,09,1.1,371.1,M,59.7,M,,0000*4E
$GPGSA,A,3,03,14,09,19,27,32,28,01,11,,,,2.1,1.1,1.8*30
$GPRMC,181654.000,A,6545.1236,N,01623.0856,W,42.70,5.84,020912,,,A*4A
$GPGGA,181655.000,6545.1353,N,01623.0824,W,1,09,1.1,370.9,M,59.7,M,,0000*41
$GPGSA,A,3,03,14,09,19,27,32,28,01,11,,,,2.1,1.1,1.8*30
$GPRMC,181655.000,A,6545.1353,N,01623.0824,W,42.64,6.86,020912,,,A*48
$GPGGA,181656.000,6545.1469,N,01623.0788,W,1,09,1.1,370.7,M,59.7,M,,0000*4B
$GPGSA,A,3,03,14,09,19,27,32,28,01,11,,,,2.1,1.1,1.8*30
$GPRMC,181656.000,A,6545.1469,N,01623.0788,W,42.45,7.71,020912,,,A*46
$GPGGA,181657.000,6545.1586,N,01623.0748,W,1,09,1.1,370.3,M,59.7,M,,0000*42
$GPGSA,A,3,03,14,09,19,27,32,28,01,11,,,,2.1,1.1,1.8*30
$GPGSV,3,1,12,11,68,201,33,01,54,229,36,19,43,138,39,28,42,290,29*7A
$GPGSV,3,2,12,22,36,062,,32,21,176,21,14,19,087,33,27,18,357,25*73
$GPGSV,3,3,12,09,13,011,32,03,12,138,34,17,09,294,28,18,06,036,28*77
$GPRMC,181657.000,A,6545.1586,N,01623.0748,W,42.61,8.50,020912,,,A*41
$GPGGA,181658.000,6545.1702,N,01623.0704,W,1,09,1.1,370.0,M,59.7,M,,0000*48
$GPGSA,A,3,03,14,09,19,27,32,28,01,11,,,,2.1,1.1,1.8*30
$GPRMC,181658.000,A,6545.1702,N,01623.0704,W,42.62,9.26,020912,,,A*4B
$GPGGA,181659.000,6545.1818,N,01623.0656,W,1,09,1.1,369.7,M,59.7,M,,0000*44
$GPGSA,A,3,03,14,09,19,27,32,28,01,11,,,,2.1,1.1,1.8*30
$GPRMC,181659.000,A,6545.1818,N,01623.0656,W,42.54,10.04,020912,,,A*75
$GPGGA,181700.000,6545.1933,N,01623.0605,W,1,09,1.1,369.3,M,59.7,M,,0000*43
$GPGSA,A,3,03,14,09,19,27,32,28,01,11,,,,2.1,1.1,1.8*30
$GPRMC,181700.000,A,6545.1933,N,01623.0605,W,42.47,10.76,020912,,,A*71
$GPGGA,181701.000,6545.2049,N,01623.0549,W,1,09,1.1,368.9,M,59.7,M,,0000*45
$GPGSA,A,3,03,14,09,19,27,32,28,01,11,,,,2.1,1.1,1.8*30
$GPRMC,181701.000,A,6545.2049,N,01623.0549,W,42.79,11.49,020912,,,A*7C
$GPGGA,181702.000,6545.2165,N,01623.0488,W,1,09,1.1,368.5,M,59.7,M,,0000*49
$GPGSA,A,3,03,14,09,19,27,32,28,01,11,,,,2.1,1.1,1.8*30
$GPGSV,3,1,12,11,68,201,26,01,54,229,36,19,43,138,38,28,42,290,32*75
$GPGSV,3,2,12,22,36,062,,32,21,176,22,14,19,087,33,27,18,357,29*7C
$GPGSV,3,3,12,09,13,011,34,03,12,138,33,17,09,294,27,18,06,036,29*78
$GPRMC,181702.000,A,6545.2165,N,01623.0488,W,42.80,12.48,020912,,,A*78
$GPGGA,181703.000,6545.2280,N,01623.0423,W,1,09,1.1,368.1,M,59.7,M,,0000*45
$GPGSA,A,3,03,14,09,19,27,32,28,01,11,,,,2.1,1.1,1.8*30
$GPRMC,181703.000,A,6545.2280,N,01623.0423,W,42.83,13.36,020912,,,A*7B
$GPGGA,181704.000,6545.2395,N,01623.0354,W,1,09,1.1,367.8,M,59.7,M,,0000*46
$GPGSA,A,3,03,14,09,19,27,32,28,01,11,,,,2.1,1.1,1.8*30
$GPRMC,181704.000,A,6545.2395,N,01623.0354,W,42.75,14.03,020912,,,A*76
$GPGGA,181705.000,6545.2509,N,01623.0283,W,1,09,1.1,367.3,M,59.7,M,,0000*44
$GPGSA,A,3,03,14,09,19,27,32,28,01,11,,,,2.1,1.1,1.8*30
$GPRMC,181705.000,A,6545.2509,N,01623.0283,W,42.62,14.64,020912,,,A*78
$GPGGA,181706.000,6545.2623,N,01623.0208,W,1,09,1.1,366.9,M,59.7,M,,0000*44
$GPGSA,A,3,03,14,09,19,27,32,28,01,11,,,,2.1,1.1,1.8*30
$GPRMC,181706.000,A,6545.2623,N,01623.0208,W,42.59,15.44,020912,,,A*78
$GPGGA,181707.000,6545.2736,N,01623.0130,W,1,09,1.1,366.4,M,59.7,M,,0000*45
$GPGSA,A,3,03,14,09,19,27,32,28,01,11,,,,2.1,1.1,1.8*30
$GPGSV,3,1,12,11,68,201,25,01,54,229,35,19,43,138,37,28,42,290,21*78
$GPGSV,3,2,12,22,36,062,,32,21,176,23,14,19,087,33,27,18,357,34*71
$GPGSV,3,3,12,09,13,011,34,03,12,138,34,17,09,294,27,18,06,036,28*7E
$GPRMC,181707.000,A,6545.2736,N,01623.0130,W,42.60,16.03,020912,,,A*7E
$GPGGA,181708.000,6545.2849,N,01623.0048,W,1,09,1.1,365.9,M,59.7,M,,0000*4D
$GPGSA,A,3,03,14,09,19,27,32,28,01,11,,,,2.1,1.1,1.8*30
$GPRMC,181708.000,A,6545.2849,N,01623.0048,W,42.60,16.76,020912,,,A*7A
$GPGGA,181709.000,6545.2962,N,01622.9964,W,1,09,1.1,365.4,M,59.7,M,,0000*46
$GPGSA,A,3,03,14,09,19,27,32,28,01,11,,,,2.1,1.1,1.8*30
$GPRMC,181709.000,A,6545.2962,N,01622.9964,W,42.53,17.32,020912,,,A*7D
$GPGGA,181710.000,6545.3074,N,01622.9880,W,1,09,1.1,365.0,M,59.7,M,,0000*4E
$GPGSA,A,3,03,14,09,19,27,32,28,01,11,,,,2.1,1.1,1.8*30
$GPRMC,181710.000,A,6545.3074,N,01622.9880,W,42.52,17.08,020912,,,A*79
$GPGGA,181711.000,6545.3187,N,01622.9799,W,1,09,1.1,364.5,M,59.7,M,,0000*41
$GPGSA,A,3,03,14,09,19,27,32,28,01,11,,,,2.1,1.1,1.8*30
$GPRMC,181711.000,A,6545.3187,N,01622.9799,W,42.51,16.65,020912,,,A*7B
$GPGGA,181712.000,6545.3300,N,01622.9719,W,1,09,1.1,364.1,M,59.7,M,,0000*43
$GPGSA,A,3,03,14,09,19,27,32,28,01,11,,,,2.1,1.1,1.8*30
$GPGSV,3,1,12,11,68,201,26,01,54,229,29,19,43,138,36,28,42,290,34*73
$GPGSV,3,2,12,22,36,062,,32,21,176,28,14,19,087,24,27,18,357,35*7D
$GPGSV,3,3,12,09,13,011,34,03,12,138,31,17,09,294,35,18,06,036,20*70
$GPRMC,181712.000,A,6545.3300,N,01622.9719,W,42.55,16.17,020912,,,A*7C
$GPGGA,181713.000,6545.3414,N,01622.9641,W,1,09,1.1,363.7,M,59.7,M,,0000*4D
$GPGSA,A,3,03,14,09,19,27,32,28,01,11,,,,2.1,1.1,1.8*30
$GPRMC,181713.000,A,6545.3414,N,01622.9641,W,42.77,15.69,020912,,,A*79
$GPGGA,181714.000,6545.3528,N,01622.9568,W,1,09,1.1,363.3,M,59.7,M,,0000*48
$GPGSA,A,3,03,14,09,19,27,32,28,01,11,,,,2.1,1.1,1.8*30
$GPRMC,181714.000,A,6545.3528,N,01622.9568,W,42.76,14.54,020912,,,A*76
$GPGGA,181715.000,6545.3644,N,01622.9505,W,1,09,1.1,362.9,M,59.7,M,,0000*40
$GPGSA,A,3,03,14,09,19,27,32,28,01,11,,,,2.1,1.1,1.8*30
$GPRMC,181715.000,A,6545.3644,N,01622.9505,W,42.75,12.69,020912,,,A*7E
$GPGGA,181716.000,6545.3760,N,01622.9449,W,1,09,1.1,362.8,M,59.7,M,,0000*4C
$GPGSA,A,3,03,14,09,19,27,32,28,01,11,,,,2.1,1.1,1.8*30
$GPRMC,181716.000,A,6545.3760,N,01622.9449,W,42.80,10.79,020912,,,A*7A
$GPGGA,181717.000,6545.3878,N,01622.9406,W,1,08,1.4,362.6,M,59.7,M,,0000*4A
$GPGSA,A,3,03,14,09,19,27,28,01,11,,,,,2.7,1.4,2.3*3A
$GPGSV,3,1,12,11,68,201,24,01,54,229,23,19,43,138,38,28,42,290,35*74
$GPGSV,3,2,12,22,36,062,,32,21,176,15,14,19,087,29,27,18,357,28*72
$GPGSV,3,3,12,09,13,011,25,03,12,138,29,17,09,294,29,18,06,036,30*75
$GPRMC,181717.000,A,6545.3878,N,01622.9406,W,42.86,8.28,020912,,,A*4D
$GPGGA,181718.000,6545.3996,N,01622.9373,W,1,09,1.1,362.3,M,59.7,M,,0000*40
$GPGSA,A,3,03,14,09,19,27,32,28,01,11,,,,2.1,1.1,1.8*30
$GPRMC,181718.000,A,6545.3996,N,01622.9373,W,42.89,6.47,020912,,,A*4E
$GPGGA,181719.000,6545.4114,N,01622.9350,W,1,09,1.1,362.0,M,59.7,M,,0000*46
$GPGSA,A,3,03,14,09,19,27,32,28,01,11,,,,2.1,1.1,1.8*30
$GPRMC,181719.000,A,6545.4114,N,01622.9350,W,42.77,4.49,020912,,,A*46
$GPGGA,181720.000,6545.4232,N,01622.9335,W,1,09,1.1,361.7,M,59.7,M,,0000*4C
$GPGSA,A,3,03,14,09,19,27,32,28,01,11,,,,2.1,1.1,1.8*30
$GPRMC,181720.000,A,6545.4232,N,01622.9335,W,42.72,2.77,020912,,,A*46
$GPGGA,181721.000,6545.4350,N,01622.9328,W,1,09,1.1,361.4,M,59.7,M,,0000*47
$GPGSA,A,3,03,14,09,19,27,32,28,01,11,,,,2.1,1.1,1.8*30
$GPRMC,181721.000,A,6545.4350,N,01622.9328,W,42.72,1.29,020912,,,A*46
$GPGGA,181722.000,6545.4469,N,01622.9330,W,1,09,1.1,361.2,M,59.7,M,,0000*46
$GPGSA,A,3,03,14,09,19,27,32,28,01,11,,,,2.1,1.1,1.8*30
$GPGSV,3,1,12,11,68,201,26,01,55,229,33,19,43,138,39,28,42,290,31*73
$GPGSV,3,2,12,22,35,062,,32,22,176,29,14,19,087,34,27,18,357,35*7D
$GPGSV,3,3,12,09,13,011,36,03,12,138,30,17,09,294,27,18,05,036,31*73
$GPRMC,181722.000,A,6545.4469,N,01622.9330,W,42.69,359.48,020912,,,A*42
$GPGGA,181723.000,6545.4587,N,01622.9341,W,1,09,1.1,361.0,M,59.7,M,,0000*42
$GPGSA,A,3,03,14,09,19,27,32,28,01,11,,,,2.1,1.1,1.8*30
$GPRMC,181723.000,A,6545.4587,N,01622.9341,W,42.71,357.58,020912,,,A*42
$GPGGA,181724.000,6545.4705,N,01622.9364,W,1,09,1.1,361.0,M,59.7,M,,0000*4A
$GPGSA,A,3,03,14,09,19,27,32,28,01,11,,,,2.1,1.1,1.8*30
$GPRMC,181724.000,A,6545.4705,N,01622.9364,W,42.64,355.26,020912,,,A*45
$GPGGA,181725.000,6545.4823,N,01622.9397,W,1,09,1.1,361.0,M,59.7,M,,0000*4C
$GPGSA,A,3,03,14,09,19,27,32,28,01,11,,,,2.1,1.1,1.8*30
$GPRMC,181725.000,A,6545.4823,N,01622.9397,W,42.58,353.19,020912,,,A*46
$GPGGA,181726.000,6545.4939,N,01622.9439,W,1,09,1.1,361.0,M,59.7,M,,0000*46
$GPGSA,A,3,03,14,09,19,27,32,28,01,11,,,,2.1,1.1,1.8*30
$GPRMC,181726.000,A,6545.4939,N,01622.9439,W,42.51,351.30,020912,,,A*4C
$GPGGA,181727.000,6545.5055,N,01622.9491,W,1,09,1.1,361.0,M,59.7,M,,0000*47
$GPGSA,A,3,03,14,09,19,27,32,28,01,11,,,,2.1,1.1,1.8*30
$GPGSV,3,1,12,11,68,201,33,01,55,229,26,19,43,138,32,28,42,290,32*7B
$GPGSV,3,2,12,22,35,062,,32,22,176,19,14,19,087,29,27,18,357,33*74
$GPGSV,3,3,12,09,13,011,30,03,12,138,28,17,09,294,30,18,05,036,24*7E
$GPRMC,181727.000,A,6545.5055,N,01622.9491,W,42.49,349.44,020912,,,A*4E
$GPGGA,181728.000,6545.5170,N,01622.9552,W,1,07,1.3,361.1,M,59.7,M,,0000*4D
$GPGSA,A,3,14,09,19,27,32,01,11,,,,,,2.4,1.3,2.0*35
$GPRMC,181728.000,A,6545.5170,N,01622.9552,W,42.36,347.72,020912,,,A*4A
$GPGGA,181729.000,6545.5284,N,01622.9623,W,1,09,1.0,361.1,M,59.7,M,,0000*4C
$GPGSA,A,3,22,14,09,19,27,32,28,01,11,,,,2.1,1.0,1.8*32
$GPRMC,181729.000,A,6545.5284,N,01622.9623,W,42.21,345.64,020912,,,A*45
$GPGGA,181730.000,6545.5396,N,01622.9702,W,1,09,1.0,361.2,M,59.7,M,,0000*47
$GPGSA,A,3,22,14,09,19,27,32,28,01,11,,,,2.1,1.0,1.8*32
$GPRMC,181730.000,A,6545.5396,N,01622.9702,W,42.23,343.83,020912,,,A*40
$GPGGA,181731.000,6545.5507,N,01622.9792,W,1,09,1.0,361.3,M,59.7,M,,0000*40
$GPGSA,A,3,22,14,09,19,27,32,28,01,11,,,,2.1,1.0,1.8*32
$GPRMC,181731.000,A,6545.5507,N,01622.9792,W,42.27,341.83,020912,,,A*40
$GPGGA,181732.000,6545.5617,N,01622.9892,W,1,09,1.0,361.5,M,59.7,M,,0000*48
$GPGSA,A,3,22,14,09,19,27,32,28,01,11,,,,2.1,1.0,1.8*32
$GPGSV,3,1,12,11,68,201,33,01,55,229,26,19,43,138,23,28,42,290,27*7F
$GPGSV,3,2,12,22,35,062,40,32,22,176,21,14,19,087,28,27,18,357,22*7A
$GPGSV,3,3,12,09,13,011,34,03,12,138,,17,09,294,32,18,05,036,27*71
$GPRMC,181732.000,A,6545.5617,N,01622.9892,W,42.46,339.77,020912,,,A*4D
$GPGGA,181733.000,6545.5725,N,01623.0001,W,1,09,1.0,361.6,M,59.7,M,,0000*40
$GPGSA,A,3,22,14,09,19,27,32,28,01,11,,,,2.1,1.0,1.8*32
$GPRMC,181733.000,A,6545.5725,N,01623.0001,W,42.32,337.86,020912,,,A*45
$GPGGA,181734.000,6545.5833,N,01623.0117,W,1,09,1.0,361.9,M,59.7,M,,0000*46
$GPGSA,A,3,22,14,09,19,27,32,28,01,11,,,,2.1,1.0,1.8*32
$GPRMC,181734.000,A,6545.5833,N,01623.0117,W,42.49,336.26,020912,,,A*4B
$GPGGA,181735.000,6545.5939,N,01623.0242,W,1,09,1.0,362.3,M,59.7,M,,0000*46
$GPGSA,A,3,22,14,09,19,27,32,28,01,11,,,,2.1,1.0,1.8*32
$GPRMC,181735.000,A,6545.5939,N,01623.0242,W,42.42,334.21,020912,,,A*4C
$GPGGA,181736.000,6545.6043,N,01623.0377,W,1,09,1.0,362.8,M,59.7,M,,0000*4E
$GPGSA,A,3,22,14,09,19,27,32,28,01,11,,,,2.1,1.0,1.8*32
$GPRMC,181736.000,A,6545.6043,N,01623.0377,W,42.57,332.14,020912,,,A*4B
$GPGGA,181737.000,6545.6146,N,01623.0519,W,1,09,1.0,363.4,M,59.7,M,,0000*48
$GPGSA,A,3,22,14,09,19,27,32,28,01,11,,,,2.1,1.0,1.8*32
$GPGSV,3,1,12,11,68,201,33,01,55,229,19,19,43,138,20,28,42,290,29*7E
$GPGSV,3,2,12,22,35,062,33,32,22,176,24,14,19,087,26,27,18,357,33*75
$GPGSV,3,3,12,09,13,011,34,03,12,138,,17,09,294,25,18,05,036,27*77
$GPRMC,181737.000,A,6545.6146,N,01623.0519,W,42.65,330.43,020912,,,A*41
$GPGGA,181738.000,6545.6247,N,01623.0668,W,1,09,1.0,363.9,M,59.7,M,,0000*4D
$GPGSA,A,3,22,14,09,19,27,32,28,01,11,,,,2.1,1.0,1.8*32
$GPRMC,181738.000,A,6545.6247,N,01623.0668,W,42.54,328.80,020912,,,A*4D
$GPGGA,181739.000,6545.6347,N,01623.0822,W,1,09,1.0,364.5,M,59.7,M,,0000*46
$GPGSA,A,3,22,14,09,19,27,32,28,01,11,,,,2.1,1.0,1.8*32
$GPRMC,181739.000,A,6545.6347,N,01623.0822,W,42.51,327.68,020912,,,A*41
$GPGGA,181740.000,6545.6447,N,01623.0978,W,1,08,1.0,364.9,M,59.7,M,,0000*4C
$GPGSA,A,3,22,14,09,27,32,28,01,11,,,,,2.1,1.0,1.9*3B
$GPRMC,181740.000,A,6545.6447,N,01623.0978,W,42.60,327.38,020912,,,A*41
$GPGGA,181741.000,6545.6547,N,01623.1133,W,1,09,1.0,365.3,M,59.7,M,,0000*40
$GPGSA,A,3,22,14,09,19,27,32,28,01,11,,,,2.1,1.0,1.8*32
$GPRMC,181741.000,A,6545.6547,N,01623.1133,W,42.69,327.80,020912,,,A*4D
$GPGGA,181742.000,6545.6647,N,01623.1286,W,1,09,1.0,365.6,M,59.7,M,,0000*48
$GPGSA,A,3,22,14,09,19,27,32,28,01,11,,,,2.1,1.0,1.8*32
$GPGSV,3,1,12,11,68,201,33,01,55,229,33,19,43,138,33,28,42,290,29*74
$GPGSV,3,2,12,22,35,062,36,32,22,176,22,14,19,087,28,27,18,357,33*78
$GPGSV,3,3,12,09,13,011,32,03,12,138,,17,09,294,29,18,05,036,31*7A
$GPRMC,181742.000,A,6545.6647,N,01623.1286,W,42.61,328.12,020912,,,A*4C
$GPGGA,181743.000,6545.6748,N,01623.1440,W,1,09,1.0,366.0,M,59.7,M,,0000*4E
$GPGSA,A,3,22,14,09,19,27,32,28,01,11,,,,2.1,1.0,1.8*32
$GPRMC,181743.000,A,6545.6748,N,01623.1440,W,42.65,328.20,020912,,,A*4A
$GPGGA,181744.000,6545.6849,N,01623.1593,W,1,09,1.0,366.3,M,59.7,M,,0000*4B
$GPGSA,A,3,22,14,09,19,27,32,28,01,11,,,,2.1,1.0,1.8*32
$GPRMC,181744.000,A,6545.6849,N,01623.1593,W,42.66,328.27,020912,,,A*48
$GPGGA,181745.000,6545.6949,N,01623.1746,W,1,09,1.0,366.7,M,59.7,M,,0000*45
$GPGSA,A,3,22,14,09,19,27,32,28,01,11,,,,2.1,1.0,1.8*32
$GPRMC,181745.000,A,6545.6949,N,01623.1746,W,42.53,328.24,020912,,,A*47
$GPGGA,181746.000,6545.7049,N,01623.1898,W,1,09,1.0,367.0,M,59.7,M,,0000*44
$GPGSA,A,3,22,14,09,19,27,32,28,01,11,,,,2.1,1.0,1.8*32
$GPRMC,181746.000,A,6545.7049,N,01623.1898,W,42.50,328.34,020912,,,A*42
$GPGGA,181747.000,6545.7150,N,01623.2048,W,1,10,0.9,367.2,M,59.7,M,,0000*48
$GPGSA,A,3,22,14,09,19,27,32,28,01,11,03,,,1.8,0.9,1.6*3D
$GPGSV,3,1,12,11,68,201,32,01,55,229,31,19,43,138,34,28,42,290,28*71
$GPGSV,3,2,12,22,35,062,37,32,22,176,23,14,19,087,29,27,18,357,33*79
$GPGSV,3,3,12,09,13,011,33,03,12,138,28,17,09,294,30,18,05,036,*7B
$GPRMC,181747.000,A,6545.7150,N,01623.2048,W,42.43,328.70,020912,,,A*4E
$GPGGA,181748.000,6545.7251,N,01623.2196,W,1,10,0.9,367.3,M,59.7,M,,0000*46
$GPGSA,A,3,22,14,09,19,27,32,28,01,11,03,,,1.8,0.9,1.6*3D
$GPRMC,181748.000,A,6545.7251,N,01623.2196,W,42.52,329.35,020912,,,A*41
$GPGGA,181749.000,6545.7353,N,01623.2342,W,1,10,0.9,367.4,M,59.7,M,,0000*48
$GPGSA,A,3,22,14,09,19,27,32,28,01,11,03,,,1.8,0.9,1.6*3D
$GPRMC,181749.000,A,6545.7353,N,01623.2342,W,42.47,329.80,020912,,,A*42
$GPGGA,181750.000,6545.7456,N,01623.2485,W,1,10,0.9,367.5,M,59.7,M,,0000*4F
$GPGSA,A,3,22,14,09,19,27,32,28,01,11,03,,,1.8,0.9,1.6*3D
$GPRMC,181750.000,A,6545.7456,N,01623.2485,W,42.45,330.50,020912,,,A*43
$GPGGA,181751.000,6545.7558,N,01623.2625,W,1,10,0.9,367.7,M,59.7,M,,0000*4B
$GPGSA,A,3,22,14,09,19,27,32,28,01,11,03,,,1.8,0.9,1.6*3D
$GPRMC,181751.000,A,6545.7558,N,01623.2625,W,42.39,330.95,020912,,,A*47
$GPGGA,181752.000,6545.7661,N,01623.2763,W,1,10,0.9,367.8,M,59.7,M,,0000*4D
$GPGSA,A,3,22,14,09,19,27,32,28,01,11,03,,,1.8,0.9,1.6*3D
$GPGSV,3,1,12,11,68,200,33,01,55,229,21,19,43,138,34,28,42,290,27*7F
$GPGSV,3,2,12,22,35,062,39,32,22,176,30,14,20,086,30,27,18,357,34*71
$GPGSV,3,3,12,09,13,011,34,03,11,138,22,17,09,294,21,18,05,036,*75
$GPRMC,181752.000,A,6545.7661,N,01623.2763,W,42.34,331.46,020912,,,A*4C
$GPGGA,181753.000,6545.7764,N,01623.2900,W,1,10,0.9,368.1,M,59.7,M,,0000*45
$GPGSA,A,3,22,14,09,19,27,32,28,01,11,03,,,1.8,0.9,1.6*3D
$GPRMC,181753.000,A,6545.7764,N,01623.2900,W,42.43,331.50,020912,,,A*45
$GPGGA,181754.000,6545.7868,N,01623.3036,W,1,10,0.9,368.4,M,59.7,M,,0000*49
$GPGSA,A,3,22,14,09,19,27,32,28,01,11,03,,,1.8,0.9,1.6*3D
$GPRMC,181754.000,A,6545.7868,N,01623.3036,W,42.34,331.88,020912,,,A*49
$GPGGA,181755.000,6545.7972,N,01623.3171,W,1,10,0.9,368.8,M,59.7,M,,0000*4C
$GPGSA,A,3,22,14,09,19,27,32,28,01,11,03,,,1.8,0.9,1.6*3D
$GPRMC,181755.000,A,6545.7972,N,01623.3171,W,42.52,331.99,020912,,,A*40
$GPGGA,181756.000,6545.8076,N,01623.3305,W,1,10,0.9,369.2,M,59.7,M,,0000*47
$GPGSA,A,3,22,14,09,19,27,32,28,01,11,03,,,1.8,0.9,1.6*3D
$GPRMC,181756.000,A,6545.8076,N,01623.3305,W,42.42,332.33,020912,,,A*42
$GPGGA,181757.000,6545.8181,N,01623.3437,W,1,10,0.9,369.7,M,59.7,M,,0000*4C
$GPGSA,A,3,22,14,09,19,27,32,28,01,11,03,,,1.8,0.9,1.6*3D
$GPGSV,3,1,12,11,68,200,17,01,55,229,27,19,43,138,21,28,42,290,24*78
$GPGSV,3,2,12,22,35,062,40,32,22,176,30,14,20,086,30,27,18,357,34*7F
$GPGSV,3,3,12,09,13,011,34,03,11,138,21,17,09,294,20,18,05,036,*77
$GPRMC,181757.000,A,6545.8181,N,01623.3437,W,42.34,332.43,020912,,,A*4A
$GPGGA,181758.000,6545.8285,N,01623.3568,W,1,09,1.1,370.4,M,59.7,M,,0000*45
$GPGSA,A,3,22,14,09,19,27,28,01,11,03,,,,2.2,1.1,1.9*33
$GPRMC,181758.000,A,6545.8285,N,01623.3568,W,42.34,332.56,020912,,,A*4D
$GPGGA,181759.000,6545.8389,N,01623.3698,W,1,09,1.1,371.0,M,59.7,M,,0000*40
$GPGSA,A,3,22,14,09,19,27,28,01,11,03,,,,2.2,1.1,1.9*33
$GPRMC,181759.000,A,6545.8389,N,01623.3698,W,42.36,332.63,020912,,,A*49
$GPGGA,181800.000,6545.8494,N,01623.3829,W,1,09,1.1,371.7,M,59.7,M,,0000*4B
$GPGSA,A,3,22,14,09,19,27,28,01,11,03,,,,2.2,1.1,1.9*33
$GPRMC,181800.000,A,6545.8494,N,01623.3829,W,42.52,332.63,020912,,,A*47
$GPGGA,181801.000,6545.8599,N,01623.3963,W,1,09,1.1,372.4,M,59.7,M,,0000*49
$GPGSA,A,3,22,14,09,19,27,28,01,11,03,,,,2.2,1.1,1.9*33
$GPRMC,181801.000,A,6545.8599,N,01623.3963,W,42.80,332.19,020912,,,A*47
$GPGGA,181802.000,6545.8703,N,01623.4100,W,1,09,1.1,373.1,M,59.7,M,,0000*45
$GPGSA,A,3,22,14,09,19,27,28,01,11,03,,,,2.2,1.1,1.9*33
$GPGSV,3,1,12,11,68,200,30,01,55,229,17,19,43,138,24,28,42,290,31*7F
$GPGSV,3,2,12,22,35,062,38,32,22,176,,14,20,086,31,27,18,357,34*72
$GPGSV,3,3,12,09,13,011,29,03,11,138,20,17,09,294,28,18,05,036,27*77
$GPRMC,181802.000,A,6545.8703,N,01623.4100,W,43.00,331.45,020912,,,A*4C
$GPGGA,181803.000,6545.8806,N,01623.4242,W,1,09,1.1,373.7,M,59.7,M,,0000*4D
$GPGSA,A,3,22,14,09,19,27,28,01,11,03,,,,2.2,1.1,1.9*33
$GPRMC,181803.000,A,6545.8806,N,01623.4242,W,42.69,330.20,020912,,,A*4E
$GPGGA,181804.000,6545.8907,N,01623.4389,W,1,09,1.1,374.3,M,59.7,M,,0000*4F
$GPGSA,A,3,22,14,09,19,27,28,01,11,03,,,,2.2,1.1,1.9*33
$GPRMC,181804.000,A,6545.8907,N,01623.4389,W,42.65,328.91,020912,,,A*40
$GPGGA,181805.000,6545.9007,N,01623.4542,W,1,09,1.1,374.7,M,59.7,M,,0000*43
$GPGSA,A,3,22,14,09,19,27,28,01,11,03,,,,2.2,1.1,1.9*33
$GPRMC,181805.000,A,6545.9007,N,01623.4542,W,42.66,327.61,020912,,,A*4B
$GPGGA,181806.000,6545.9105,N,01623.4700,W,1,09,1.1,375.1,M,59.7,M,,0000*40
$GPGSA,A,3,22,14,09,19,27,28,01,11,03,,,,2.2,1.1,1.9*33
$GPRMC,181806.000,A,6545.9105,N,01623.4700,W,42.58,326.50,020912,,,A*41
$GPGGA,181807.000,6545.9202,N,01623.4864,W,1,09,1.1,375.4,M,59.7,M,,0000*4D
$GPGSA,A,3,22,14,09,19,27,28,01,11,03,,,,2.2,1.1,1.9*33
$GPGSV,3,1,12,11,68,200,21,01,55,229,29,19,43,138,35,28,42,290,25*77
$GPGSV,3,2,12,22,35,062,35,32,22,176,,14,20,086,31,27,18,357,33*78
$GPGSV,3,3,12,09,13,011,23,03,11,138,29,17,09,294,27,18,05,036,31*7C
$GPRMC,181807.000,A,6545.9202,N,01623.4864,W,42.77,325.31,020912,,,A*40
$GPGGA,181808.000,6545.9298,N,01623.5032,W,1,09,1.1,375.6,M,59.7,M,,0000*49
$GPGSA,A,3,22,14,09,19,27,28,01,11,03,,,,2.2,1.1,1.9*33
$GPRMC,181808.000,A,6545.9298,N,01623.5032,W,42.81,324.29,020912,,,A*47
$GPGGA,181809.000,6545.9392,N,01623.5205,W,1,09,1.1,375.6,M,59.7,M,,0000*45
$GPGSA,A,3,22,14,09,19,27,28,01,11,03,,,,2.2,1.1,1.9*33
$GPRMC,181809.000,A,6545.9392,N,01623.5205,W,42.68,323.00,020912,,,A*40
$GPGGA,181810.000,6545.9485,N,01623.5385,W,1,09,1.0,375.5,M,59.7,M,,0000*47
$GPGSA,A,3,22,14,09,19,27,01,32,11,03,,,,1.9,1.0,1.6*3E
$GPRMC,181810.000,A,6545.9485,N,01623.5385,W,42.67,321.44,020912,,,A*4D
$GPGGA,181811.000,6545.9575,N,01623.5569,W,1,09,1.0,375.3,M,59.7,M,,0000*4A
$GPGSA,A,3,22,14,09,19,27,01,32,11,03,,,,1.9,1.0,1.6*3E
$GPRMC,181811.000,A,6545.9575,N,01623.5569,W,42.60,320.01,020912,,,A*41
$GPGGA,181812.000,6545.9663,N,01623.5760,W,1,09,1.0,375.0,M,59.7,M,,0000*45
$GPGSA,A,3,22,14,09,19,27,01,32,11,03,,,,1.9,1.0,1.6*3E
$GPGSV,3,1,12,11,68,200,31,01,55,229,30,19,43,138,26,28,42,290,*7B
$GPGSV,3,2,12,22,35,062,33,32,22,176,18,14,20,086,32,27,18,357,38*7F
$GPGSV,3,3,12,09,13,011,31,03,11,138,31,17,09,294,31,18,05,036,31*71
$GPRMC,181812.000,A,6545.9663,N,01623.5760,W,42.76,318.62,020912,,,A*44
$GPGGA,181813.000,6545.9750,N,01623.5955,W,1,09,1.0,374.7,M,59.7,M,,0000*4B
$GPGSA,A,3,22,14,09,19,27,01,32,11,03,,,,1.9,1.0,1.6*3E
$GPRMC,181813.000,A,6545.9750,N,01623.5955,W,42.67,317.42,020912,,,A*41
$GPGGA,181814.000,6545.9835,N,01623.6154,W,1,09,1.0,374.3,M,59.7,M,,0000*4E
$GPGSA,A,3,22,14,09,19,27,01,32,11,03,,,,1.9,1.0,1.6*3E
$GPRMC,181814.000,A,6545.9835,N,01623.6154,W,42.73,316.29,020912,,,A*49
$GPGGA,181815.000,6545.9919,N,01623.6359,W,1,09,1.0,373.7,M,59.7,M,,0000*4C
$GPGSA,A,3,22,14,09,19,27,01,32,11,03,,,,1.9,1.0,1.6*3E
$GPRMC,181815.000,A,6545.9919,N,01623.6359,W,42.74,314.99,020912,,,A*46
$GPGGA,181816.000,6546.0000,N,01623.6568,W,1,09,1.0,373.1,M,59.7,M,,0000*46
$GPGSA,A,3,22,14,09,19,27,01,32,11,03,,,,1.9,1.0,1.6*3E
$GPRMC,181816.000,A,6546.0000,N,01623.6568,W,42.79,313.65,020912,,,A*43
$GPGGA,181817.000,6546.0080,N,01623.6782,W,1,09,1.0,372.5,M,59.7,M,,0000*4C
$GPGSA,A,3,22,14,09,19,27,01,32,11,03,,,,1.9,1.0,1.6*3E
$GPGSV,3,1,12,11,68,200,33,01,55,229,31,19,43,138,14,28,42,290,*79
$GPGSV,3,2,12,22,35,062,33,32,22,176,33,14,20,086,26,27,18,357,31*7A
$GPGSV,3,3,12,09,13,011,31,03,11,138,19,17,09,294,36,18,05,036,25*79
$GPRMC,181817.000,A,6546.0080,N,01623.6782,W,43.00,312.43,020912,,,A*46
$GPGGA,181818.000,6546.0158,N,01623.7000,W,1,09,1.0,371.9,M,59.7,M,,0000*44
$GPGSA,A,3,22,14,09,19,27,01,32,11,03,,,,1.9,1.0,1.6*3E
$GPRMC,181818.000,A,6546.0158,N,01623.7000,W,42.92,311.34,020912,,,A*48
$GPGGA,181819.000,6546.0233,N,01623.7223,W,1,09,1.0,371.3,M,59.7,M,,0000*42
$GPGSA,A,3,22,14,09,19,27,01,32,11,03,,,,1.9,1.0,1.6*3E
$GPRMC,181819.000,A,6546.0233,N,01623.7223,W,42.77,309.89,020912,,,A*40
$GPGGA,181820.000,6546.0306,N,01623.7449,W,1,09,1.0,370.7,M,59.7,M,,0000*40
$GPGSA,A,3,22,14,09,19,27,01,32,11,03,,,,1.9,1.0,1.6*3E
$GPRMC,181820.000,A,6546.0306,N,01623.7449,W,42.53,308.37,020912,,,A*45
$GPGGA,181821.000,6546.0376,N,01623.7679,W,1,09,1.0,370.2,M,59.7,M,,0000*42
$GPGSA,A,3,22,14,09,19,27,01,32,11,03,,,,1.9,1.0,1.6*3E
$GPRMC,181821.000,A,6546.0376,N,01623.7679,W,42.48,306.99,020912,,,A*42
$GPGGA,181822.000,6546.0445,N,01623.7912,W,1,09,1.0,369.7,M,59.7,M,,0000*49
$GPGSA,A,3,22,14,09,19,27,01,32,11,03,,,,1.9,1.0,1.6*3E
$GPGSV,3,1,12,11,68,200,32,01,55,229,37,19,43,138,28,28,43,289,*78
$GPGSV,3,2,12,22,35,062,37,32,22,176,21,14,20,086,33,27,18,357,31*79
$GPGSV,3,3,12,09,13,011,30,03,11,138,25,17,10,294,32,18,05,036,27*79
$GPRMC,181822.000,A,6546.0445,N,01623.7912,W,42.56,306.15,020912,,,A*4F
$GPGGA,181823.000,6546.0514,N,01623.8147,W,1,09,1.0,369.3,M,59.7,M,,0000*4E
$GPGSA,A,3,22,14,09,19,27,01,32,11,03,,,,1.9,1.0,1.6*3E
$GPRMC,181823.000,A,6546.0514,N,01623.8147,W,42.58,305.74,020912,,,A*46
$GPGGA,181824.000,6546.0583,N,01623.8381,W,1,09,1.0,369.0,M,59.7,M,,0000*4C
$GPGSA,A,3,22,14,09,19,27,01,32,11,03,,,,1.9,1.0,1.6*3E
$GPRMC,181824.000,A,6546.0583,N,01623.8381,W,42.59,305.84,020912,,,A*49
$GPGGA,181825.000,6546.0652,N,01623.8615,W,1,09,1.0,368.8,M,59.7,M,,0000*43
$GPGSA,A,3,22,14,09,19,27,01,32,11,03,,,,1.9,1.0,1.6*3E
$GPRMC,181825.000,A,6546.0652,N,01623.8615,W,42.51,306.18,020912,,,A*41
$GPGGA,181826.000,6546.0721,N,01623.8847,W,1,09,1.0,368.6,M,59.7,M,,0000*42
$GPGSA,A,3,22,14,09,19,27,01,32,11,03,,,,1.9,1.0,1.6*3E
$GPRMC,181826.000,A,6546.0721,N,01623.8847,W,42.48,306.38,020912,,,A*44
$GPGGA,181827.000,6546.0792,N,01623.9078,W,1,09,1.0,368.5,M,59.7,M,,0000*4D
$GPGSA,A,3,22,14,09,19,27,01,32,11,03,,,,1.9,1.0,1.6*3E
$GPGSV,3,1,12,11,68,200,32,01,55,229,36,19,43,138,30,28,43,289,*70
$GPGSV,3,2,12,22,35,062,37,32,22,176,21,14,20,086,27,27,18,357,31*7C
$GPGSV,3,3,12,09,13,011,27,03,11,138,28,17,10,294,28,18,05,036,28*76
$GPRMC,181827.000,A,6546.0792,N,01623.9078,W,42.50,306.93,020912,,,A*40
$GPGGA,181828.000,6546.0863,N,01623.9307,W,1,09,1.0,368.5,M,59.7,M,,0000*48
$GPGSA,A,3,22,14,09,19,27,01,32,11,03,,,,1.9,1.0,1.6*3E
$GPRMC,181828.000,A,6546.0863,N,01623.9307,W,42.58,307.47,020912,,,A*45
$GPGGA,181829.000,6546.0935,N,01623.9536,W,1,09,1.0,368.4,M,59.7,M,,0000*4E
$GPGSA,A,3,22,14,09,19,27,01,32,11,03,,,,1.9,1.0,1.6*3E
$GPRMC,181829.000,A,6546.0935,N,01623.9536,W,42.64,307.86,020912,,,A*40
$GPGGA,181830.000,6546.1008,N,01623.9763,W,1,09,1.0,368.4,M,59.7,M,,0000*42
$GPGSA,A,3,22,14,09,19,27,01,32,11,03,,,,1.9,1.0,1.6*3E
$GPRMC,181830.000,A,6546.1008,N,01623.9763,W,42.62,308.22,020912,,,A*4B
$GPGGA,181831.000,6546.1082,N,01623.9986,W,1,09,1.0,368.3,M,59.7,M,,0000*43
$GPGSA,A,3,22,14,09,19,27,01,32,11,03,,,,1.9,1.0,1.6*3E
$GPRMC,181831.000,A,6546.1082,N,01623.9986,W,42.59,309.59,020912,,,A*48
$GPGGA,181832.000,6546.1160,N,01624.0204,W,1,09,1.0,368.3,M,59.7,M,,0000*42
$GPGSA,A,3,22,14,09,19,27,01,32,11,03,,,,1.9,1.0,1.6*3E
$GPGSV,3,1,12,11,68,200,31,01,55,229,22,19,43,138,30,28,43,289,*76
$GPGSV,3,2,12,22,35,062,37,32,22,176,34,14,20,086,28,27,18,357,32*74
$GPGSV,3,3,12,09,13,011,33,03,11,138,19,17,10,294,34,18,05,036,35*70
$GPRMC,181832.000,A,6546.1160,N,01624.0204,W,42.70,311.21,020912,,,A*44
$GPGGA,181833.000,6546.1239,N,01624.0415,W,1,09,1.0,368.3,M,59.7,M,,0000*4A
$GPGSA,A,3,22,14,09,19,27,01,32,11,03,,,,1.9,1.0,1.6*3E
$GPRMC,181833.000,A,6546.1239,N,01624.0415,W,42.58,312.92,020912,,,A*4D
$GPGGA,181834.000,6546.1321,N,01624.0620,W,1,09,1.0,368.2,M,59.7,M,,0000*40
$GPGSA,A,3,22,14,09,19,27,01,32,11,03,,,,1.9,1.0,1.6*3E
$GPRMC,181834.000,A,6546.1321,N,01624.0620,W,42.46,314.59,020912,,,A*48
$GPGGA,181835.000,6546.1405,N,01624.0820,W,1,09,1.0,368.2,M,59.7,M,,0000*4E
$GPGSA,A,3,22,14,09,19,27,01,32,11,03,,,,1.9,1.0,1.6*3E
$GPRMC,181835.000,A,6546.1405,N,01624.0820,W,42.56,316.09,020912,,,A*40
$GPGGA,181836.000,6546.1491,N,01624.1015,W,1,08,1.2,368.2,M,59.7,M,,0000*4C
$GPGSA,A,3,22,14,09,19,27,32,11,03,,,,,2.0,1.2,1.6*37
$GPRMC,181836.000,A,6546.1491,N,01624.1015,W,42.54,317.39,020912,,,A*41
$GPGGA,181837.000,6546.1579,N,01624.1206,W,1,08,1.2,368.2,M,59.7,M,,0000*4A
$GPGSA,A,3,22,14,09,19,27,32,11,03,,,,,2.0,1.2,1.6*37
$GPGSV,3,1,12,11,68,200,32,01,55,229,,19,43,138,22,28,43,289,*76
$GPGSV,3,2,12,22,35,062,37,32,22,176,30,14,20,086,35,27,18,357,38*76
$GPGSV,3,3,12,09,13,011,34,03,11,138,33,17,10,294,37,18,05,036,25*7D
$GPRMC,181837.000,A,6546.1579,N,01624.1206,W,42.58,318.63,020912,,,A*4B
$GPGGA,181838.000,6546.1669,N,01624.1391,W,1,09,1.0,368.1,M,59.7,M,,0000*48
$GPGSA,A,3,22,14,09,19,27,28,32,11,03,,,,1.9,1.0,1.6*35
$GPRMC,181838.000,A,6546.1669,N,01624.1391,W,42.52,320.18,020912,,,A*44
$GPGGA,181839.000,6546.1761,N,01624.1568,W,1,09,1.0,368.1,M,59.7,M,,0000*40
$GPGSA,A,3,22,14,09,19,27,28,32,11,03,,,,1.9,1.0,1.6*35
$GPRMC,181839.000,A,6546.1761,N,01624.1568,W,42.46,322.05,020912,,,A*47
$GPGGA,181840.000,6546.1854,N,01624.1738,W,1,09,1.0,368.1,M,59.7,M,,0000*40
$GPGSA,A,3,22,14,09,19,27,28,32,11,03,,,,1.9,1.0,1.6*35
$GPRMC,181840.000,A,6546.1854,N,01624.1738,W,42.39,323.44,020912,,,A*4B
$GPGGA,181841.000,6546.1949,N,01624.1902,W,1,10,0.9,368.1,M,59.7,M,,0000*4B
$GPGSA,A,3,22,14,09,19,27,01,28,32,11,03,,,1.8,0.9,1.6*3D
$GPRMC,181841.000,A,6546.1949,N,01624.1902,W,42.38,324.96,020912,,,A*49
$GPGGA,181842.000,6546.2046,N,01624.2061,W,1,10,0.9,368.0,M,59.7,M,,0000*43
$GPGSA,A,3,22,14,09,19,27,01,28,32,11,03,,,1.8,0.9,1.6*3D
$GPGSV,3,1,12,11,68,200,33,01,55,229,27,19,43,138,30,28,43,289,28*7B
$GPGSV,3,2,12,22,35,062,38,32,22,176,17,14,20,086,24,27,18,357,28*7D
$GPGSV,3,3,12,09,13,011,29,03,11,138,32,17,10,294,23,18,05,036,*72
$GPRMC,181842.000,A,6546.2046,N,01624.2061,W,42.45,326.38,020912,,,A*4C
$GPGGA,181843.000,6546.2145,N,01624.2212,W,1,10,0.9,367.9,M,59.7,M,,0000*40
$GPGSA,A,3,22,14,09,19,27,01,28,32,11,03,,,1.8,0.9,1.6*3D
$GPRMC,181843.000,A,6546.2145,N,01624.2212,W,42.42,328.13,020912,,,A*49
$GPGGA,181844.000,6546.2246,N,01624.2357,W,1,10,0.9,367.9,M,59.7,M,,0000*47
$GPGSA,A,3,22,14,09,19,27,01,28,32,11,03,,,1.8,0.9,1.6*3D
$GPRMC,181844.000,A,6546.2246,N,01624.2357,W,42.37,329.68,020912,,,A*41
$GPGGA,181845.000,6546.2348,N,01624.2497,W,1,10,0.9,367.8,M,59.7,M,,0000*43
$GPGSA,A,3,22,14,09,19,27,01,28,32,11,03,,,1.8,0.9,1.6*3D
$GPRMC,181845.000,A,6546.2348,N,01624.2497,W,42.35,330.77,020912,,,A*40
$GPGGA,181846.000,6546.2450,N,01624.2635,W,1,10,0.9,367.8,M,59.7,M,,0000*44
$GPGSA,A,3,22,14,09,19,27,01,28,32,11,03,,,1.8,0.9,1.6*3D
$GPRMC,181846.000,A,6546.2450,N,01624.2635,W,42.28,331.20,020912,,,A*48
$GPGGA,181847.000,6546.2553,N,01624.2772,W,1,10,0.9,367.8,M,59.7,M,,0000*45
$GPGSA,A,3,22,14,09,19,27,01,28,32,11,03,,,1.8,0.9,1.6*3D
$GPGSV,3,1,12,11,68,200,26,01,55,229,19,19,43,138,33,28,43,289,27*7E
$GPGSV,3,2,12,22,35,062,39,32,22,176,27,14,20,086,31,27,18,357,34*76
$GPGSV,3,3,12,09,13,011,36,03,11,138,23,17,10,294,17,18,05,036,*7B
$GPRMC,181847.000,A,6546.2553,N,01624.2772,W,42.44,331.43,020912,,,A*46
$GPGGA,181848.000,6546.2655,N,01624.2912,W,1,10,0.9,367.9,M,59.7,M,,0000*46
$GPGSA,A,3,22,14,09,19,27,01,28,32,11,03,,,1.8,0.9,1.6*3D
$GPRMC,181848.000,A,6546.2655,N,01624.2912,W,42.48,330.69,020912,,,A*41
$GPGGA,181849.000,6546.2756,N,01624.3059,W,1,09,1.1,368.0,M,59.7,M,,0000*45
$GPGSA,A,3,22,14,09,19,27,01,28,11,03,,,,2.1,1.1,1.9*30
$GPRMC,181849.000,A,6546.2756,N,01624.3059,W,42.61,329.07,020912,,,A*4E
