$GPRMC,085204.000,A,5229.7050,N,01319.4636,E,1.25,145.90,090912,,,A*6A
$GPGGA,085205.000,5229.7056,N,01319.4646,E,1,04,3.0,63.6,M,44.8,M,,0000*68
$GPGSA,A,3,14,12,09,25,,,,,,,,,3.2,3.0,1.0*39
$GPRMC,085208.000,A,5229.7068,N,01319.4654,E,1.70,219.79,090912,,,A*64
$GPGGA,085209.000,5229.7070,N,01319.4653,E,1,04,3.0,48.0,M,44.8,M,,0000*6B
$GPGSA,A,3,14,12,09,25,,,,,,,,,3.2,3.0,1.0*39
$GPRMC,085209.000,A,5229.7070,N,01319.4653,E,1.89,225.67,090912,,,A*6D
$GPGGA,085210.000,5229.7072,N,01319.4654,E,1,03,3.2,44.4,M,44.8,M,,0000*6B
$GPGSA,A,2,12,09,25,,,,,,,,,,3.4,3.2,1.0*39
$GPRMC,085210.000,A,5229.7072,N,01319.4654,E,1.32,217.20,090912,,,A*62
$GPGGA,085211.000,5229.7076,N,01319.4658,E,1,04,3.0,40.4,M,44.8,M,,0000*63
$GPGSA,A,3,14,12,09,25,,,,,,,,,3.2,3.0,1.0*39
$GPRMC,085211.000,A,5229.7076,N,01319.4658,E,0.89,193.46,090912,,,A*65
$GPGGA,085212.000,5229.7083,N,01319.4667,E,1,04,3.0,36.2,M,44.8,M,,0000*61
$GPGSA,A,3,14,12,09,25,,,,,,,,,3.2,3.0,1.0*39
$GPGSV,3,1,12,12,83,040,24,25,51,271,28,14,39,276,18,09,36,143,27*75
$GPGSV,3,2,12,27,29,143,18,02,27,113,,04,26,066,21,29,22,207,*73
$GPGSV,3,3,12,31,07,309,,32,04,338,,20,01,005,,17,01,042,*7F
$GPRMC,085226.000,A,5229.7150,N,01319.4735,E,1.13,209.13,090912,,,A*6C
$GPGGA,085227.000,5229.7148,N,01319.4738,E,1,03,3.2,-6.8,M,44.8,M,,0000*7B
$GPGSA,A,2,12,09,25,,,,,,,,,,3.3,3.2,1.0*3E
$GPGSV,3,1,12,12,83,040,25,25,51,271,27,14,39,276,17,09,36,143,20*73
$GPGSV,3,2,12,27,29,143,21,02,27,113,23,04,26,066,,29,22,207,*7B
$GPGSV,3,3,12,31,07,309,21,32,04,338,,20,01,005,,17,01,042,*7C
$GPRMC,085227.000,A,5229.7148,N,01319.4738,E,1.23,203.18,090912,,,A*6B
$GPGGA,085228.000,5229.7150,N,01319.4742,E,1,04,3.0,-9.0,M,44.8,M,,0000*72
$GPGSA,A,3,14,12,09,25,,,,,,,,,3.2,3.0,1.0*39
$GPRMC,085230.000,A,5229.7159,N,01319.4756,E,1.21,25.57,090912,,,A*5A
$GPGGA,085231.000,5229.7164,N,01319.4765,E,1,03,3.2,-13.3,M,44.8,M,,0000*45
$GPGSA,A,2,12,09,25,,,,,,,,,,3.3,3.2,1.0*3E
$GPRMC,085231.000,A,5229.7164,N,01319.4765,E,0.99,58.96,090912,,,A*50
$GPGGA,085232.000,5229.7168,N,01319.4772,E,1,03,3.2,-14.4,M,44.8,M,,0000*4C
$GPGSA,A,2,12,09,25,,,,,,,,,,3.3,3.2,1.0*3E
$GPGSV,3,1,12,12,83,040,26,25,51,271,27,14,39,276,16,09,36,143,20*71
$GPGSV,3,2,12,27,29,143,23,02,27,113,23,04,26,066,,29,22,207,*79
$GPGSV,3,3,12,31,07,309,20,32,04,338,,20,01,005,,17,01,042,16*7A
$GPRMC,085232.000,A,5229.7168,N,01319.4772,E,0.82,71.24,090912,,,A*51
$GPGGA,085233.000,5229.7172,N,01319.4780,E,1,03,3.2,-15.4,M,44.8,M,,0000*4A
$GPGSA,A,2,12,09,25,,,,,,,,,,3.3,3.2,1.0*3E
$GPRMC,085233.000,A,5229.7172,N,01319.4780,E,0.94,73.96,090912,,,A*5A
$GPGGA,085234.000,5229.7176,N,01319.4785,E,1,03,3.2,-16.3,M,44.8,M,,0000*48
$GPGSA,A,2,12,09,25,,,,,,,,,,3.3,3.2,1.0*3E
$GPRMC,085238.000,A,5229.7189,N,01319.4801,E,1.26,132.81,090912,,,A*69
$GPGGA,085239.000,5229.7188,N,01319.4805,E,1,03,3.2,-19.4,M,44.8,M,,0000*4B
$GPGSA,A,2,12,09,25,,,,,,,,,,3.3,3.2,1.0*3E
$GPRMC,085239.000,A,5229.7188,N,01319.4805,E,1.73,160.59,090912,,,A*6F
$GPGGA,085240.000,5229.7188,N,01319.4806,E,1,03,3.2,-19.8,M,44.8,M,,0000*4A
$GPGSA,A,2,12,09,25,,,,,,,,,,3.3,3.2,1.0*3E
$GPRMC,085240.000,A,5229.7188,N,01319.4806,E,1.12,181.55,090912,,,A*66
$GPGGA,085241.000,5229.7191,N,01319.4808,E,1,03,3.2,-20.1,M,44.8,M,,0000*4E
$GPGSA,A,2,12,09,25,,,,,,,,,,3.3,3.2,1.0*3E
$GPRMC,085243.000,A,5229.7204,N,01319.4810,E,1.35,2.08,090912,,,A*62
$GPGGA,085244.000,5229.7212,N,01319.4811,E,1,03,3.2,-20.6,M,44.8,M,,0000*4C
$GPGSA,A,2,12,09,25,,,,,,,,,,3.3,3.2,1.0*3E
$GPRMC,085244.000,A,5229.7212,N,01319.4811,E,1.58,7.63,090912,,,A*60
$GPGGA,085245.000,5229.7220,N,01319.4811,E,1,03,3.2,-20.6,M,44.8,M,,0000*4C
$GPGSA,A,2,12,09,25,,,,,,,,,,3.3,3.2,1.0*3E
$GPRMC,085245.000,A,5229.7220,N,01319.4811,E,1.19,10.12,090912,,,A*55
$GPGGA,085246.000,5229.7227,N,01319.4810,E,1,03,3.2,-20.6,M,44.8,M,,0000*49
$GPGSA,A,2,12,09,25,,,,,,,,,,3.3,3.2,1.0*3E
$GPRMC,085250.000,A,5229.7241,N,01319.4805,E,0.92,175.83,090912,,,A*6B
$GPGGA,085251.000,5229.7238,N,01319.4805,E,1,03,3.2,-20.7,M,44.8,M,,0000*44
$GPGSA,A,2,12,09,25,,,,,,,,,,3.3,3.2,1.0*3E
$GPRMC,085251.000,A,5229.7238,N,01319.4805,E,1.77,165.90,090912,,,A*6D
$GPGGA,085252.000,5229.7235,N,01319.4806,E,1,03,3.2,-20.7,M,44.8,M,,0000*49
$GPGSA,A,2,12,09,25,,,,,,,,,,3.3,3.2,1.0*3E
$GPGSV,3,1,12,12,83,042,28,25,51,271,30,14,39,275,16,09,36,143,21*79
$GPGSV,3,2,12,27,29,143,25,02,27,113,16,04,26,066,,29,22,207,*79
$GPGSV,3,3,12,31,08,309,19,32,04,338,,20,01,005,,17,00,042,*79
$GPRMC,085252.000,A,5229.7235,N,01319.4806,E,1.52,163.59,090912,,,A*64
$GPGGA,085253.000,5229.7235,N,01319.4804,E,1,03,3.2,-20.8,M,44.8,M,,0000*45
$GPGSA,A,2,12,09,25,,,,,,,,,,3.3,3.2,1.0*3E
$GPRMC,085256.000,A,5229.7231,N,01319.4800,E,1.16,169.16,090912,,,A*63
$GPGGA,085257.000,5229.7228,N,01319.4799,E,1,03,3.2,-21.3,M,44.8,M,,0000*4C
$GPGSA,A,2,12,09,25,,,,,,,,,,3.3,3.2,1.0*3E
$GPGSV,3,1,12,12,83,042,28,25,51,271,31,14,39,275,17,09,36,143,22*7A
$GPGSV,3,2,12,27,29,143,25,02,27,113,15,04,26,066,,29,22,207,*7A
$GPGSV,3,3,12,31,08,309,19,32,04,338,,20,01,005,,17,00,042,*79
$GPRMC,085303.000,A,5229.7214,N,01319.4790,E,0.81,201.57,090912,,,A*64
$GPGGA,085304.000,5229.7208,N,01319.4788,E,1,03,3.2,-22.7,M,44.8,M,,0000*4E
$GPGSA,A,2,12,09,25,,,,,,,,,,3.3,3.2,1.0*3E
$GPRMC,085304.000,A,5229.7208,N,01319.4788,E,0.96,203.00,090912,,,A*61
$GPGGA,085305.000,5229.7204,N,01319.4786,E,1,03,3.2,-22.9,M,44.8,M,,0000*43
$GPGSA,A,2,12,09,25,,,,,,,,,,3.3,3.2,1.0*3E
$GPRMC,085311.000,A,5229.7177,N,01319.4791,E,1.91,165.60,090912,,,A*65
$GPGGA,085312.000,5229.7168,N,01319.4792,E,1,03,3.2,-24.6,M,44.8,M,,0000*40
$GPGSA,A,2,12,09,25,,,,,,,,,,3.3,3.2,1.0*3E
$GPGSV,3,1,12,12,83,042,29,25,51,271,31,14,39,275,18,09,36,143,22*74
$GPGSV,3,2,12,27,29,143,24,02,27,113,16,04,26,066,17,29,22,207,*7E
$GPGSV,3,3,12,31,08,309,20,32,04,338,,20,01,005,,17,00,042,18*7A
$GPRMC,085312.000,A,5229.7168,N,01319.4792,E,1.55,176.53,090912,,,A*61
$GPGGA,085313.000,5229.7160,N,01319.4792,E,1,03,3.2,-24.9,M,44.8,M,,0000*46
$GPGSA,A,2,12,09,25,,,,,,,,,,3.3,3.2,1.0*3E
$GPRMC,085313.000,A,5229.7160,N,01319.4792,E,1.31,188.02,090912,,,A*6F
$GPGGA,085314.000,5229.7151,N,01319.4792,E,1,03,3.2,-25.2,M,44.8,M,,0000*49
$GPGSA,A,2,12,09,25,,,,,,,,,,3.3,3.2,1.0*3E
$GPRMC,085314.000,A,5229.7151,N,01319.4792,E,1.50,186.11,090912,,,A*61
$GPGGA,085315.000,5229.7142,N,01319.4793,E,1,03,3.2,-25.4,M,44.8,M,,0000*4D
$GPGSA,A,2,12,09,25,,,,,,,,,,3.3,3.2,1.0*3E
$GPRMC,085315.000,A,5229.7142,N,01319.4793,E,1.31,177.51,090912,,,A*6E
$GPGGA,085316.000,5229.7135,N,01319.4795,E,1,04,3.0,-25.6,M,44.8,M,,0000*4F
$GPGSA,A,3,14,12,09,25,,,,,,,,,3.1,3.0,1.0*3A
$GPRMC,085318.000,A,5229.7128,N,01319.4795,E,0.88,339.04,090912,,,A*62
$GPGGA,085319.000,5229.7126,N,01319.4796,E,1,04,3.0,-26.0,M,44.8,M,,0000*44
$GPGSA,A,3,14,12,09,25,,,,,,,,,3.1,3.0,1.0*3A
$GPRMC,085319.000,A,5229.7126,N,01319.4796,E,1.05,358.80,090912,,,A*61
$GPGGA,085320.000,5229.7124,N,01319.4797,E,1,04,3.0,-26.0,M,44.8,M,,0000*4D
$GPGSA,A,3,14,12,09,25,,,,,,,,,3.1,3.0,1.0*3A
$GPRMC,085320.000,A,5229.7124,N,01319.4797,E,1.63,355.74,090912,,,A*6E
$GPGGA,085321.000,5229.7122,N,01319.4797,E,1,04,3.0,-26.0,M,44.8,M,,0000*4A
$GPGSA,A,3,14,12,09,25,,,,,,,,,3.1,3.0,1.0*3A
$GPRMC,085321.000,A,5229.7122,N,01319.4797,E,1.34,353.10,090912,,,A*6F
$GPGGA,085322.000,5229.7115,N,01319.4799,E,1,04,3.0,-26.0,M,44.8,M,,0000*43
$GPGSA,A,3,14,12,09,25,,,,,,,,,3.1,3.0,1.0*3A
$GPGSV,3,1,12,12,82,043,29,25,51,272,31,14,39,275,19,09,36,144,12*72
$GPGSV,3,2,12,27,28,143,23,02,27,113,14,04,26,066,17,29,23,207,*7B
$GPGSV,3,3,12,31,08,309,21,32,04,338,,20,01,004,,17,00,042,17*75
$GPRMC,085324.000,A,5229.7093,N,01319.4805,E,1.58,164.10,090912,,,A*69
$GPGGA,085325.000,5229.7081,N,01319.4808,E,0,00,,-25.9,M,44.8,M,,0000*6D
$GPGSA,A,1,,,,,,,,,,,,,,,*1E
$GPRMC,085443.000,A,5229.5817,N,01319.4810,E,1.44,47.40,090912,,,A*55
$GPGGA,085444.000,5229.5874,N,01319.4801,E,1,04,2.9,6.6,M,44.8,M,,0000*57
$GPGSA,A,3,12,09,25,14,,,,,,,,,3.1,2.9,1.0*32
$GPRMC,085444.000,A,5229.5874,N,01319.4801,E,3.15,45.88,090912,,,A*57
$GPGGA,085445.000,5229.5927,N,01319.4792,E,0,03,,8.8,M,44.8,M,,0000*77
$GPGSA,A,1,09,25,14,,,,,,,,,,,,*15
$GPGSV,3,1,12,12,82,046,19,25,52,272,18,14,39,274,26,09,35,144,23*70
$GPGSV,3,2,12,27,28,143,19,02,28,113,20,04,26,065,,29,23,207,*7F
$GPGSV,3,3,12,31,08,309,28,32,04,337,,20,01,004,,17,00,042,*75
$GPRMC,085446.000,A,5229.5976,N,01319.4781,E,3.25,21.21,090912,,,A*53
$GPGGA,085447.000,5229.6025,N,01319.4777,E,0,03,,13.5,M,44.8,M,,0000*41
$GPGSA,A,1,12,25,14,,,,,,,,,,,,*1F
$GPRMC,085450.000,A,5229.6153,N,01319.4770,E,3.67,25.33,090912,,,A*57
$GPGGA,085451.000,5229.6188,N,01319.4775,E,1,04,2.9,20.9,M,44.8,M,,0000*6D
$GPGSA,A,3,12,09,25,14,,,,,,,,,3.1,2.9,1.0*32
$GPRMC,085451.000,A,5229.6188,N,01319.4775,E,3.61,37.60,090912,,,A*56
$GPGGA,085452.000,5229.6221,N,01319.4784,E,0,03,,21.8,M,44.8,M,,0000*43
$GPGSA,A,1,12,25,14,,,,,,,,,,,,*1F
$GPRMC,085454.000,A,5229.6286,N,01319.4810,E,2.68,51.89,090912,,,A*5D
$GPGGA,085455.000,5229.6307,N,01319.4814,E,1,04,2.9,22.5,M,44.8,M,,0000*6A
$GPGSA,A,3,12,09,25,14,,,,,,,,,3.1,2.9,1.0*32
$GPGSV,3,1,12,12,82,046,21,25,52,272,16,14,39,274,26,09,35,144,16*73
$GPGSV,3,2,12,27,28,143,25,02,28,113,,04,26,065,,29,23,207,*72
$GPGSV,3,3,12,31,08,309,29,32,04,337,,20,01,004,,17,00,042,*74
$GPRMC,085458.000,A,5229.6361,N,01319.4813,E,1.41,226.38,090912,,,A*6A
$GPGGA,085459.000,5229.6378,N,01319.4813,E,0,03,,21.5,M,44.8,M,,0000*49
$GPGSA,A,1,12,25,14,,,,,,,,,,,,*1F
$GPRMC,085503.000,A,5229.6433,N,01319.4815,E,1.09,8.62,090912,,,A*6E
$GPGGA,085504.000,5229.6450,N,01319.4816,E,1,04,2.9,20.7,M,44.8,M,,0000*68
$GPGSA,A,3,12,09,25,14,,,,,,,,,3.1,2.9,1.0*32
$GPRMC,085504.000,A,5229.6450,N,01319.4816,E,2.42,3.20,090912,,,A*6E
$GPGGA,085505.000,5229.6465,N,01319.4818,E,0,03,,20.2,M,44.8,M,,0000*47
$GPGSA,A,1,12,25,14,,,,,,,,,,,,*1F
$GPGSV,3,1,12,12,82,046,21,25,52,272,16,14,39,274,26,09,35,144,15*70
$GPGSV,3,2,12,27,28,143,25,02,28,113,,04,26,065,,29,23,207,*72
$GPGSV,3,3,12,31,08,309,30,32,04,337,,20,01,004,,17,00,042,*7C
$GPRMC,085506.000,A,5229.6477,N,01319.4818,E,1.68,6.11,090912,,,A*6B
$GPGGA,085507.000,5229.6488,N,01319.4818,E,0,00,,19.9,M,44.8,M,,0000*44
$GPGSA,A,1,,,,,,,,,,,,,,,*1E
$GPRMC,085509.000,A,5229.6487,N,01319.4804,E,2.83,213.96,090912,,,A*69
$GPGGA,085510.000,5229.6481,N,01319.4792,E,1,04,2.9,19.5,M,44.8,M,,0000*6A
$GPGSA,A,3,12,09,25,14,,,,,,,,,3.0,2.9,1.0*33
$GPGSV,3,1,12,12,82,046,23,25,52,272,16,14,39,274,18,09,35,144,21*78
$GPGSV,3,2,12,27,28,143,26,02,28,113,,04,26,065,,29,23,207,*71
$GPGSV,3,3,12,31,08,309,31,32,04,337,,20,01,004,,17,00,042,*7D
$GPRMC,085510.000,A,5229.6481,N,01319.4792,E,3.12,218.09,090912,,,A*63
$GPGGA,085511.000,5229.6473,N,01319.4780,E,1,04,2.9,19.4,M,44.8,M,,0000*64
$GPGSA,A,3,12,09,25,14,,,,,,,,,3.0,2.9,1.0*33
$GPRMC,085511.000,A,5229.6473,N,01319.4780,E,2.88,218.23,090912,,,A*66
$GPGGA,085512.000,5229.6464,N,01319.4771,E,1,04,2.9,19.7,M,44.8,M,,0000*6C
$GPGSA,A,3,12,09,25,14,,,,,,,,,3.0,2.9,1.0*33
$GPRMC,085512.000,A,5229.6464,N,01319.4771,E,2.29,207.70,090912,,,A*6E
$GPGGA,085513.000,5229.6454,N,01319.4761,E,1,03,3.0,20.0,M,44.8,M,,0000*6D
$GPGSA,A,2,12,09,14,,,,,,,,,,3.1,3.0,1.0*3C
$GPRMC,085513.000,A,5229.6454,N,01319.4761,E,2.33,217.74,090912,,,A*63
$GPGGA,085514.000,5229.6444,N,01319.4750,E,1,04,2.9,20.6,M,44.8,M,,0000*60
$GPGSA,A,3,12,09,25,14,,,,,,,,,3.0,2.9,1.0*33
$GPRMC,085514.000,A,5229.6444,N,01319.4750,E,2.34,222.26,090912,,,A*61
$GPGGA,085515.000,5229.6436,N,01319.4739,E,1,03,3.1,21.1,M,44.8,M,,0000*63
$GPGSA,A,2,12,09,25,,,,,,,,,,3.3,3.1,1.0*3D
$GPGSV,3,1,11,12,82,048,25,25,52,272,16,14,39,274,19,09,35,144,23*70
$GPGSV,3,2,11,02,28,112,,27,28,144,26,04,26,065,,29,24,207,*73
$GPGSV,3,3,11,31,09,309,31,32,04,337,,20,01,004,*4F
$GPRMC,085515.000,A,5229.6436,N,01319.4739,E,1.98,232.24,090912,,,A*6C
$GPGGA,085516.000,5229.6426,N,01319.4728,E,1,03,3.1,21.8,M,44.8,M,,0000*68
$GPGSA,A,2,12,09,25,,,,,,,,,,3.3,3.1,1.0*3D
$GPRMC,085516.000,A,5229.6426,N,01319.4728,E,1.83,229.74,090912,,,A*6B
$GPGGA,085517.000,5229.6417,N,01319.4719,E,1,04,2.9,22.8,M,44.8,M,,0000*64
$GPGSA,A,3,12,09,25,14,,,,,,,,,3.0,2.9,1.0*33
$GPRMC,085517.000,A,5229.6417,N,01319.4719,E,1.10,218.13,090912,,,A*63
$GPGGA,085518.000,5229.6411,N,01319.4714,E,1,04,2.9,23.9,M,44.8,M,,0000*60
$GPGSA,A,3,12,09,25,14,,,,,,,,,3.0,2.9,1.0*33
$GPRMC,085522.000,A,5229.6394,N,01319.4711,E,1.30,12.70,090912,,,A*5E
$GPGGA,085523.000,5229.6393,N,01319.4711,E,1,04,2.9,27.8,M,44.8,M,,0000*65
$GPGSA,A,3,12,09,25,14,,,,,,,,,3.0,2.9,1.0*33
$GPRMC,085523.000,A,5229.6393,N,01319.4711,E,1.09,5.95,090912,,,A*6F
$GPGGA,085524.000,5229.6392,N,01319.4710,E,1,04,2.9,28.0,M,44.8,M,,0000*65
$GPGSA,A,3,12,09,25,14,,,,,,,,,3.0,2.9,1.0*33
$GPRMC,085524.000,A,5229.6392,N,01319.4710,E,1.02,349.06,090912,,,A*62
$GPGGA,085525.000,5229.6391,N,01319.4712,E,1,04,2.9,28.2,M,44.8,M,,0000*67
$GPGSA,A,3,12,09,25,14,,,,,,,,,3.0,2.9,1.0*33
$GPGSV,3,1,11,12,82,048,27,25,52,272,23,14,39,274,20,09,35,144,22*7F
$GPGSV,3,2,11,02,28,112,,27,28,144,25,04,26,065,,29,24,207,*70
$GPGSV,3,3,11,31,09,309,31,32,04,337,,20,01,004,*4F
$GPRMC,085525.000,A,5229.6391,N,01319.4712,E,1.11,28.81,090912,,,A*5B
$GPGGA,085526.000,5229.6391,N,01319.4715,E,1,04,2.9,28.6,M,44.8,M,,0000*67
$GPGSA,A,3,12,09,25,14,,,,,,,,,3.0,2.9,1.0*33
$GPRMC,085526.000,A,5229.6391,N,01319.4715,E,1.16,21.56,090912,,,A*5B
$GPGGA,085527.000,5229.6385,N,01319.4715,E,1,04,2.9,29.1,M,44.8,M,,0000*65
$GPGSA,A,3,12,09,25,14,,,,,,,,,3.0,2.9,1.0*33
$GPRMC,085528.000,A,5229.6372,N,01319.4712,E,2.69,186.66,090912,,,A*6B
$GPGGA,085529.000,5229.6358,N,01319.4710,E,1,04,2.9,30.1,M,44.8,M,,0000*66
$GPGSA,A,3,12,09,25,14,,,,,,,,,3.0,2.9,1.0*33
$GPRMC,085529.000,A,5229.6358,N,01319.4710,E,3.15,188.68,090912,,,A*6A
$GPGGA,085530.000,5229.6343,N,01319.4707,E,1,04,2.9,30.6,M,44.8,M,,0000*65
$GPGSA,A,3,12,09,25,14,,,,,,,,,3.0,2.9,1.0*33
$GPGSV,3,1,11,12,82,048,28,25,52,272,24,14,39,274,20,09,35,144,21*74
$GPGSV,3,2,11,02,28,112,,27,27,144,25,04,26,065,,29,24,207,*7F
$GPGSV,3,3,11,31,09,309,31,32,04,337,,20,01,004,*4F
$GPRMC,085530.000,A,5229.6343,N,01319.4707,E,3.13,190.30,090912,,,A*6C
$GPGGA,085531.000,5229.6330,N,01319.4705,E,1,04,2.9,31.2,M,44.8,M,,0000*67
$GPGSA,A,3,12,09,25,14,,,,,,,,,3.0,2.9,1.0*33
$GPRMC,085531.000,A,5229.6330,N,01319.4705,E,2.11,191.12,090912,,,A*69
$GPGGA,085532.000,5229.6318,N,01319.4702,E,1,04,2.9,32.0,M,44.8,M,,0000*68
$GPGSA,A,3,12,09,25,14,,,,,,,,,3.0,2.9,1.0*33
$GPRMC,085532.000,A,5229.6318,N,01319.4702,E,1.79,193.04,090912,,,A*6F
$GPGGA,085533.000,5229.6304,N,01319.4701,E,1,04,2.9,32.7,M,44.8,M,,0000*60
$GPGSA,A,3,12,09,25,14,,,,,,,,,3.0,2.9,1.0*33
$GPRMC,085533.000,A,5229.6304,N,01319.4701,E,2.07,178.49,090912,,,A*66
$GPGGA,085534.000,5229.6290,N,01319.4699,E,1,04,2.9,33.5,M,44.8,M,,0000*68
$GPGSA,A,3,12,09,25,14,,,,,,,,,3.0,2.9,1.0*33
$GPRMC,085534.000,A,5229.6290,N,01319.4699,E,2.28,182.32,090912,,,A*69
$GPGGA,085535.000,5229.6277,N,01319.4695,E,1,04,2.9,34.5,M,44.8,M,,0000*6B
$GPGSA,A,3,12,09,25,14,,,,,,,,,3.0,2.9,1.0*33
$GPGSV,3,1,11,12,82,048,28,25,52,272,23,14,39,274,20,09,35,144,20*72
$GPGSV,3,2,11,02,28,112,,27,27,144,24,04,26,065,,29,24,207,*7E
$GPGSV,3,3,11,31,09,309,31,32,04,337,,20,01,004,*4F
$GPRMC,085535.000,A,5229.6277,N,01319.4695,E,1.71,192.95,090912,,,A*6E
$GPGGA,085536.000,5229.6267,N,01319.4692,E,1,04,2.9,35.3,M,44.8,M,,0000*69
$GPGSA,A,3,12,09,25,14,,,,,,,,,3.0,2.9,1.0*33
$GPRMC,085536.000,A,5229.6267,N,01319.4692,E,1.32,190.98,090912,,,A*63
$GPGGA,085537.000,5229.6257,N,01319.4687,E,1,04,2.9,36.0,M,44.8,M,,0000*6F
$GPGSA,A,3,12,09,25,14,,,,,,,,,3.0,2.9,1.0*33
$GPRMC,085537.000,A,5229.6257,N,01319.4687,E,1.61,194.95,090912,,,A*6A
$GPGGA,085538.000,5229.6246,N,01319.4683,E,1,04,2.9,36.7,M,44.8,M,,0000*63
$GPGSA,A,3,12,09,25,14,,,,,,,,,3.0,2.9,1.0*33
$GPRMC,085538.000,A,5229.6246,N,01319.4683,E,1.92,189.37,090912,,,A*69
$GPGGA,085539.000,5229.6239,N,01319.4678,E,1,04,2.9,37.4,M,44.8,M,,0000*6C
$GPGSA,A,3,12,09,25,14,,,,,,,,,3.0,2.9,1.0*33
$GPRMC,085539.000,A,5229.6239,N,01319.4678,E,1.21,213.08,090912,,,A*60
$GPGGA,085540.000,5229.6234,N,01319.4676,E,1,04,2.9,38.2,M,44.8,M,,0000*68
$GPGSA,A,3,12,09,25,14,,,,,,,,,3.0,2.9,1.0*33
$GPGSV,3,1,11,12,82,048,28,25,52,272,24,14,39,274,20,09,35,144,21*74
$GPGSV,3,2,11,02,28,112,,27,27,144,23,04,26,065,,29,24,207,*79
$GPGSV,3,3,11,31,09,309,32,32,04,337,,20,01,004,*4C
$GPRMC,085541.000,A,5229.6226,N,01319.4673,E,1.13,185.88,090912,,,A*6F
$GPGGA,085542.000,5229.6222,N,01319.4670,E,1,04,2.9,40.1,M,44.8,M,,0000*67
$GPGSA,A,3,12,09,25,14,,,,,,,,,3.0,2.9,1.0*33
$GPRMC,085544.000,A,5229.6221,N,01319.4665,E,1.14,339.14,090912,,,A*6D
$GPGGA,085545.000,5229.6223,N,01319.4663,E,1,04,2.9,42.5,M,44.8,M,,0000*65
$GPGSA,A,3,12,09,25,14,,,,,,,,,3.0,2.9,1.0*33
$GPGSV,3,1,11,12,81,049,27,25,53,272,24,14,39,273,21,09,35,144,21*7E
$GPGSV,3,2,11,02,28,112,,27,27,144,23,04,26,065,19,29,24,207,*71
$GPGSV,3,3,11,31,09,309,32,32,04,337,,20,01,004,*4C
$GPRMC,085545.000,A,5229.6223,N,01319.4663,E,0.94,345.07,090912,,,A*68
$GPGGA,085546.000,5229.6224,N,01319.4661,E,1,04,2.9,43.1,M,44.8,M,,0000*66
$GPGSA,A,3,12,09,25,14,,,,,,,,,3.0,2.9,1.0*33
$GPRMC,085559.000,A,5229.6202,N,01319.4630,E,1.13,64.05,090912,,,A*5C
$GPGGA,085600.000,5229.6203,N,01319.4631,E,1,04,2.8,57.2,M,44.8,M,,0000*60
$GPGSA,A,3,12,09,25,14,,,,,,,,,3.0,2.8,1.0*32
$GPGSV,3,1,11,12,81,049,25,25,53,272,23,14,39,273,21,09,35,144,24*7E
$GPGSV,3,2,11,02,28,112,,27,27,144,23,04,26,065,18,29,24,207,*70
$GPGSV,3,3,11,31,09,309,27,32,04,337,,20,01,004,*48
$GPRMC,085600.000,A,5229.6203,N,01319.4631,E,1.05,37.90,090912,,,A*5E
$GPGGA,085601.000,5229.6204,N,01319.4632,E,1,04,2.8,57.5,M,44.8,M,,0000*62
$GPGSA,A,3,12,09,25,14,,,,,,,,,3.0,2.8,1.0*32
$GPRMC,085607.000,A,5229.6211,N,01319.4634,E,1.32,343.58,090912,,,A*6F
$GPGGA,085608.000,5229.6221,N,01319.4634,E,1,04,2.8,54.5,M,44.8,M,,0000*69
$GPGSA,A,3,12,09,25,14,,,,,,,,,3.0,2.8,1.0*32
$GPRMC,085608.000,A,5229.6221,N,01319.4634,E,2.51,354.20,090912,,,A*6C
$GPGGA,085609.000,5229.6230,N,01319.4635,E,1,04,2.8,53.6,M,44.8,M,,0000*6D
$GPGSA,A,3,12,09,25,14,,,,,,,,,3.0,2.8,1.0*32
$GPRMC,085609.000,A,5229.6230,N,01319.4635,E,2.57,357.16,090912,,,A*6C
$GPGGA,085610.000,5229.6241,N,01319.4639,E,0,03,,52.8,M,44.8,M,,0000*42
$GPGSA,A,1,12,25,14,,,,,,,,,,,,*1F
$GPGSV,3,1,11,12,81,049,25,25,53,272,28,14,39,273,21,09,35,144,15*77
$GPGSV,3,2,11,02,28,112,12,27,27,144,18,04,26,065,20,29,24,207,*70
$GPGSV,3,3,11,31,09,309,32,32,04,337,,20,01,004,*4C
$GPRMC,085612.000,A,5229.6261,N,01319.4655,E,2.13,32.29,090912,,,A*58
$GPGGA,085613.000,5229.6269,N,01319.4663,E,1,04,2.8,50.2,M,44.8,M,,0000*6E
$GPGSA,A,3,12,09,25,14,,,,,,,,,3.0,2.8,1.0*32
$GPRMC,085613.000,A,5229.6269,N,01319.4663,E,1.87,31.60,090912,,,A*54
$GPGGA,085614.000,5229.6275,N,01319.4671,E,1,04,2.8,49.3,M,44.8,M,,0000*6E
$GPGSA,A,3,12,09,25,14,,,,,,,,,3.0,2.8,1.0*32
$GPRMC,085614.000,A,5229.6275,N,01319.4671,E,1.09,50.33,090912,,,A*5A
$GPGGA,085615.000,5229.6276,N,01319.4672,E,1,04,2.8,48.5,M,44.8,M,,0000*68
$GPGSA,A,3,12,09,25,14,,,,,,,,,3.0,2.8,1.0*32
$GPGSV,3,1,11,12,81,049,19,25,53,272,27,14,39,273,21,09,35,144,26*77
$GPGSV,3,2,11,02,28,112,18,27,27,144,22,04,26,065,17,29,24,207,*77
$GPGSV,3,3,11,31,09,309,25,32,04,337,,20,01,004,*4A
$GPRMC,085619.000,A,5229.6290,N,01319.4674,E,1.64,328.96,090912,,,A*61
$GPGGA,085620.000,5229.6291,N,01319.4675,E,1,04,2.8,45.2,M,44.8,M,,0000*6A
$GPGSA,A,3,12,09,25,14,,,,,,,,,3.0,2.8,1.0*32
$GPGSV,3,1,11,12,81,049,29,25,53,272,23,14,39,273,21,09,35,144,19*7C
$GPGSV,3,2,11,02,28,112,17,27,27,144,21,04,26,065,16,29,24,207,*7A
$GPGSV,3,3,11,31,09,309,23,32,04,337,,20,01,004,*4C
$GPRMC,085621.000,A,5229.6292,N,01319.4674,E,0.97,266.95,090912,,,A*6D
$GPGGA,085622.000,5229.6294,N,01319.4679,E,1,04,2.8,43.4,M,44.8,M,,0000*61
$GPGSA,A,3,12,09,25,14,,,,,,,,,3.0,2.8,1.0*32
$GPRMC,085623.000,A,5229.6296,N,01319.4690,E,1.57,91.57,090912,,,A*58
$GPGGA,085624.000,5229.6295,N,01319.4694,E,0,03,,41.6,M,44.8,M,,0000*47
$GPGSA,A,1,12,25,14,,,,,,,,,,,,*1F
$GPRMC,085634.000,A,5229.6284,N,01319.4716,E,1.64,19.33,090912,,,A*50
$GPGGA,085635.000,5229.6288,N,01319.4717,E,1,04,2.8,37.4,M,44.8,M,,0000*60
$GPGSA,A,3,12,09,25,14,,,,,,,,,3.0,2.8,1.0*32
$GPGSV,3,1,11,12,81,049,25,25,53,272,27,14,39,273,20,09,35,144,22*7D
$GPGSV,3,2,11,02,28,112,14,27,27,144,17,04,26,065,15,29,24,207,*7F
$GPGSV,3,3,11,31,09,309,17,32,04,337,,20,01,004,*4B
$GPRMC,085635.000,A,5229.6288,N,01319.4717,E,0.96,7.97,090912,,,A*61
$GPGGA,085636.000,5229.6291,N,01319.4719,E,0,03,,37.1,M,44.8,M,,0000*42
$GPGSA,A,1,09,25,14,,,,,,,,,,,,*15
$GPRMC,085637.000,A,5229.6294,N,01319.4721,E,0.87,39.23,090912,,,A*59
$GPGGA,085638.000,5229.6304,N,01319.4727,E,1,03,2.9,36.5,M,44.8,M,,0000*6D
$GPGSA,A,2,12,09,14,,,,,,,,,,3.1,2.9,1.0*34
$GPRMC,085638.000,A,5229.6304,N,01319.4727,E,2.56,24.77,090912,,,A*5B
$GPGGA,085639.000,5229.6311,N,01319.4731,E,1,03,2.9,36.2,M,44.8,M,,0000*68
$GPGSA,A,2,12,09,14,,,,,,,,,,3.1,2.9,1.0*34
$GPRMC,085639.000,A,5229.6311,N,01319.4731,E,1.58,28.96,090912,,,A*57
$GPGGA,085640.000,5229.6315,N,01319.4730,E,1,04,2.8,36.0,M,44.8,M,,0000*67
$GPGSA,A,3,12,09,25,14,,,,,,,,,3.0,2.8,1.0*32
$GPGSV,3,1,11,12,81,049,18,25,53,272,19,14,39,273,13,09,35,144,21*7D
$GPGSV,3,2,11,02,28,112,,27,27,144,17,04,26,065,14,29,24,207,*7B
$GPGSV,3,3,11,31,09,309,18,32,04,337,,20,01,004,*44
$GPRMC,085641.000,A,5229.6314,N,01319.4723,E,1.57,229.45,090912,,,A*6C
$GPGGA,085642.000,5229.6306,N,01319.4717,E,0,03,,35.7,M,44.8,M,,0000*44
$GPGSA,A,1,09,25,14,,,,,,,,,,,,*15
$GPRMC,085643.000,A,5229.6296,N,01319.4709,E,4.04,202.76,090912,,,A*67
$GPGGA,085644.000,5229.6287,N,01319.4700,E,1,04,2.8,35.4,M,44.8,M,,0000*6D
$GPGSA,A,3,12,09,25,14,,,,,,,,,3.0,2.8,1.0*32
$GPRMC,085644.000,A,5229.6287,N,01319.4700,E,3.60,213.20,090912,,,A*6F
$GPGGA,085645.000,5229.6280,N,01319.4690,E,1,04,2.8,34.9,M,44.8,M,,0000*6F
$GPGSA,A,3,12,09,25,14,,,,,,,,,3.0,2.8,1.0*32
$GPGSV,3,1,11,12,81,049,24,25,53,272,17,14,39,273,14,09,35,144,21*7B
$GPGSV,3,2,11,02,28,112,,27,27,144,16,04,26,065,16,29,24,207,*78
$GPGSV,3,3,11,31,09,309,16,32,04,337,,20,01,004,*4A
$GPRMC,085645.000,A,5229.6280,N,01319.4690,E,3.25,223.15,090912,,,A*65
$GPGGA,085646.000,5229.6273,N,01319.4680,E,1,04,2.8,34.3,M,44.8,M,,0000*6B
$GPGSA,A,3,12,09,25,14,,,,,,,,,3.0,2.8,1.0*32
$GPRMC,085646.000,A,5229.6273,N,01319.4680,E,3.20,221.73,090912,,,A*6C
$GPGGA,085647.000,5229.6264,N,01319.4668,E,1,04,2.8,33.7,M,44.8,M,,0000*69
$GPGSA,A,3,12,09,25,14,,,,,,,,,3.0,2.8,1.0*32
$GPRMC,085647.000,A,5229.6264,N,01319.4668,E,3.44,219.53,090912,,,A*66
$GPGGA,085648.000,5229.6254,N,01319.4657,E,1,04,2.8,33.1,M,44.8,M,,0000*6F
$GPGSA,A,3,12,09,25,14,,,,,,,,,3.0,2.8,1.0*32
$GPRMC,085648.000,A,5229.6254,N,01319.4657,E,3.10,221.40,090912,,,A*6E
$GPGGA,085649.000,5229.6248,N,01319.4647,E,1,04,2.8,32.7,M,44.8,M,,0000*65
$GPGSA,A,3,12,09,25,14,,,,,,,,,3.0,2.8,1.0*32
$GPRMC,085649.000,A,5229.6248,N,01319.4647,E,2.00,231.40,090912,,,A*62
$GPGGA,085650.000,5229.6240,N,01319.4640,E,1,04,2.8,32.5,M,44.8,M,,0000*60
$GPGSA,A,3,12,09,25,14,,,,,,,,,3.0,2.8,1.0*32
$GPGSV,3,1,11,12,81,049,25,25,53,272,19,14,39,273,14,09,35,144,20*75
$GPGSV,3,2,11,02,28,112,,27,27,144,15,04,26,065,15,29,24,207,*78
$GPGSV,3,3,11,31,09,309,15,32,04,337,,20,01,004,*49
$GPRMC,085650.000,A,5229.6240,N,01319.4640,E,1.46,223.22,090912,,,A*63
$GPGGA,085651.000,5229.6230,N,01319.4636,E,1,04,2.8,32.5,M,44.8,M,,0000*67
$GPGSA,A,3,12,09,25,14,,,,,,,,,3.0,2.8,1.0*32
$GPRMC,085651.000,A,5229.6230,N,01319.4636,E,1.34,189.44,090912,,,A*62
$GPGGA,085652.000,5229.6220,N,01319.4635,E,1,03,2.9,32.6,M,44.8,M,,0000*63
$GPGSA,A,2,12,09,14,,,,,,,,,,3.1,2.9,1.0*34
$GPRMC,085652.000,A,5229.6220,N,01319.4635,E,1.36,161.93,090912,,,A*6D
$GPGGA,085653.000,5229.6212,N,01319.4634,E,1,04,2.8,32.7,M,44.8,M,,0000*65
$GPGSA,A,3,12,09,25,14,,,,,,,,,3.0,2.8,1.0*32
$GPRMC,085658.000,A,5229.6203,N,01319.4629,E,1.48,334.81,090912,,,A*63
$GPGGA,085659.000,5229.6202,N,01319.4626,E,1,04,2.8,33.4,M,44.8,M,,0000*6F
$GPGSA,A,3,12,09,25,14,,,,,,,,,3.0,2.8,1.0*32
$GPRMC,085659.000,A,5229.6202,N,01319.4626,E,0.90,326.07,090912,,,A*65
$GPGGA,085700.000,5229.6200,N,01319.4624,E,1,04,2.8,33.5,M,44.8,M,,0000*63
$GPGSA,A,3,12,09,25,14,,,,,,,,,3.0,2.8,1.0*32
$GPGSV,3,1,11,12,81,049,25,25,53,272,19,14,39,273,16,09,35,144,21*76
$GPGSV,3,2,11,02,28,112,,27,27,144,15,04,26,065,13,29,24,207,*7E
$GPGSV,3,3,11,31,09,309,13,32,04,337,,20,01,004,*4F
$GPRMC,085701.000,A,5229.6197,N,01319.4618,E,1.28,258.44,090912,,,A*66
$GPGGA,085702.000,5229.6193,N,01319.4608,E,1,03,3.1,33.6,M,44.8,M,,0000*6A
$GPGSA,A,2,12,09,25,,,,,,,,,,3.3,3.1,1.0*3D
$GPRMC,085702.000,A,5229.6193,N,01319.4608,E,2.17,241.53,090912,,,A*61
$GPGGA,085703.000,5229.6189,N,01319.4597,E,1,04,2.8,33.6,M,44.8,M,,0000*6A
$GPGSA,A,3,12,09,25,14,,,,,,,,,3.0,2.8,1.0*32
$GPRMC,085703.000,A,5229.6189,N,01319.4597,E,2.34,245.61,090912,,,A*6A
$GPGGA,085704.000,5229.6186,N,01319.4587,E,1,04,2.8,33.4,M,44.8,M,,0000*61
$GPGSA,A,3,12,09,25,14,,,,,,,,,3.0,2.8,1.0*32
$GPRMC,085704.000,A,5229.6186,N,01319.4587,E,2.08,240.51,090912,,,A*6A
$GPGGA,085705.000,5229.6185,N,01319.4583,E,1,03,3.1,33.2,M,44.8,M,,0000*6E
$GPGSA,A,2,12,09,25,,,,,,,,,,3.3,3.1,1.0*3D
$GPGSV,3,1,11,12,81,049,26,25,53,272,20,14,39,273,16,09,35,144,21*7F
$GPGSV,3,2,11,02,28,112,,27,27,144,16,04,26,065,13,29,24,207,*7D
$GPGSV,3,3,11,31,09,309,14,32,04,337,,20,01,004,*48
$GPRMC,085705.000,A,5229.6185,N,01319.4583,E,1.18,235.43,090912,,,A*6F
$GPGGA,085706.000,5229.6186,N,01319.4584,E,1,03,3.1,32.8,M,44.8,M,,0000*62
$GPGSA,A,2,12,09,25,,,,,,,,,,3.3,3.1,1.0*3D
$GPRMC,085709.000,A,5229.6198,N,01319.4602,E,1.84,60.90,090912,,,A*5C
$GPGGA,085710.000,5229.6205,N,01319.4611,E,1,04,2.8,30.6,M,44.8,M,,0000*61
$GPGSA,A,3,12,09,25,14,,,,,,,,,3.0,2.8,1.0*32
$GPGSV,3,1,11,12,81,049,26,25,53,272,20,14,39,273,17,09,35,144,25*7A
$GPGSV,3,2,11,02,28,112,,27,27,144,19,04,26,065,15,29,24,207,*74
$GPGSV,3,3,11,31,09,309,15,32,04,337,,20,01,004,*49
$GPRMC,085710.000,A,5229.6205,N,01319.4611,E,1.60,54.96,090912,,,A*5A
$GPGGA,085711.000,5229.6212,N,01319.4621,E,1,04,2.8,29.8,M,44.8,M,,0000*63
$GPGSA,A,3,12,09,25,14,,,,,,,,,3.0,2.8,1.0*32
$GPRMC,085711.000,A,5229.6212,N,01319.4621,E,1.56,49.65,090912,,,A*5B
$GPGGA,085712.000,5229.6218,N,01319.4627,E,1,03,3.1,29.2,M,44.8,M,,0000*69
$GPGSA,A,2,12,09,25,,,,,,,,,,3.3,3.1,1.0*3D
$GPRMC,085712.000,A,5229.6218,N,01319.4627,E,0.97,43.47,090912,,,A*52
$GPGGA,085713.000,5229.6223,N,01319.4630,E,1,04,2.8,28.8,M,44.8,M,,0000*62
$GPGSA,A,3,12,09,25,14,,,,,,,,,3.0,2.8,1.0*32
$GPRMC,085715.000,A,5229.6233,N,01319.4641,E,0.93,56.01,090912,,,A*5E
$GPGGA,085716.000,5229.6237,N,01319.4648,E,1,04,2.8,27.9,M,44.8,M,,0000*63
$GPGSA,A,3,12,09,25,14,,,,,,,,,3.0,2.8,1.0*32
$GPRMC,085716.000,A,5229.6237,N,01319.4648,E,1.00,59.15,090912,,,A*51
$GPGGA,085717.000,5229.6241,N,01319.4654,E,1,04,2.8,27.7,M,44.8,M,,0000*60
$GPGSA,A,3,12,09,25,14,,,,,,,,,3.0,2.8,1.0*32
$GPRMC,085717.000,A,5229.6241,N,01319.4654,E,0.83,71.38,090912,,,A*53
$GPGGA,085718.000,5229.6246,N,01319.4660,E,1,04,2.8,27.4,M,44.8,M,,0000*6C
$GPGSA,A,3,12,09,25,14,,,,,,,,,3.0,2.8,1.0*32
$GPRMC,085733.000,A,5229.6281,N,01319.4670,E,0.82,68.30,090912,,,A*5E
$GPGGA,085734.000,5229.6284,N,01319.4674,E,1,04,2.8,25.3,M,44.8,M,,0000*6C
$GPGSA,A,3,12,09,25,14,,,,,,,,,3.0,2.8,1.0*32
$GPRMC,085735.000,A,5229.6286,N,01319.4679,E,1.05,98.34,090912,,,A*53
$GPGGA,085736.000,5229.6290,N,01319.4686,E,1,04,2.8,24.7,M,44.8,M,,0000*63
$GPGSA,A,3,12,09,25,14,,,,,,,,,3.0,2.8,1.0*32
$GPRMC,085736.000,A,5229.6290,N,01319.4686,E,1.35,66.08,090912,,,A*5A
$GPGGA,085737.000,5229.6294,N,01319.4693,E,1,04,2.8,24.5,M,44.8,M,,0000*60
$GPGSA,A,3,12,09,25,14,,,,,,,,,3.0,2.8,1.0*32
$GPRMC,085737.000,A,5229.6294,N,01319.4693,E,1.37,62.38,090912,,,A*5E
$GPGGA,085738.000,5229.6297,N,01319.4698,E,1,04,2.8,24.4,M,44.8,M,,0000*66
$GPGSA,A,3,12,09,25,14,,,,,,,,,3.0,2.8,1.0*32
$GPRMC,085738.000,A,5229.6297,N,01319.4698,E,0.99,58.23,090912,,,A*5F
$GPGGA,085739.000,5229.6299,N,01319.4700,E,1,04,2.8,24.5,M,44.8,M,,0000*68
$GPGSA,A,3,12,09,25,14,,,,,,,,,3.0,2.8,1.0*32
$GPRMC,085742.000,A,5229.6294,N,01319.4691,E,0.99,242.11,090912,,,A*60
$GPGGA,085743.000,5229.6293,N,01319.4683,E,1,04,2.8,25.3,M,44.8,M,,0000*62
$GPGSA,A,3,12,09,25,14,,,,,,,,,2.9,2.8,1.0*3A
$GPRMC,085743.000,A,5229.6293,N,01319.4683,E,1.36,256.23,090912,,,A*65
$GPGGA,085744.000,5229.6289,N,01319.4675,E,1,04,2.8,25.6,M,44.8,M,,0000*62
$GPGSA,A,3,12,09,25,14,,,,,,,,,2.9,2.8,1.0*3A
$GPRMC,085744.000,A,5229.6289,N,01319.4675,E,1.24,232.57,090912,,,A*62
$GPGGA,085745.000,5229.6283,N,01319.4668,E,1,04,2.8,26.0,M,44.8,M,,0000*60
$GPGSA,A,3,12,09,25,14,,,,,,,,,2.9,2.8,1.0*3A
$GPGSV,3,1,11,12,81,049,25,25,53,272,20,14,39,273,17,09,35,144,24*78
$GPGSV,3,2,11,02,28,112,16,27,27,144,23,04,26,065,14,29,24,207,*7B
$GPGSV,3,3,11,31,09,309,19,32,04,337,,20,01,004,*45
$GPRMC,085745.000,A,5229.6283,N,01319.4668,E,1.51,212.60,090912,,,A*61
$GPGGA,085746.000,5229.6277,N,01319.4659,E,1,04,2.8,26.3,M,44.8,M,,0000*69
$GPGSA,A,3,12,09,25,14,,,,,,,,,2.9,2.8,1.0*3A
$GPRMC,085746.000,A,5229.6277,N,01319.4659,E,1.60,217.65,090912,,,A*69
$GPGGA,085747.000,5229.6272,N,01319.4651,E,1,04,2.8,26.7,M,44.8,M,,0000*61
$GPGSA,A,3,12,09,25,14,,,,,,,,,2.9,2.8,1.0*3A
$GPRMC,085747.000,A,5229.6272,N,01319.4651,E,1.31,222.15,090912,,,A*60
$GPGGA,085748.000,5229.6267,N,01319.4645,E,1,03,3.1,27.0,M,44.8,M,,0000*66
$GPGSA,A,2,12,09,25,,,,,,,,,,3.2,3.1,1.0*3C
$GPRMC,085751.000,A,5229.6267,N,01319.4639,E,1.43,9.26,090912,,,A*63
$GPGGA,085752.000,5229.6267,N,01319.4639,E,1,04,2.8,28.4,M,44.8,M,,0000*62
$GPGSA,A,3,12,09,25,14,,,,,,,,,2.9,2.8,1.0*3A
$GPRMC,085752.000,A,5229.6267,N,01319.4639,E,0.95,17.70,090912,,,A*56
$GPGGA,085753.000,5229.6264,N,01319.4641,E,1,04,2.8,28.6,M,44.8,M,,0000*6D
$GPGSA,A,3,12,09,25,14,,,,,,,,,2.9,2.8,1.0*3A
$GPRMC,085803.000,A,5229.6241,N,01319.4651,E,1.27,153.21,090912,,,A*6A
$GPGGA,085804.000,5229.6241,N,01319.4652,E,1,04,2.8,27.8,M,44.8,M,,0000*64
$GPGSA,A,3,12,09,25,14,,,,,,,,,2.9,2.8,1.0*3A
$GPRMC,085810.000,A,5229.6224,N,01319.4637,E,0.90,225.71,090912,,,A*61
$GPGGA,085811.000,5229.6215,N,01319.4629,E,1,05,2.2,33.4,M,44.8,M,,0000*6F
$GPGSA,A,3,31,12,09,25,14,,,,,,,,2.8,2.2,1.8*3B
$GPRMC,085811.000,A,5229.6215,N,01319.4629,E,1.01,219.14,090912,,,A*68
$GPGGA,085812.000,5229.6207,N,01319.4625,E,1,05,2.2,35.6,M,44.8,M,,0000*67
$GPGSA,A,3,31,12,09,25,14,,,,,,,,2.8,2.2,1.8*3B
$GPRMC,085813.000,A,5229.6198,N,01319.4619,E,0.87,208.75,090912,,,A*67
$GPGGA,085814.000,5229.6189,N,01319.4611,E,1,05,2.2,39.8,M,44.8,M,,0000*61
$GPGSA,A,3,31,12,09,25,14,,,,,,,,2.8,2.2,1.8*3B
$GPRMC,085814.000,A,5229.6189,N,01319.4611,E,1.25,232.16,090912,,,A*6D
$GPGGA,085815.000,5229.6180,N,01319.4598,E,1,05,2.2,42.1,M,44.8,M,,0000*6E
$GPGSA,A,3,31,12,09,25,14,,,,,,,,2.8,2.2,1.8*3B
$GPGSV,3,1,11,12,81,049,26,25,53,272,19,14,39,273,18,09,35,144,21*7B
$GPGSV,3,2,11,02,28,112,21,27,27,144,25,04,26,065,12,29,24,207,*7F
$GPGSV,3,3,11,31,09,309,23,32,04,337,,20,01,004,*4C
$GPRMC,085815.000,A,5229.6180,N,01319.4598,E,1.98,245.99,090912,,,A*66
$GPGGA,085816.000,5229.6176,N,01319.4590,E,1,05,2.2,44.3,M,44.8,M,,0000*68
$GPGSA,A,3,31,12,09,25,14,,,,,,,,2.8,2.2,1.8*3B
$GPRMC,085816.000,A,5229.6176,N,01319.4590,E,1.20,300.48,090912,,,A*6B
$GPGGA,085817.000,5229.6170,N,01319.4585,E,1,05,2.2,46.3,M,44.8,M,,0000*69
$GPGSA,A,3,31,12,09,25,14,,,,,,,,2.8,2.2,1.8*3B
$GPRMC,085822.000,A,5229.6145,N,01319.4568,E,0.92,313.82,090912,,,A*67
$GPGGA,085823.000,5229.6143,N,01319.4562,E,1,05,2.2,56.0,M,44.8,M,,0000*65
$GPGSA,A,3,31,12,09,25,14,,,,,,,,2.8,2.2,1.8*3B
$GPRMC,085823.000,A,5229.6143,N,01319.4562,E,0.83,310.26,090912,,,A*67
$GPGGA,085824.000,5229.6140,N,01319.4557,E,1,05,2.2,57.5,M,44.8,M,,0000*63
$GPGSA,A,3,31,12,09,25,14,,,,,,,,2.8,2.2,1.8*3B
$GPRMC,085835.000,A,5229.6098,N,01319.4546,E,1.05,119.00,090912,,,A*61
$GPGGA,085836.000,5229.6096,N,01319.4549,E,1,05,2.1,64.1,M,44.8,M,,0000*62
$GPGSA,A,3,31,12,09,25,14,,,,,,,,2.8,2.1,1.8*38
$GPRMC,085847.000,A,5229.6093,N,01319.4568,E,0.96,116.35,090912,,,A*61
$GPGGA,085848.000,5229.6094,N,01319.4575,E,1,05,2.1,63.0,M,44.8,M,,0000*60
$GPGSA,A,3,31,12,09,25,14,,,,,,,,2.8,2.1,1.8*38
$GPRMC,085848.000,A,5229.6094,N,01319.4575,E,1.20,74.88,090912,,,A*5A
$GPGGA,085849.000,5229.6098,N,01319.4586,E,1,05,2.1,62.4,M,44.8,M,,0000*64
$GPGSA,A,3,31,12,09,25,14,,,,,,,,2.8,2.1,1.8*38
$GPRMC,085849.000,A,5229.6098,N,01319.4586,E,2.27,59.28,090912,,,A*5A
$GPGGA,085850.000,5229.6101,N,01319.4595,E,1,05,2.1,61.9,M,44.8,M,,0000*61
$GPGSA,A,3,31,12,09,25,14,,,,,,,,2.8,2.1,1.8*38
$GPGSV,3,1,11,12,80,054,26,25,54,273,20,14,39,272,19,09,33,144,20*7D
$GPGSV,3,2,11,02,29,111,21,04,26,063,15,27,26,144,27,29,25,207,*7E
$GPGSV,3,3,11,31,10,309,25,32,04,336,,20,01,002,*45
$GPRMC,085850.000,A,5229.6101,N,01319.4595,E,1.60,57.18,090912,,,A*5C
$GPGGA,085851.000,5229.6102,N,01319.4600,E,1,05,2.1,61.5,M,44.8,M,,0000*60
$GPGSA,A,3,31,12,09,25,14,,,,,,,,2.8,2.1,1.8*38
$GPRMC,085853.000,A,5229.6110,N,01319.4605,E,1.04,359.36,090912,,,A*66
$GPGGA,085854.000,5229.6115,N,01319.4610,E,1,05,2.1,61.3,M,44.8,M,,0000*64
$GPGSA,A,3,31,12,09,25,14,,,,,,,,2.8,2.1,1.8*38
$GPRMC,085854.000,A,5229.6115,N,01319.4610,E,0.99,25.59,090912,,,A*54
$GPGGA,085855.000,5229.6118,N,01319.4613,E,1,05,2.1,61.5,M,44.8,M,,0000*6D
$GPGSA,A,3,31,12,09,25,14,,,,,,,,2.8,2.1,1.8*38
$GPGSV,3,1,11,12,80,054,26,25,54,273,21,14,39,272,19,09,33,144,20*7C
$GPGSV,3,2,11,02,29,111,21,04,26,063,16,27,26,144,26,29,25,207,*7C
$GPGSV,3,3,11,31,10,309,25,32,04,336,,20,01,002,*45
$GPRMC,085858.000,A,5229.6126,N,01319.4624,E,0.81,90.23,090912,,,A*55
$GPGGA,085859.000,5229.6129,N,01319.4631,E,1,05,2.1,62.6,M,44.8,M,,0000*63
$GPGSA,A,3,31,12,09,25,14,,,,,,,,2.8,2.1,1.8*38
$GPRMC,085903.000,A,5229.6144,N,01319.4645,E,1.11,31.25,090912,,,A*5C
$GPGGA,085904.000,5229.6150,N,01319.4651,E,1,04,2.7,64.3,M,44.8,M,,0000*66
$GPGSA,A,3,31,12,25,14,,,,,,,,,2.9,2.7,1.0*3E
$GPRMC,085904.000,A,5229.6150,N,01319.4651,E,1.33,26.08,090912,,,A*52
$GPGGA,085905.000,5229.6158,N,01319.4656,E,1,05,2.1,64.9,M,44.8,M,,0000*65
$GPGSA,A,3,31,12,09,25,14,,,,,,,,2.8,2.1,1.8*38
$GPGSV,3,1,11,12,80,054,25,25,54,273,22,14,39,272,20,09,33,144,19*7C
$GPGSV,3,2,11,02,29,111,20,04,26,063,17,27,26,144,26,29,25,207,*7C
$GPGSV,3,3,11,31,10,309,25,32,04,336,,20,01,002,*45
$GPRMC,085905.000,A,5229.6158,N,01319.4656,E,1.56,12.17,090912,,,A*56
$GPGGA,085906.000,5229.6167,N,01319.4664,E,1,05,2.1,65.5,M,44.8,M,,0000*66
$GPGSA,A,3,31,12,09,25,14,,,,,,,,2.8,2.1,1.8*38
$GPRMC,085906.000,A,5229.6167,N,01319.4664,E,1.99,24.87,090912,,,A*57
$GPGGA,085907.000,5229.6173,N,01319.4670,E,1,05,2.1,66.1,M,44.8,M,,0000*60
$GPGSA,A,3,31,12,09,25,14,,,,,,,,2.8,2.1,1.8*38
$GPRMC,085907.000,A,5229.6173,N,01319.4670,E,1.19,28.22,090912,,,A*5D
$GPGGA,085908.000,5229.6177,N,01319.4674,E,1,04,2.7,66.5,M,44.8,M,,0000*6C
$GPGSA,A,3,31,12,25,14,,,,,,,,,2.9,2.7,1.0*3E
$GPRMC,085910.000,A,5229.6182,N,01319.4687,E,0.86,81.49,090912,,,A*54
$GPGGA,085911.000,5229.6184,N,01319.4690,E,1,05,2.1,66.9,M,44.8,M,,0000*69
$GPGSA,A,3,31,12,09,25,14,,,,,,,,2.8,2.1,1.8*38
$GPRMC,085915.000,A,5229.6184,N,01319.4696,E,1.31,151.09,090912,,,A*62
$GPGGA,085916.000,5229.6178,N,01319.4700,E,1,05,2.1,64.2,M,44.8,M,,0000*6C
$GPGSA,A,3,31,12,09,25,14,,,,,,,,2.8,2.1,1.8*38
$GPRMC,085916.000,A,5229.6178,N,01319.4700,E,2.50,165.90,090912,,,A*6F
$GPGGA,085917.000,5229.6168,N,01319.4703,E,1,05,2.1,63.5,M,44.8,M,,0000*6F
$GPGSA,A,3,31,12,09,25,14,,,,,,,,2.8,2.1,1.8*38
$GPRMC,085917.000,A,5229.6168,N,01319.4703,E,3.46,174.32,090912,,,A*62
$GPGGA,085918.000,5229.6159,N,01319.4705,E,1,05,2.1,62.9,M,44.8,M,,0000*69
$GPGSA,A,3,31,12,09,25,14,,,,,,,,2.8,2.1,1.8*38
$GPRMC,085918.000,A,5229.6159,N,01319.4705,E,3.37,173.28,090912,,,A*63
$GPGGA,085919.000,5229.6153,N,01319.4705,E,1,05,2.1,62.5,M,44.8,M,,0000*6E
$GPGSA,A,3,31,12,09,25,14,,,,,,,,2.8,2.1,1.8*38
$GPRMC,085919.000,A,5229.6153,N,01319.4705,E,1.95,180.07,090912,,,A*63
$GPGGA,085920.000,5229.6155,N,01319.4703,E,1,05,2.1,62.2,M,44.8,M,,0000*63
$GPGSA,A,3,31,12,09,25,14,,,,,,,,2.8,2.1,1.8*38
$GPGSV,3,1,11,12,80,054,24,25,54,273,22,14,39,272,20,09,33,144,18*7C
$GPGSV,3,2,11,02,29,111,19,04,26,063,17,27,26,144,25,29,25,207,*75
$GPGSV,3,3,11,31,10,309,20,32,04,336,,20,01,002,*40
$GPRMC,085923.000,A,5229.6151,N,01319.4698,E,1.64,199.42,090912,,,A*6A
$GPGGA,085924.000,5229.6146,N,01319.4692,E,1,05,2.1,61.4,M,44.8,M,,0000*69
$GPGSA,A,3,31,12,09,25,14,,,,,,,,2.8,2.1,1.8*38
$GPRMC,085924.000,A,5229.6146,N,01319.4692,E,2.13,203.09,090912,,,A*6D
$GPGGA,085925.000,5229.6145,N,01319.4691,E,1,05,2.1,61.2,M,44.8,M,,0000*6E
$GPGSA,A,3,31,12,09,25,14,,,,,,,,2.8,2.1,1.8*38
$GPGSV,3,1,11,12,80,054,23,25,54,273,22,14,39,272,19,09,33,144,18*71
$GPGSV,3,2,11,02,29,111,18,04,26,063,18,27,26,144,25,29,25,207,*7B
$GPGSV,3,3,11,31,10,309,21,32,04,336,,20,01,002,*41
$GPRMC,085925.000,A,5229.6145,N,01319.4691,E,0.86,182.85,090912,,,A*6C
$GPGGA,085926.000,5229.6146,N,01319.4696,E,1,03,3.4,61.0,M,44.8,M,,0000*69
$GPGSA,A,2,31,12,25,,,,,,,,,,3.5,3.4,1.0*35
$GPRMC,085926.000,A,5229.6146,N,01319.4696,E,1.23,94.83,090912,,,A*55
$GPGGA,085927.000,5229.6144,N,01319.4698,E,1,04,2.7,60.7,M,44.8,M,,0000*67
$GPGSA,A,3,31,12,25,14,,,,,,,,,2.9,2.7,1.0*3E
$GPRMC,085927.000,A,5229.6144,N,01319.4698,E,1.10,147.29,090912,,,A*67
$GPGGA,085928.000,5229.6143,N,01319.4695,E,1,04,2.7,60.2,M,44.8,M,,0000*67
$GPGSA,A,3,31,12,25,14,,,,,,,,,2.9,2.7,1.0*3E
$GPRMC,085928.000,A,5229.6143,N,01319.4695,E,1.19,210.18,090912,,,A*68
$GPGGA,085929.000,5229.6141,N,01319.4689,E,1,05,2.1,59.9,M,44.8,M,,0000*6F
$GPGSA,A,3,31,12,09,25,14,,,,,,,,2.8,2.1,1.8*38
$GPRMC,085929.000,A,5229.6141,N,01319.4689,E,1.79,231.95,090912,,,A*66
$GPGGA,085930.000,5229.6143,N,01319.4683,E,1,05,2.1,59.7,M,44.8,M,,0000*61
$GPGSA,A,3,31,12,09,25,14,,,,,,,,2.8,2.1,1.8*38
$GPRMC,085930.000,A,5229.6143,N,01319.4683,E,1.33,254.97,090912,,,A*69
$GPGGA,085931.000,5229.6148,N,01319.4684,E,1,04,2.7,59.7,M,44.8,M,,0000*6B
$GPGSA,A,3,31,12,25,14,,,,,,,,,2.9,2.7,1.0*3E
$GPRMC,085932.000,A,5229.6155,N,01319.4685,E,1.04,354.81,090912,,,A*68
$GPGGA,085933.000,5229.6161,N,01319.4684,E,1,05,2.1,59.8,M,44.8,M,,0000*6A
$GPGSA,A,3,31,12,09,25,14,,,,,,,,2.8,2.1,1.8*38
$GPRMC,085933.000,A,5229.6161,N,01319.4684,E,0.83,314.63,090912,,,A*69
$GPGGA,085934.000,5229.6164,N,01319.4679,E,1,05,2.1,59.9,M,44.8,M,,0000*6B
$GPGSA,A,3,31,12,09,25,14,,,,,,,,2.8,2.1,1.8*38
$GPRMC,085934.000,A,5229.6164,N,01319.4679,E,1.21,254.60,090912,,,A*66
$GPGGA,085935.000,5229.6164,N,01319.4671,E,1,05,2.1,60.0,M,44.8,M,,0000*61
$GPGSA,A,3,31,12,09,25,14,,,,,,,,2.8,2.1,1.8*38
$GPGSV,3,1,11,12,80,054,24,25,54,273,21,14,39,272,19,09,33,144,17*7A
$GPGSV,3,2,11,02,29,111,16,04,26,063,17,27,26,144,25,29,25,207,*7A
$GPGSV,3,3,11,31,10,309,22,32,04,336,,20,01,002,*42
$GPRMC,085935.000,A,5229.6164,N,01319.4671,E,1.92,243.32,090912,,,A*66
$GPGGA,085936.000,5229.6167,N,01319.4665,E,1,05,2.1,60.1,M,44.8,M,,0000*65
$GPGSA,A,3,31,12,09,25,14,,,,,,,,2.8,2.1,1.8*38
$GPRMC,085936.000,A,5229.6167,N,01319.4665,E,1.07,276.82,090912,,,A*62
$GPGGA,085937.000,5229.6172,N,01319.4659,E,1,05,2.1,60.4,M,44.8,M,,0000*6A
$GPGSA,A,3,31,12,09,25,14,,,,,,,,2.8,2.1,1.8*38
$GPRMC,085937.000,A,5229.6172,N,01319.4659,E,1.36,294.09,090912,,,A*65
$GPGGA,085938.000,5229.6175,N,01319.4652,E,1,05,2.1,60.6,M,44.8,M,,0000*6B
$GPGSA,A,3,31,12,09,25,14,,,,,,,,2.8,2.1,1.8*38
$GPRMC,085938.000,A,5229.6175,N,01319.4652,E,1.28,289.61,090912,,,A*6B
$GPGGA,085939.000,5229.6179,N,01319.4647,E,1,05,2.1,60.8,M,44.8,M,,0000*6C
$GPGSA,A,3,31,12,09,25,14,,,,,,,,2.8,2.1,1.8*38
$GPRMC,085941.000,A,5229.6180,N,01319.4641,E,1.12,172.46,090912,,,A*66
$GPGGA,085942.000,5229.6174,N,01319.4640,E,1,05,2.1,60.2,M,44.8,M,,0000*60
$GPGSA,A,3,31,12,09,25,14,,,,,,,,2.8,2.1,1.8*38
$GPRMC,085942.000,A,5229.6174,N,01319.4640,E,2.29,172.32,090912,,,A*67
$GPGGA,085943.000,5229.6169,N,01319.4637,E,1,05,2.1,59.9,M,44.8,M,,0000*6C
$GPGSA,A,3,31,12,09,25,14,,,,,,,,2.8,2.1,1.8*38
$GPRMC,085943.000,A,5229.6169,N,01319.4637,E,2.12,179.69,090912,,,A*67
$GPGGA,085944.000,5229.6166,N,01319.4634,E,1,05,2.1,59.5,M,44.8,M,,0000*6B
$GPGSA,A,3,31,12,09,25,14,,,,,,,,2.8,2.1,1.8*38
$GPRMC,085944.000,A,5229.6166,N,01319.4634,E,1.37,185.06,090912,,,A*62
$GPGGA,085945.000,5229.6165,N,01319.4626,E,1,05,2.1,59.2,M,44.8,M,,0000*6D
$GPGSA,A,3,31,12,09,25,14,,,,,,,,2.8,2.1,1.8*38
$GPGSV,3,1,11,12,80,054,25,25,54,273,20,14,39,272,20,09,33,144,17*70
$GPGSV,3,2,11,02,29,111,14,04,26,063,18,27,26,144,24,29,25,207,*76
$GPGSV,3,3,11,31,10,309,21,32,04,336,,20,01,002,*41
$GPRMC,085945.000,A,5229.6165,N,01319.4626,E,1.25,241.61,090912,,,A*6A
$GPGGA,085946.000,5229.6167,N,01319.4626,E,1,05,2.1,58.6,M,44.8,M,,0000*69
$GPGSA,A,3,31,12,09,25,14,,,,,,,,2.8,2.1,1.8*38
$GPRMC,085947.000,A,5229.6172,N,01319.4631,E,1.50,44.73,090912,,,A*5E
$GPGGA,085948.000,5229.6177,N,01319.4636,E,1,04,2.7,56.7,M,44.8,M,,0000*6F
$GPGSA,A,3,31,12,25,14,,,,,,,,,2.9,2.7,1.0*3E
$GPRMC,085948.000,A,5229.6177,N,01319.4636,E,1.32,43.81,090912,,,A*5D
$GPGGA,085949.000,5229.6182,N,01319.4639,E,1,04,2.7,55.9,M,44.8,M,,0000*66
$GPGSA,A,3,31,12,25,14,,,,,,,,,2.9,2.7,1.0*3E
$GPRMC,085949.000,A,5229.6182,N,01319.4639,E,0.91,27.68,090912,,,A*54
$GPGGA,085950.000,5229.6189,N,01319.4640,E,0,03,,55.2,M,44.8,M,,0000*4D
$GPGSA,A,1,12,25,14,,,,,,,,,,,,*1F
$GPGSV,3,1,11,12,80,054,25,25,54,273,20,14,39,272,20,09,33,144,17*70
$GPGSV,3,2,11,02,29,111,15,04,26,063,19,27,26,144,24,29,25,207,*76
$GPGSV,3,3,11,31,10,309,11,32,04,336,,20,01,002,*42
$GPRMC,085952.000,A,5229.6204,N,01319.4637,E,2.10,344.69,090912,,,A*61
$GPGGA,085953.000,5229.6210,N,01319.4637,E,1,03,2.9,53.8,M,44.8,M,,0000*65
$GPGSA,A,2,31,12,14,,,,,,,,,,3.1,2.9,1.0*3F
$GPRMC,085953.000,A,5229.6210,N,01319.4637,E,1.80,354.73,090912,,,A*65
$GPGGA,085954.000,5229.6215,N,01319.4638,E,1,05,2.1,53.3,M,44.8,M,,0000*6D
$GPGSA,A,3,31,12,09,25,14,,,,,,,,2.8,2.1,1.8*38
$GPRMC,085954.000,A,5229.6215,N,01319.4638,E,0.97,7.04,090912,,,A*6A
$GPGGA,085955.000,5229.6216,N,01319.4641,E,1,05,2.1,52.7,M,44.8,M,,0000*64
$GPGSA,A,3,31,12,09,25,14,,,,,,,,2.8,2.1,1.8*38
$GPGSV,3,1,11,12,80,054,25,25,54,273,18,14,39,272,20,09,33,144,18*74
$GPGSV,3,2,11,02,29,111,15,04,26,063,19,27,26,144,24,29,25,207,*76
$GPGSV,3,3,11,31,10,309,14,32,04,336,,20,01,002,*47
$GPRMC,085956.000,A,5229.6215,N,01319.4642,E,0.90,164.11,090912,,,A*62
$GPGGA,085957.000,5229.6213,N,01319.4645,E,1,04,2.3,51.4,M,44.8,M,,0000*64
$GPGSA,A,3,31,12,09,14,,,,,,,,,3.1,2.3,2.0*3E
$GPRMC,085957.000,A,5229.6213,N,01319.4645,E,1.23,161.21,090912,,,A*6D
$GPGGA,085958.000,5229.6213,N,01319.4649,E,1,04,2.3,50.7,M,44.8,M,,0000*65
$GPGSA,A,3,31,12,09,14,,,,,,,,,3.1,2.3,2.0*3E
$GPRMC,085958.000,A,5229.6213,N,01319.4649,E,0.97,157.31,090912,,,A*64
$GPGGA,085959.000,5229.6212,N,01319.4651,E,1,04,2.3,50.1,M,44.8,M,,0000*6A
$GPGSA,A,3,31,12,09,14,,,,,,,,,3.1,2.3,2.0*3E
$GPRMC,085959.000,A,5229.6212,N,01319.4651,E,1.13,177.21,090912,,,A*63
$GPGGA,090000.000,5229.6213,N,01319.4656,E,1,04,2.3,49.5,M,44.8,M,,0000*61
$GPGSA,A,3,31,12,09,14,,,,,,,,,3.1,2.3,2.0*3E
$GPGSV,3,1,11,12,80,054,24,25,54,273,17,14,39,272,20,09,33,144,18*7A
$GPGSV,3,2,11,02,29,111,15,04,26,063,18,27,26,144,24,29,25,207,*77
$GPGSV,3,3,11,31,10,309,13,32,04,336,,20,01,002,*40
$GPRMC,090000.000,A,5229.6213,N,01319.4656,E,0.91,115.31,090912,,,A*6A
$GPGGA,090001.000,5229.6213,N,01319.4658,E,1,05,2.1,49.2,M,44.8,M,,0000*6A
$GPGSA,A,3,31,12,09,25,14,,,,,,,,2.8,2.1,1.8*38
$GPRMC,090003.000,A,5229.6214,N,01319.4665,E,1.06,131.89,090912,,,A*64
$GPGGA,090004.000,5229.6214,N,01319.4672,E,1,03,2.7,47.7,M,44.8,M,,0000*6B
$GPGSA,A,2,12,09,14,,,,,,,,,,2.9,2.7,1.0*33
$GPRMC,090004.000,A,5229.6214,N,01319.4672,E,1.17,121.30,090912,,,A*66
$GPGGA,090005.000,5229.6215,N,01319.4680,E,1,04,2.3,46.9,M,44.8,M,,0000*6A
$GPGSA,A,3,31,12,09,14,,,,,,,,,3.1,2.3,2.0*3E
$GPGSV,3,1,11,12,80,054,24,25,54,273,16,14,39,272,20,09,33,144,19*7A
$GPGSV,3,2,11,02,29,111,16,04,26,063,18,27,26,144,23,29,25,207,*73
$GPGSV,3,3,11,31,10,309,13,32,04,336,,20,01,002,*40
$GPRMC,090005.000,A,5229.6215,N,01319.4680,E,1.25,116.32,090912,,,A*6C
$GPGGA,090006.000,5229.6217,N,01319.4689,E,1,04,2.3,46.0,M,44.8,M,,0000*6B
$GPGSA,A,3,31,12,09,14,,,,,,,,,3.1,2.3,2.0*3E
$GPRMC,090006.000,A,5229.6217,N,01319.4689,E,1.17,98.85,090912,,,A*5E
$GPGGA,090007.000,5229.6218,N,01319.4694,E,1,03,2.7,45.3,M,44.8,M,,0000*6A
$GPGSA,A,2,12,09,14,,,,,,,,,,2.9,2.7,1.0*33
$GPRMC,090008.000,A,5229.6216,N,01319.4694,E,1.16,194.91,090912,,,A*64
$GPGGA,090009.000,5229.6212,N,01319.4691,E,1,03,2.7,44.0,M,44.8,M,,0000*69
$GPGSA,A,2,12,09,14,,,,,,,,,,2.9,2.7,1.0*33
$GPRMC,090009.000,A,5229.6212,N,01319.4691,E,1.96,204.32,090912,,,A*6F
$GPGGA,090010.000,5229.6207,N,01319.4688,E,0,00,,43.4,M,44.8,M,,0000*47
$GPGSA,A,1,,,,,,,,,,,,,,,*1E
$GPGSV,3,1,11,12,80,054,24,25,54,273,16,14,39,272,19,09,33,144,19*70
$GPGSV,3,2,11,02,29,111,16,04,26,063,17,27,26,144,23,29,25,207,*7C
$GPGSV,3,3,11,31,10,309,14,32,04,336,,20,01,002,*47
$GPRMC,090011.000,A,5229.6202,N,01319.4685,E,2.36,199.08,090912,,,A*65
$GPGGA,090012.000,5229.6200,N,01319.4683,E,1,04,2.3,42.0,M,44.8,M,,0000*66
$GPGSA,A,3,31,12,09,14,,,,,,,,,3.1,2.3,2.0*3E
$GPRMC,090012.000,A,5229.6200,N,01319.4683,E,1.73,194.45,090912,,,A*64
$GPGGA,090013.000,5229.6199,N,01319.4683,E,1,04,2.3,41.5,M,44.8,M,,0000*62
$GPGSA,A,3,31,12,09,14,,,,,,,,,3.1,2.3,2.0*3E
$GPRMC,090013.000,A,5229.6199,N,01319.4683,E,1.16,191.07,090912,,,A*66
$GPGGA,090014.000,5229.6199,N,01319.4681,E,1,04,2.3,41.2,M,44.8,M,,0000*60
$GPGSA,A,3,31,12,09,14,,,,,,,,,3.1,2.3,2.0*3E
$GPRMC,090014.000,A,5229.6199,N,01319.4681,E,1.18,208.92,090912,,,A*62
$GPGGA,090015.000,5229.6197,N,01319.4672,E,1,05,2.1,41.1,M,44.8,M,,0000*63
$GPGSA,A,3,31,12,09,25,14,,,,,,,,2.8,2.1,1.8*38
$GPGSV,3,1,11,12,80,054,24,25,54,273,16,14,39,272,19,09,33,144,19*70
$GPGSV,3,2,11,02,29,111,15,04,26,063,16,27,26,144,22,29,25,207,*7F
$GPGSV,3,3,11,31,10,309,15,32,04,336,,20,01,002,*46
$GPRMC,090015.000,A,5229.6197,N,01319.4672,E,1.79,231.13,090912,,,A*65
$GPGGA,090016.000,5229.6191,N,01319.4660,E,1,05,2.1,41.3,M,44.8,M,,0000*67
$GPGSA,A,3,31,12,09,25,14,,,,,,,,2.8,2.1,1.8*38
$GPRMC,090016.000,A,5229.6191,N,01319.4660,E,2.92,222.27,090912,,,A*60
$GPGGA,090017.000,5229.6190,N,01319.4651,E,1,05,2.1,42.0,M,44.8,M,,0000*65
$GPGSA,A,3,31,12,09,25,14,,,,,,,,2.8,2.1,1.8*38
$GPRMC,090017.000,A,5229.6190,N,01319.4651,E,1.66,234.06,090912,,,A*6E
$GPGGA,090018.000,5229.6193,N,01319.4649,E,1,03,4.9,42.9,M,44.8,M,,0000*61
$GPGSA,A,2,31,12,09,,,,,,,,,,5.0,4.9,1.0*32
$GPRMC,090019.000,A,5229.6198,N,01319.4651,E,1.75,35.73,090912,,,A*5B
$GPGGA,090020.000,5229.6201,N,01319.4654,E,1,04,2.3,44.9,M,44.8,M,,0000*63
$GPGSA,A,3,31,12,09,14,,,,,,,,,3.1,2.3,2.0*3E
$GPGSV,3,1,11,12,80,054,24,25,54,273,16,14,39,272,19,09,33,144,20*7A
$GPGSV,3,2,11,02,29,111,14,04,26,063,16,27,26,144,21,29,25,207,*7D
$GPGSV,3,3,11,31,10,309,16,32,04,336,,20,01,002,*45
$GPRMC,090020.000,A,5229.6201,N,01319.4654,E,1.56,53.20,090912,,,A*50
$GPGGA,090021.000,5229.6205,N,01319.4655,E,1,05,2.1,46.2,M,44.8,M,,0000*6D
$GPGSA,A,3,31,12,09,25,14,,,,,,,,2.8,2.1,1.8*38
$GPRMC,090021.000,A,5229.6205,N,01319.4655,E,1.33,33.53,090912,,,A*55
$GPGGA,090022.000,5229.6210,N,01319.4657,E,1,05,2.1,47.4,M,44.8,M,,0000*6F
$GPGSA,A,3,31,12,09,25,14,,,,,,,,2.8,2.1,1.8*38
$GPRMC,090022.000,A,5229.6210,N,01319.4657,E,1.33,30.78,090912,,,A*5A
$GPGGA,090023.000,5229.6215,N,01319.4660,E,1,05,2.1,48.6,M,44.8,M,,0000*62
$GPGSA,A,3,31,12,09,25,14,,,,,,,,2.8,2.1,1.8*38
$GPRMC,090023.000,A,5229.6215,N,01319.4660,E,1.45,32.41,090912,,,A*53
$GPGGA,090024.000,5229.6221,N,01319.4663,E,1,05,2.1,49.9,M,44.8,M,,0000*6F
$GPGSA,A,3,31,12,09,25,14,,,,,,,,2.8,2.1,1.8*38
$GPRMC,090024.000,A,5229.6221,N,01319.4663,E,1.85,22.04,090912,,,A*5C
$GPGGA,090025.000,5229.6226,N,01319.4662,E,1,05,2.1,51.2,M,44.8,M,,0000*6A
$GPGSA,A,3,31,12,09,25,14,,,,,,,,2.8,2.1,1.8*38
$GPGSV,3,1,11,12,80,054,23,25,54,273,16,14,39,272,20,09,33,144,19*7D
$GPGSV,3,2,11,02,29,111,15,04,26,063,15,27,26,144,20,29,25,207,*7E
$GPGSV,3,3,11,31,10,309,17,32,04,336,,20,01,002,*44
$GPRMC,090025.000,A,5229.6226,N,01319.4662,E,1.42,351.22,090912,,,A*63
$GPGGA,090026.000,5229.6227,N,01319.4659,E,1,05,2.1,52.3,M,44.8,M,,0000*62
$GPGSA,A,3,31,12,09,25,14,,,,,,,,2.8,2.1,1.8*38
$GPRMC,090027.000,A,5229.6222,N,01319.4658,E,1.82,183.39,090912,,,A*67
$GPGGA,090028.000,5229.6215,N,01319.4658,E,1,05,2.1,54.3,M,44.8,M,,0000*6A
$GPGSA,A,3,31,12,09,25,14,,,,,,,,2.8,2.1,1.8*38
$GPRMC,090028.000,A,5229.6215,N,01319.4658,E,2.45,173.32,090912,,,A*60
$GPGGA,090029.000,5229.6209,N,01319.4660,E,1,05,2.1,55.1,M,44.8,M,,0000*6E
$GPGSA,A,3,31,12,09,25,14,,,,,,,,2.8,2.1,1.8*38
$GPRMC,090029.000,A,5229.6209,N,01319.4660,E,2.10,172.95,090912,,,A*6B
$GPGGA,090030.000,5229.6203,N,01319.4658,E,1,05,2.1,55.7,M,44.8,M,,0000*61
$GPGSA,A,3,31,12,09,25,14,,,,,,,,2.8,2.1,1.8*38
$GPGSV,3,1,11,12,80,054,22,25,54,273,17,14,39,272,19,09,33,144,20*7D
$GPGSV,3,2,11,02,29,111,16,04,26,063,15,27,26,144,19,29,25,207,*77
$GPGSV,3,3,11,31,10,309,18,32,04,336,,20,01,002,*4B
$GPRMC,090030.000,A,5229.6203,N,01319.4658,E,1.83,192.26,090912,,,A*6D
$GPGGA,090031.000,5229.6199,N,01319.4651,E,1,05,2.1,56.3,M,44.8,M,,0000*6E
$GPGSA,A,3,31,12,09,25,14,,,,,,,,2.8,2.1,1.8*38
$GPRMC,090031.000,A,5229.6199,N,01319.4651,E,1.89,221.94,090912,,,A*6D
$GPGGA,090032.000,5229.6194,N,01319.4643,E,1,05,2.1,56.8,M,44.8,M,,0000*68
$GPGSA,A,3,31,12,09,25,14,,,,,,,,2.8,2.1,1.8*38
$GPRMC,090032.000,A,5229.6194,N,01319.4643,E,2.19,226.55,090912,,,A*60
$GPGGA,090033.000,5229.6188,N,01319.4638,E,1,04,2.3,57.5,M,44.8,M,,0000*67
$GPGSA,A,3,31,12,09,14,,,,,,,,,3.0,2.3,2.0*3F
$GPRMC,090033.000,A,5229.6188,N,01319.4638,E,2.31,204.56,090912,,,A*69
$GPGGA,090034.000,5229.6182,N,01319.4640,E,1,04,2.3,58.2,M,44.8,M,,0000*6D
$GPGSA,A,3,31,12,09,14,,,,,,,,,3.0,2.3,2.0*3F
$GPRMC,090034.000,A,5229.6182,N,01319.4640,E,1.86,170.07,090912,,,A*60
$GPGGA,090035.000,5229.6177,N,01319.4639,E,1,05,2.1,58.6,M,44.8,M,,0000*6F
$GPGSA,A,3,31,12,09,25,14,,,,,,,,2.8,2.1,1.8*38
$GPGSV,3,1,11,12,80,054,21,25,54,273,18,14,39,272,20,09,33,144,19*71
$GPGSV,3,2,11,02,29,111,17,04,26,063,16,27,26,144,19,29,25,207,*75
$GPGSV,3,3,11,31,10,309,19,32,04,336,,20,01,002,*4A
$GPRMC,090035.000,A,5229.6177,N,01319.4639,E,1.85,199.14,090912,,,A*63
$GPGGA,090036.000,5229.6173,N,01319.4636,E,1,05,2.1,59.3,M,44.8,M,,0000*63
$GPGSA,A,3,31,12,09,25,14,,,,,,,,2.8,2.1,1.8*38
$GPRMC,090036.000,A,5229.6173,N,01319.4636,E,1.65,215.74,090912,,,A*64
$GPGGA,090037.000,5229.6169,N,01319.4637,E,1,05,2.1,59.9,M,44.8,M,,0000*62
$GPGSA,A,3,31,12,09,25,14,,,,,,,,2.8,2.1,1.8*38
$GPRMC,090037.000,A,5229.6169,N,01319.4637,E,1.33,194.12,090912,,,A*66
$GPGGA,090038.000,5229.6168,N,01319.4641,E,1,05,2.1,60.8,M,44.8,M,,0000*66
$GPGSA,A,3,31,12,09,25,14,,,,,,,,2.8,2.1,1.8*38
$GPRMC,090041.000,A,5229.6165,N,01319.4645,E,1.34,230.74,090912,,,A*64
$GPGGA,090042.000,5229.6159,N,01319.4646,E,1,05,2.1,63.5,M,44.8,M,,0000*60
$GPGSA,A,3,31,12,09,25,14,,,,,,,,2.8,2.1,1.8*38
$GPRMC,090042.000,A,5229.6159,N,01319.4646,E,2.16,193.99,090912,,,A*61
$GPGGA,090043.000,5229.6154,N,01319.4649,E,1,05,2.1,63.8,M,44.8,M,,0000*6E
$GPGSA,A,3,31,12,09,25,14,,,,,,,,2.8,2.1,1.8*38
$GPRMC,090043.000,A,5229.6154,N,01319.4649,E,1.67,186.17,090912,,,A*65
$GPGGA,090044.000,5229.6152,N,01319.4654,E,1,05,2.1,63.8,M,44.8,M,,0000*63
$GPGSA,A,3,31,12,09,25,14,,,,,,,,2.8,2.1,1.8*38
$GPRMC,090044.000,A,5229.6152,N,01319.4654,E,1.02,176.95,090912,,,A*6E
$GPGGA,090045.000,5229.6153,N,01319.4660,E,1,05,2.1,63.7,M,44.8,M,,0000*6B
$GPGSA,A,3,31,12,09,25,14,,,,,,,,2.8,2.1,1.8*38
$GPGSV,3,1,11,12,80,054,21,25,54,273,18,14,39,272,18,09,33,144,19*7A
$GPGSV,3,2,11,02,29,111,16,04,26,063,16,27,26,144,16,29,25,207,*7B
$GPGSV,3,3,11,31,10,309,20,32,04,336,,20,01,002,*40
$GPRMC,090051.000,A,5229.6167,N,01319.4688,E,0.92,256.96,090912,,,A*67
$GPGGA,090052.000,5229.6171,N,01319.4687,E,1,04,2.8,62.0,M,44.8,M,,0000*6A
$GPGSA,A,3,31,12,09,25,,,,,,,,,3.3,2.8,1.8*3E
$GPRMC,090052.000,A,5229.6171,N,01319.4687,E,1.17,274.81,090912,,,A*66
$GPGGA,090053.000,5229.6171,N,01319.4684,E,1,04,2.8,61.2,M,44.8,M,,0000*69
$GPGSA,A,3,31,12,09,25,,,,,,,,,3.3,2.8,1.8*3E
$GPRMC,090053.000,A,5229.6171,N,01319.4684,E,1.45,236.55,090912,,,A*6C
$GPGGA,090054.000,5229.6168,N,01319.4680,E,1,04,2.8,60.1,M,44.8,M,,0000*60
$GPGSA,A,3,31,12,09,25,,,,,,,,,3.3,2.8,1.8*3E
$GPRMC,090054.000,A,5229.6168,N,01319.4680,E,2.80,214.39,090912,,,A*67
$GPGGA,090055.000,5229.6165,N,01319.4674,E,1,05,2.1,59.0,M,44.8,M,,0000*64
$GPGSA,A,3,31,12,09,25,14,,,,,,,,2.7,2.1,1.8*37
$GPGSV,3,1,11,12,80,054,20,25,54,273,25,14,39,272,14,09,33,144,21*72
$GPGSV,3,2,11,02,29,111,14,04,26,063,14,27,26,144,15,29,25,207,*78
$GPGSV,3,3,11,31,10,309,21,32,04,336,,20,01,002,*41
$GPRMC,090055.000,A,5229.6165,N,01319.4674,E,2.31,225.62,090912,,,A*66
$GPGGA,090056.000,5229.6166,N,01319.4673,E,1,05,2.1,57.9,M,44.8,M,,0000*64
$GPGSA,A,3,31,12,09,25,14,,,,,,,,2.7,2.1,1.8*37
$GPRMC,090056.000,A,5229.6166,N,01319.4673,E,1.19,222.67,090912,,,A*6A
$GPGGA,090057.000,5229.6166,N,01319.4672,E,1,04,2.8,57.0,M,44.8,M,,0000*65
$GPGSA,A,3,31,12,09,25,,,,,,,,,3.3,2.8,1.8*3E
$GPRMC,090057.000,A,5229.6166,N,01319.4672,E,0.97,212.53,090912,,,A*69
$GPGGA,090058.000,5229.6168,N,01319.4674,E,1,04,2.8,56.2,M,44.8,M,,0000*61
$GPGSA,A,3,31,12,09,25,,,,,,,,,3.3,2.8,1.8*3E
$GPRMC,090059.000,A,5229.6169,N,01319.4674,E,1.01,202.41,090912,,,A*62
$GPGGA,090100.000,5229.6170,N,01319.4674,E,1,04,5.1,54.6,M,44.8,M,,0000*6C
$GPGSA,A,3,31,09,25,14,,,,,,,,,6.5,5.1,4.1*39
$GPGSV,3,1,11,12,80,054,18,25,54,273,21,14,39,272,20,09,33,144,22*79
$GPGSV,3,2,11,02,29,111,14,04,26,063,13,27,26,144,22,29,25,207,*7B
$GPGSV,3,3,11,31,10,309,21,32,04,336,,20,01,002,*41
$GPRMC,090103.000,A,5229.6180,N,01319.4674,E,1.02,357.52,090912,,,A*6B
$GPGGA,090104.000,5229.6182,N,01319.4673,E,1,05,2.1,51.9,M,44.8,M,,0000*6E
$GPGSA,A,3,31,12,09,25,14,,,,,,,,2.7,2.1,1.8*37
$GPRMC,090105.000,A,5229.6187,N,01319.4680,E,1.36,65.13,090912,,,A*51
$GPGGA,090106.000,5229.6187,N,01319.4685,E,1,04,5.1,50.2,M,44.8,M,,0000*6C
$GPGSA,A,3,31,09,25,14,,,,,,,,,6.5,5.1,4.1*39
$GPRMC,090106.000,A,5229.6187,N,01319.4685,E,1.27,132.22,090912,,,A*66
$GPGGA,090107.000,5229.6185,N,01319.4689,E,1,03,7.3,49.2,M,44.8,M,,0000*6C
$GPGSA,A,2,31,25,14,,,,,,,,,,7.4,7.3,1.0*35
$GPRMC,090107.000,A,5229.6185,N,01319.4689,E,1.47,160.44,090912,,,A*68
$GPGGA,090108.000,5229.6184,N,01319.4693,E,1,04,2.7,48.0,M,44.8,M,,0000*6C
$GPGSA,A,3,31,12,25,14,,,,,,,,,2.8,2.7,1.0*3F
$GPRMC,090108.000,A,5229.6184,N,01319.4693,E,1.19,148.91,090912,,,A*64
$GPGGA,090109.000,5229.6182,N,01319.4695,E,1,05,2.1,46.8,M,44.8,M,,0000*6C
$GPGSA,A,3,31,12,09,25,14,,,,,,,,2.7,2.1,1.8*37
$GPRMC,090109.000,A,5229.6182,N,01319.4695,E,1.30,171.51,090912,,,A*68
$GPGGA,090110.000,5229.6180,N,01319.4692,E,1,05,2.1,45.8,M,44.8,M,,0000*62
$GPGSA,A,3,31,12,09,25,14,,,,,,,,2.7,2.1,1.8*37
$GPGSV,3,1,11,12,80,054,16,25,54,273,24,14,39,272,21,09,33,144,16*74
$GPGSV,3,2,11,02,29,111,12,04,26,063,12,27,26,144,,29,25,207,*7C
$GPGSV,3,3,11,31,10,309,24,32,04,336,,20,01,002,*44
$GPRMC,090110.000,A,5229.6180,N,01319.4692,E,1.38,205.06,090912,,,A*6F
$GPGGA,090111.000,5229.6180,N,01319.4690,E,1,05,2.1,44.9,M,44.8,M,,0000*61
$GPGSA,A,3,31,12,09,25,14,,,,,,,,2.7,2.1,1.8*37
$GPRMC,090111.000,A,5229.6180,N,01319.4690,E,1.00,227.23,090912,,,A*60
$GPGGA,090112.000,5229.6182,N,01319.4690,E,1,05,2.1,44.0,M,44.8,M,,0000*69
$GPGSA,A,3,31,12,09,25,14,,,,,,,,2.7,2.1,1.8*37
$GPRMC,090115.000,A,5229.6186,N,01319.4685,E,1.39,254.90,090912,,,A*60
$GPGGA,090116.000,5229.6189,N,01319.4683,E,1,05,2.1,41.2,M,44.8,M,,0000*63
$GPGSA,A,3,31,12,09,25,14,,,,,,,,2.7,2.1,1.8*37
$GPRMC,090116.000,A,5229.6189,N,01319.4683,E,0.88,303.51,090912,,,A*6F
$GPGGA,090117.000,5229.6193,N,01319.4686,E,1,05,2.1,40.6,M,44.8,M,,0000*69
$GPGSA,A,3,31,12,09,25,14,,,,,,,,2.7,2.1,1.8*37
$GPRMC,090119.000,A,5229.6195,N,01319.4684,E,1.14,231.42,090912,,,A*6C
$GPGGA,090120.000,5229.6193,N,01319.4682,E,1,05,2.1,38.9,M,44.8,M,,0000*69
$GPGSA,A,3,31,12,09,25,14,,,,,,,,2.7,2.1,1.8*37
$GPGSV,3,1,11,12,80,054,14,25,54,273,23,14,39,272,21,09,33,144,16*71
$GPGSV,3,2,11,02,29,111,,04,26,063,,27,26,144,,29,25,207,*7C
$GPGSV,3,3,11,31,10,309,25,32,04,336,,20,01,002,*45
$GPRMC,090120.000,A,5229.6193,N,01319.4682,E,1.60,219.32,090912,,,A*68
$GPGGA,090121.000,5229.6190,N,01319.4679,E,1,04,5.0,38.3,M,44.8,M,,0000*62
$GPGSA,A,3,31,09,25,14,,,,,,,,,6.4,5.0,4.0*38
$GPRMC,090121.000,A,5229.6190,N,01319.4679,E,1.90,216.14,090912,,,A*6A
$GPGGA,090122.000,5229.6187,N,01319.4676,E,1,04,5.0,37.6,M,44.8,M,,0000*62
$GPGSA,A,3,31,09,25,14,,,,,,,,,6.4,5.0,4.0*38
$GPRMC,090122.000,A,5229.6187,N,01319.4676,E,2.19,215.94,090912,,,A*69
$GPGGA,090123.000,5229.6185,N,01319.4675,E,1,04,2.8,37.0,M,44.8,M,,0000*6B
$GPGSA,A,3,31,12,09,25,,,,,,,,,3.3,2.8,1.8*3E
$GPRMC,090123.000,A,5229.6185,N,01319.4675,E,1.82,207.72,090912,,,A*63
$GPGGA,090124.000,5229.6185,N,01319.4673,E,1,05,2.1,36.4,M,44.8,M,,0000*67
$GPGSA,A,3,31,12,09,25,14,,,,,,,,2.7,2.1,1.8*37
$GPRMC,090124.000,A,5229.6185,N,01319.4673,E,1.23,221.67,090912,,,A*69
$GPGGA,090125.000,5229.6184,N,01319.4665,E,1,05,2.1,35.7,M,44.8,M,,0000*60
$GPGSA,A,3,31,12,09,25,14,,,,,,,,2.7,2.1,1.8*37
$GPGSV,3,1,11,12,80,054,15,25,54,273,23,14,39,272,18,09,33,144,21*7E
$GPGSV,3,2,11,02,29,111,,04,26,063,,27,26,144,,29,25,207,*7C
$GPGSV,3,3,11,31,10,309,21,32,04,336,,20,01,002,*41
$GPRMC,090125.000,A,5229.6184,N,01319.4665,E,1.85,249.36,090912,,,A*68
$GPGGA,090126.000,5229.6185,N,01319.4658,E,1,04,2.7,35.3,M,44.8,M,,0000*6F
$GPGSA,A,3,31,12,25,14,,,,,,,,,2.8,2.7,1.0*3F
$GPRMC,090126.000,A,5229.6185,N,01319.4658,E,1.28,273.68,090912,,,A*61
$GPGGA,090127.000,5229.6189,N,01319.4650,E,1,05,2.1,35.4,M,44.8,M,,0000*6A
$GPGSA,A,3,31,12,09,25,14,,,,,,,,2.7,2.1,1.8*37
$GPRMC,090127.000,A,5229.6189,N,01319.4650,E,2.13,309.74,090912,,,A*6E
$GPGGA,090128.000,5229.6196,N,01319.4643,E,1,04,2.7,35.8,M,44.8,M,,0000*62
$GPGSA,A,3,31,12,25,14,,,,,,,,,2.8,2.7,1.0*3F
$GPRMC,090128.000,A,5229.6196,N,01319.4643,E,2.77,334.26,090912,,,A*66
$GPGGA,090129.000,5229.6202,N,01319.4634,E,1,04,2.7,36.5,M,44.8,M,,0000*63
$GPGSA,A,3,31,12,25,14,,,,,,,,,2.8,2.7,1.0*3F
$GPRMC,090129.000,A,5229.6202,N,01319.4634,E,2.43,328.00,090912,,,A*67
$GPGGA,090130.000,5229.6206,N,01319.4625,E,1,03,3.4,37.2,M,44.8,M,,0000*6C
$GPGSA,A,2,31,12,25,,,,,,,,,,3.6,3.4,1.0*36
$GPGSV,3,1,11,12,80,054,16,25,54,273,22,14,39,272,15,09,33,144,18*7B
$GPGSV,3,2,11,02,29,111,,04,26,063,,27,26,144,18,29,25,207,*75
$GPGSV,3,3,11,31,10,309,20,32,04,336,,20,01,002,*40
$GPRMC,090130.000,A,5229.6206,N,01319.4625,E,2.23,327.30,090912,,,A*61
$GPGGA,090131.000,5229.6210,N,01319.4619,E,1,03,3.4,38.1,M,44.8,M,,0000*69
$GPGSA,A,2,31,12,25,,,,,,,,,,3.6,3.4,1.0*36
$GPRMC,090131.000,A,5229.6210,N,01319.4619,E,1.98,342.39,090912,,,A*61
$GPGGA,090132.000,5229.6216,N,01319.4619,E,1,03,3.4,38.9,M,44.8,M,,0000*64
$GPGSA,A,2,31,12,25,,,,,,,,,,3.6,3.4,1.0*36
$GPRMC,090132.000,A,5229.6216,N,01319.4619,E,2.37,10.37,090912,,,A*58
$GPGGA,090133.000,5229.6223,N,01319.4620,E,1,04,2.8,40.0,M,44.8,M,,0000*65
$GPGSA,A,3,31,12,09,25,,,,,,,,,3.3,2.8,1.8*3E
$GPRMC,090133.000,A,5229.6223,N,01319.4620,E,2.50,19.13,090912,,,A*5B
$GPGGA,090134.000,5229.6231,N,01319.4627,E,1,05,2.1,41.2,M,44.8,M,,0000*6D
$GPGSA,A,3,31,12,09,25,14,,,,,,,,2.7,2.1,1.8*37
$GPRMC,090134.000,A,5229.6231,N,01319.4627,E,2.98,27.36,090912,,,A*56
$GPGGA,090135.000,5229.6235,N,01319.4634,E,1,05,2.1,42.4,M,44.8,M,,0000*6F
$GPGSA,A,3,31,12,09,25,14,,,,,,,,2.7,2.1,1.8*37
$GPGSV,3,1,11,12,80,054,17,25,54,273,23,14,39,272,15,09,33,144,17*74
$GPGSV,3,2,11,02,29,111,,04,26,063,13,27,26,144,17,29,25,207,*78
$GPGSV,3,3,11,31,10,309,24,32,04,336,,20,01,002,*44
$GPRMC,090135.000,A,5229.6235,N,01319.4634,E,1.79,45.04,090912,,,A*58
