$GPGGA,165110.000,6406.8032,N,02154.3007,W,1,11,0.8,44.2,M,60.6,M,,0000*7D
$GPGSA,A,3,18,03,08,22,11,06,15,19,28,07,01,,1.9,0.8,1.8*3F
$GPRMC,165110.000,A,6406.8032,N,02154.3007,W,35.07,231.91,060912,,,A*40
$GPGGA,165111.000,6406.7971,N,02154.3179,W,1,11,0.8,45.0,M,60.6,M,,0000*76
$GPGSA,A,3,18,03,08,22,11,06,15,19,28,07,01,,1.9,0.8,1.7*30
$GPRMC,165111.000,A,6406.7971,N,02154.3179,W,34.86,230.75,060912,,,A*4B
$GPGGA,165112.000,6406.7907,N,02154.3345,W,1,11,0.8,45.7,M,60.6,M,,0000*7E
$GPGSA,A,3,18,03,08,22,11,06,15,19,28,07,01,,1.9,0.8,1.7*30
$GPRMC,165112.000,A,6406.7907,N,02154.3345,W,34.87,228.18,060912,,,A*47
$GPGGA,165113.000,6406.7839,N,02154.3504,W,1,11,0.8,46.4,M,60.6,M,,0000*70
$GPGSA,A,3,18,03,08,22,11,06,15,19,28,07,01,,1.9,0.8,1.7*30
$GPRMC,165113.000,A,6406.7839,N,02154.3504,W,35.04,225.03,060912,,,A*44
$GPGGA,165114.000,6406.7767,N,02154.3657,W,1,11,0.8,47.0,M,60.6,M,,0000*73
$GPGSA,A,3,18,03,08,22,11,06,15,19,28,07,01,,1.9,0.8,1.7*30
$GPGSV,3,1,12,19,74,150,38,11,44,225,37,03,42,127,42,22,40,092,37*71
$GPGSV,3,2,12,06,30,117,35,08,30,279,31,18,26,045,23,01,25,222,19*7B
$GPGSV,3,3,12,28,24,311,35,15,14,002,37,07,12,242,32,26,06,326,30*73
$GPRMC,165114.000,A,6406.7767,N,02154.3657,W,35.45,222.54,060912,,,A*42
$GPGGA,165115.000,6406.7690,N,02154.3806,W,1,11,0.8,47.6,M,60.6,M,,0000*77
$GPGSA,A,3,18,03,08,22,11,06,15,19,28,07,01,,1.9,0.8,1.7*30
$GPRMC,165115.000,A,6406.7690,N,02154.3806,W,36.19,219.89,060912,,,A*42
$GPGGA,165116.000,6406.7609,N,02154.3948,W,1,11,0.8,48.0,M,60.6,M,,0000*76
$GPGSA,A,3,18,03,08,22,11,06,15,19,28,07,01,,1.9,0.8,1.7*30
$GPRMC,165116.000,A,6406.7609,N,02154.3948,W,36.73,216.90,060912,,,A*41
$GPGGA,165117.000,6406.7525,N,02154.4083,W,1,11,0.8,48.4,M,60.6,M,,0000*77
$GPGSA,A,3,18,03,08,22,11,06,15,19,28,07,01,,1.9,0.8,1.7*30
$GPRMC,165117.000,A,6406.7525,N,02154.4083,W,37.24,214.40,060912,,,A*48
$GPGGA,165118.000,6406.7436,N,02154.4211,W,1,11,0.8,48.7,M,60.6,M,,0000*71
$GPGSA,A,3,18,03,08,22,11,06,15,19,28,07,01,,1.9,0.8,1.7*30
$GPRMC,165118.000,A,6406.7436,N,02154.4211,W,37.93,211.82,060912,,,A*4A
$GPGGA,165119.000,6406.7344,N,02154.4331,W,1,07,1.8,49.0,M,60.6,M,,0000*71
$GPGSA,A,3,18,03,08,22,15,19,28,,,,,,4.0,1.8,3.6*3E
$GPGSV,3,1,12,19,74,150,38,11,44,225,29,03,42,127,31,22,40,092,29*75
$GPGSV,3,2,12,06,30,117,29,08,30,279,43,18,26,045,24,01,25,222,23*7D
$GPGSV,3,3,12,28,24,311,38,15,14,002,37,07,12,242,19,26,06,326,*74
$GPRMC,165119.000,A,6406.7344,N,02154.4331,W,38.23,209.07,060912,,,A*4A
$GPGGA,165120.000,6406.7251,N,02154.4448,W,1,03,3.0,49.3,M,60.6,M,,0000*7A
$GPGSA,A,2,18,03,15,,,,,,,,,,3.2,3.0,1.0*3E
$GPRMC,165120.000,A,6406.7251,N,02154.4448,W,38.49,208.27,060912,,,A*43
$GPGGA,165121.000,6406.7157,N,02154.4565,W,0,00,,49.6,M,60.6,M,,0000*5A
$GPGSA,A,1,,,,,,,,,,,,,,,*1E
$GPRMC,165130.000,A,6406.6298,N,02154.5458,W,37.40,181.70,060912,,,A*40
$GPGGA,165131.000,6406.6186,N,02154.5386,W,1,08,1.2,51.6,M,60.6,M,,0000*71
$GPGSA,A,3,22,19,07,11,03,06,08,28,,,,,2.3,1.2,1.9*30
$GPRMC,165131.000,A,6406.6186,N,02154.5386,W,38.35,173.48,060912,,,A*42
$GPGGA,165132.000,6406.6074,N,02154.5303,W,1,10,0.9,50.7,M,60.6,M,,0000*70
$GPGSA,A,3,22,19,07,11,03,06,08,28,18,01,,,2.0,0.9,1.8*30
$GPRMC,165132.000,A,6406.6074,N,02154.5303,W,38.22,170.18,060912,,,A*40
$GPGGA,165133.000,6406.5962,N,02154.5213,W,1,11,0.8,49.7,M,60.6,M,,0000*74
$GPGSA,A,3,22,19,07,11,03,06,08,28,18,15,01,,1.9,0.8,1.7*30
$GPRMC,165133.000,A,6406.5962,N,02154.5213,W,38.52,167.78,060912,,,A*4B
$GPGGA,165134.000,6406.5852,N,02154.5115,W,1,11,0.8,48.7,M,60.6,M,,0000*75
$GPGSA,A,3,22,19,07,11,03,06,08,28,18,15,01,,1.9,0.8,1.7*30
$GPGSV,3,1,12,19,74,150,41,11,44,225,42,03,42,127,42,22,40,092,35*7F
$GPGSV,3,2,12,06,30,117,40,08,30,279,39,18,26,045,30,01,25,222,28*71
$GPGSV,3,3,12,28,24,311,34,15,14,002,30,07,12,242,27,26,06,326,25*75
$GPRMC,165134.000,A,6406.5852,N,02154.5115,W,38.39,165.05,060912,,,A*4E
$GPGGA,165135.000,6406.5744,N,02154.5008,W,1,11,0.8,47.7,M,60.6,M,,0000*7E
$GPGSA,A,3,22,19,07,11,03,06,08,28,18,15,01,,1.9,0.8,1.7*30
$GPRMC,165135.000,A,6406.5744,N,02154.5008,W,38.45,162.27,060912,,,A*46
$GPGGA,165136.000,6406.5640,N,02154.4891,W,1,10,0.9,46.6,M,60.6,M,,0000*71
$GPGSA,A,3,22,19,07,11,03,06,08,28,15,01,,,2.0,0.9,1.8*3D
$GPRMC,165136.000,A,6406.5640,N,02154.4891,W,38.32,159.16,060912,,,A*43
$GPGGA,165137.000,6406.5537,N,02154.4770,W,1,11,0.8,45.5,M,60.6,M,,0000*73
$GPGSA,A,3,22,19,07,11,03,06,08,28,18,15,01,,1.9,0.8,1.7*30
$GPRMC,165137.000,A,6406.5537,N,02154.4770,W,38.14,157.11,060912,,,A*4C
$GPGGA,165138.000,6406.5436,N,02154.4645,W,1,11,0.8,44.3,M,60.6,M,,0000*7C
$GPGSA,A,3,22,19,07,11,03,06,08,28,18,15,01,,1.9,0.8,1.7*30
$GPRMC,165138.000,A,6406.5436,N,02154.4645,W,38.19,155.88,060912,,,A*4B
$GPGGA,165139.000,6406.5334,N,02154.4523,W,1,11,0.8,43.2,M,60.6,M,,0000*7D
$GPGSA,A,3,22,19,07,11,03,06,08,28,18,15,01,,1.9,0.8,1.7*30
$GPGSV,3,1,12,19,74,150,40,11,44,225,43,03,42,127,41,22,40,092,36*7F
$GPGSV,3,2,12,06,30,117,33,08,30,279,29,18,26,045,33,01,25,222,31*7F
$GPGSV,3,3,12,28,24,311,34,15,14,002,27,07,12,242,35,26,06,326,28*7D
$GPRMC,165139.000,A,6406.5334,N,02154.4523,W,38.23,155.89,060912,,,A*44
$GPGGA,165140.000,6406.5233,N,02154.4403,W,1,11,0.8,42.0,M,60.6,M,,0000*75
$GPGSA,A,3,22,19,07,11,03,06,08,28,18,15,01,,1.9,0.8,1.7*30
$GPRMC,165140.000,A,6406.5233,N,02154.4403,W,38.39,156.17,060912,,,A*40
$GPGGA,165141.000,6406.5131,N,02154.4284,W,1,11,0.8,40.9,M,60.6,M,,0000*77
$GPGSA,A,3,22,19,07,11,03,06,08,28,18,15,01,,1.9,0.8,1.7*30
$GPRMC,165141.000,A,6406.5131,N,02154.4284,W,38.64,156.16,060912,,,A*40
$GPGGA,165142.000,6406.5028,N,02154.4164,W,1,11,0.8,39.7,M,60.6,M,,0000*70
$GPGSA,A,3,22,19,07,11,03,06,08,28,18,15,01,,1.9,0.8,1.7*30
$GPRMC,165142.000,A,6406.5028,N,02154.4164,W,39.21,156.18,060912,,,A*49
$GPGGA,165143.000,6406.4925,N,02154.4046,W,1,11,0.8,38.6,M,60.6,M,,0000*75
$GPGSA,A,3,22,19,07,11,03,06,08,28,18,15,01,,1.9,0.8,1.7*30
$GPRMC,165143.000,A,6406.4925,N,02154.4046,W,39.38,156.22,060912,,,A*4D
$GPGGA,165144.000,6406.4822,N,02154.3930,W,1,11,0.8,37.4,M,60.6,M,,0000*76
$GPGSA,A,3,22,19,07,11,03,06,08,28,18,15,01,,1.9,0.8,1.7*30
$GPGSV,3,1,12,19,74,150,40,11,44,225,44,03,42,127,41,22,40,092,37*79
$GPGSV,3,2,12,06,30,117,33,08,30,279,30,18,26,045,34,01,25,222,30*71
$GPGSV,3,3,12,28,24,311,35,15,14,002,33,07,12,242,35,26,06,326,24*75
$GPRMC,165144.000,A,6406.4822,N,02154.3930,W,39.46,156.34,060912,,,A*4D
$GPGGA,165145.000,6406.4719,N,02154.3814,W,1,11,0.8,36.3,M,60.6,M,,0000*71
$GPGSA,A,3,22,19,07,11,03,06,08,28,18,15,01,,1.9,0.8,1.7*30
$GPRMC,165145.000,A,6406.4719,N,02154.3814,W,39.57,156.11,060912,,,A*4B
$GPGGA,165146.000,6406.4616,N,02154.3697,W,1,11,0.8,35.2,M,60.6,M,,0000*7B
$GPGSA,A,3,22,19,07,11,03,06,08,28,18,15,01,,1.9,0.8,1.7*30
$GPRMC,165146.000,A,6406.4616,N,02154.3697,W,39.69,155.87,060912,,,A*42
$GPGGA,165147.000,6406.4513,N,02154.3582,W,1,11,0.8,34.1,M,60.6,M,,0000*79
$GPGSA,A,3,22,19,07,11,03,06,08,28,18,15,01,,1.9,0.8,1.7*30
$GPRMC,165147.000,A,6406.4513,N,02154.3582,W,39.77,155.88,060912,,,A*42
$GPGGA,165148.000,6406.4410,N,02154.3467,W,1,11,0.8,32.9,M,60.6,M,,0000*70
$GPGSA,A,3,22,19,07,11,03,06,08,28,18,15,01,,1.9,0.8,1.7*30
$GPRMC,165148.000,A,6406.4410,N,02154.3467,W,39.78,155.85,060912,,,A*47
$GPGGA,165149.000,6406.4307,N,02154.3354,W,1,11,0.8,31.8,M,60.6,M,,0000*75
$GPGSA,A,3,22,19,07,11,03,06,08,28,18,15,01,,1.9,0.8,1.7*30
$GPGSV,3,1,12,19,73,148,39,11,44,225,44,03,42,127,40,22,41,091,37*7A
$GPGSV,3,2,12,08,30,278,31,06,30,117,32,01,26,222,31,18,25,045,35*70
$GPGSV,3,3,12,28,24,311,35,15,13,002,33,07,12,242,29,26,05,325,28*73
$GPRMC,165149.000,A,6406.4307,N,02154.3354,W,39.60,156.00,060912,,,A*47
$GPGGA,165150.000,6406.4206,N,02154.3244,W,1,11,0.8,30.7,M,60.6,M,,0000*73
$GPGSA,A,3,22,19,07,11,03,06,08,28,18,15,01,,1.9,0.8,1.7*30
$GPRMC,165150.000,A,6406.4206,N,02154.3244,W,39.34,156.29,060912,,,A*45
$GPGGA,165151.000,6406.4104,N,02154.3136,W,1,11,0.8,29.6,M,60.6,M,,0000*7C
$GPGSA,A,3,22,19,07,11,03,06,08,28,18,15,01,,1.9,0.8,1.7*30
$GPRMC,165151.000,A,6406.4104,N,02154.3136,W,39.11,156.50,060912,,,A*4A
$GPGGA,165152.000,6406.4004,N,02154.3030,W,1,11,0.8,28.5,M,60.6,M,,0000*7B
$GPGSA,A,3,22,19,07,11,03,06,08,28,18,15,01,,1.9,0.8,1.7*30
$GPRMC,165152.000,A,6406.4004,N,02154.3030,W,38.88,156.78,060912,,,A*44
$GPGGA,165153.000,6406.3903,N,02154.2928,W,1,11,0.8,27.4,M,60.6,M,,0000*7C
$GPGSA,A,3,22,19,07,11,03,06,08,28,18,15,01,,1.9,0.8,1.7*30
$GPRMC,165153.000,A,6406.3903,N,02154.2928,W,38.62,157.35,060912,,,A*41
$GPGGA,165154.000,6406.3803,N,02154.2831,W,1,11,0.8,26.3,M,60.6,M,,0000*75
$GPGSA,A,3,22,19,07,11,03,06,08,28,18,15,01,,1.9,0.8,1.7*30
$GPGSV,3,1,12,19,73,148,39,11,44,225,44,03,42,127,40,22,41,091,37*7A
$GPGSV,3,2,12,08,30,278,32,06,30,117,28,01,26,222,32,18,25,045,35*7B
$GPGSV,3,3,12,28,24,311,34,15,13,002,19,07,12,242,34,26,05,325,28*76
$GPRMC,165154.000,A,6406.3803,N,02154.2831,W,38.35,158.38,060912,,,A*4E
$GPGGA,165155.000,6406.3701,N,02154.2742,W,1,10,0.9,25.1,M,60.6,M,,0000*73
$GPGSA,A,3,22,19,07,11,03,06,08,28,18,01,,,2.0,0.9,1.8*30
$GPRMC,165155.000,A,6406.3701,N,02154.2742,W,38.26,160.25,060912,,,A*4C
$GPGGA,165156.000,6406.3599,N,02154.2663,W,1,10,0.9,24.0,M,60.6,M,,0000*71
$GPGSA,A,3,22,19,07,11,03,06,08,28,18,01,,,2.0,0.9,1.8*30
$GPRMC,165156.000,A,6406.3599,N,02154.2663,W,38.26,162.60,060912,,,A*4D
$GPGGA,165157.000,6406.3495,N,02154.2592,W,1,10,0.9,23.0,M,60.6,M,,0000*77
$GPGSA,A,3,22,19,07,11,03,06,08,28,18,01,,,2.0,0.9,1.8*30
$GPRMC,165157.000,A,6406.3495,N,02154.2592,W,38.38,164.70,060912,,,A*44
$GPGGA,165158.000,6406.3390,N,02154.2531,W,1,11,0.8,22.0,M,60.6,M,,0000*72
$GPGSA,A,3,22,19,07,11,03,06,08,28,18,15,01,,1.9,0.8,1.7*30
$GPRMC,165158.000,A,6406.3390,N,02154.2531,W,38.79,167.04,060912,,,A*45
$GPGGA,165159.000,6406.3282,N,02154.2480,W,1,11,0.8,21.1,M,60.6,M,,0000*78
$GPGSA,A,3,22,19,07,11,03,06,08,28,18,15,01,,1.9,0.8,1.7*30
$GPGSV,3,1,12,19,73,148,40,11,44,225,43,03,42,127,40,22,41,091,31*75
$GPGSV,3,2,12,08,30,278,41,06,30,117,38,01,26,222,34,18,25,045,32*7F
$GPGSV,3,3,12,28,24,311,34,15,13,002,37,07,12,242,35,26,05,325,31*73
$GPRMC,165159.000,A,6406.3282,N,02154.2480,W,39.12,169.46,060912,,,A*49
$GPGGA,165200.000,6406.3173,N,02154.2441,W,1,11,0.8,20.3,M,60.6,M,,0000*74
$GPGSA,A,3,22,19,07,11,03,06,08,28,18,15,01,,1.9,0.8,1.7*30
$GPRMC,165200.000,A,6406.3173,N,02154.2441,W,39.37,172.28,060912,,,A*43
$GPGGA,165201.000,6406.3063,N,02154.2417,W,1,11,0.8,19.5,M,60.6,M,,0000*7A
$GPGSA,A,3,22,19,07,11,03,06,08,28,18,15,01,,1.9,0.8,1.7*30
$GPRMC,165201.000,A,6406.3063,N,02154.2417,W,39.66,175.61,060912,,,A*4F
$GPGGA,165202.000,6406.2952,N,02154.2407,W,1,11,0.8,18.8,M,60.6,M,,0000*7E
$GPGSA,A,3,22,19,07,11,03,06,08,28,18,15,01,,1.9,0.8,1.7*30
$GPRMC,165202.000,A,6406.2952,N,02154.2407,W,39.82,178.81,060912,,,A*4E
$GPGGA,165203.000,6406.2842,N,02154.2409,W,1,11,0.8,18.2,M,60.6,M,,0000*7B
$GPGSA,A,3,22,19,07,11,03,06,08,28,18,15,01,,1.9,0.8,1.7*30
$GPRMC,165203.000,A,6406.2842,N,02154.2409,W,39.81,181.70,060912,,,A*4A
$GPGGA,165204.000,6406.2731,N,02154.2425,W,1,11,0.8,17.7,M,60.6,M,,0000*73
$GPGSA,A,3,22,19,07,11,03,06,08,28,18,15,01,,1.9,0.8,1.7*30
$GPGSV,3,1,12,19,73,148,40,11,44,225,43,03,42,127,39,22,41,091,41*7C
$GPGSV,3,2,12,08,30,278,32,06,30,117,37,01,26,222,23,18,25,045,33*73
$GPGSV,3,3,12,28,24,311,34,15,13,002,28,07,12,242,34,26,05,325,25*79
$GPRMC,165204.000,A,6406.2731,N,02154.2425,W,39.91,184.69,060912,,,A*44
$GPGGA,165205.000,6406.2622,N,02154.2456,W,1,11,0.8,17.1,M,60.6,M,,0000*73
$GPGSA,A,3,22,19,07,11,03,06,08,28,18,15,01,,1.9,0.8,1.7*30
$GPRMC,165205.000,A,6406.2622,N,02154.2456,W,39.73,188.12,060912,,,A*4E
$GPGGA,165206.000,6406.2514,N,02154.2502,W,1,11,0.8,16.7,M,60.6,M,,0000*71
$GPGSA,A,3,22,19,07,11,03,06,08,28,18,15,01,,1.9,0.8,1.7*30
$GPRMC,165206.000,A,6406.2514,N,02154.2502,W,39.63,191.41,060912,,,A*44
$GPGGA,165207.000,6406.2407,N,02154.2560,W,1,11,0.8,16.3,M,60.6,M,,0000*73
$GPGSA,A,3,22,19,07,11,03,06,08,28,18,15,01,,1.9,0.8,1.7*30
$GPRMC,165207.000,A,6406.2407,N,02154.2560,W,39.54,194.36,060912,,,A*43
$GPGGA,165208.000,6406.2302,N,02154.2631,W,1,11,0.8,16.0,M,60.6,M,,0000*7A
$GPGSA,A,3,22,19,07,11,03,06,08,28,18,15,01,,1.9,0.8,1.7*30
$GPRMC,165208.000,A,6406.2302,N,02154.2631,W,39.73,197.48,060912,,,A*46
$GPGGA,165209.000,6406.2198,N,02154.2715,W,1,10,0.9,15.8,M,60.6,M,,0000*76
$GPGSA,A,3,22,19,11,03,06,08,28,18,15,01,,,2.3,0.9,2.1*3A
$GPGSV,3,1,12,19,73,148,40,11,44,225,34,03,42,127,27,22,41,091,34*71
$GPGSV,3,2,12,08,30,278,45,06,30,117,38,01,26,222,33,18,25,045,26*79
$GPGSV,3,3,12,28,24,311,39,15,13,002,35,07,12,242,25,26,05,325,36*7A
$GPRMC,165209.000,A,6406.2198,N,02154.2715,W,39.91,200.33,060912,,,A*4C
$GPGGA,165210.000,6406.2095,N,02154.2809,W,1,10,0.9,15.7,M,60.6,M,,0000*7F
$GPGSA,A,3,22,19,11,03,06,08,28,18,15,01,,,2.3,0.9,2.1*3A
$GPRMC,165210.000,A,6406.2095,N,02154.2809,W,40.14,202.56,060912,,,A*48
$GPGGA,165211.000,6406.1994,N,02154.2916,W,1,11,0.8,15.6,M,60.6,M,,0000*7B
$GPGSA,A,3,22,19,07,11,03,06,08,28,18,15,01,,1.9,0.8,1.7*30
$GPRMC,165211.000,A,6406.1994,N,02154.2916,W,40.39,205.46,060912,,,A*44
$GPGGA,165212.000,6406.1895,N,02154.3036,W,1,11,0.8,15.4,M,60.6,M,,0000*70
$GPGSA,A,3,22,19,07,11,03,06,08,28,18,15,01,,1.9,0.8,1.7*30
$GPRMC,165212.000,A,6406.1895,N,02154.3036,W,40.66,208.52,060912,,,A*4F
$GPGGA,165213.000,6406.1798,N,02154.3167,W,1,11,0.8,15.3,M,60.6,M,,0000*71
$GPGSA,A,3,22,19,07,11,03,06,08,28,18,15,01,,1.9,0.8,1.7*30
$GPRMC,165213.000,A,6406.1798,N,02154.3167,W,40.90,211.49,060912,,,A*42
$GPGGA,165214.000,6406.1704,N,02154.3311,W,1,11,0.8,15.1,M,60.6,M,,0000*72
$GPGSA,A,3,22,19,07,11,03,06,08,28,18,15,01,,1.9,0.8,1.7*30
$GPGSV,3,1,12,19,73,148,36,11,44,225,30,03,42,127,32,22,41,091,27*72
$GPGSV,3,2,12,08,30,278,43,06,30,117,31,01,26,222,30,18,25,045,30*72
$GPGSV,3,3,12,28,24,311,37,15,13,002,40,07,12,242,26,26,05,325,33*70
$GPRMC,165214.000,A,6406.1704,N,02154.3311,W,40.72,214.53,060912,,,A*41
$GPGGA,165215.000,6406.1616,N,02154.3462,W,1,11,0.8,15.1,M,60.6,M,,0000*72
$GPGSA,A,3,22,19,07,11,03,06,08,28,18,15,01,,1.9,0.8,1.7*30
$GPRMC,165215.000,A,6406.1616,N,02154.3462,W,39.90,217.65,060912,,,A*45
$GPGGA,165216.000,6406.1534,N,02154.3621,W,1,11,0.8,15.1,M,60.6,M,,0000*77
$GPGSA,A,3,22,19,07,11,03,06,08,28,18,15,01,,1.9,0.8,1.7*30
$GPRMC,165216.000,A,6406.1534,N,02154.3621,W,38.86,220.81,060912,,,A*48
$GPGGA,165217.000,6406.1459,N,02154.3785,W,1,11,0.8,15.2,M,60.6,M,,0000*70
$GPGSA,A,3,22,19,07,11,03,06,08,28,18,15,01,,1.9,0.8,1.7*30
$GPRMC,165217.000,A,6406.1459,N,02154.3785,W,37.71,223.91,060912,,,A*49
$GPGGA,165218.000,6406.1388,N,02154.3955,W,1,11,0.8,15.4,M,60.6,M,,0000*71
$GPGSA,A,3,22,19,07,11,03,06,08,28,18,15,01,,1.9,0.8,1.7*30
$GPRMC,165218.000,A,6406.1388,N,02154.3955,W,37.05,226.96,060912,,,A*4F
$GPGGA,165219.000,6406.1322,N,02154.4132,W,1,11,0.8,15.8,M,60.6,M,,0000*72
$GPGSA,A,3,22,19,07,11,03,06,08,28,18,15,01,,1.9,0.8,1.7*30
$GPGSV,3,1,12,19,73,148,28,11,45,225,39,03,41,127,34,22,41,091,28*7F
$GPGSV,3,2,12,08,30,278,38,06,29,117,34,01,26,222,33,18,25,044,30*71
$GPGSV,3,3,12,28,24,311,39,15,13,002,33,07,12,241,21,26,05,325,33*7E
$GPRMC,165219.000,A,6406.1322,N,02154.4132,W,36.86,230.00,060912,,,A*42
$GPGGA,165220.000,6406.1260,N,02154.4315,W,1,10,0.9,16.2,M,60.6,M,,0000*71
$GPGSA,A,3,22,19,07,11,03,06,08,28,15,01,,,2.0,0.9,1.7*32
$GPRMC,165220.000,A,6406.1260,N,02154.4315,W,36.69,232.30,060912,,,A*48
$GPGGA,165221.000,6406.1201,N,02154.4503,W,1,11,0.8,16.8,M,60.6,M,,0000*7C
$GPGSA,A,3,22,19,07,11,03,06,08,28,18,15,01,,1.9,0.8,1.7*30
$GPRMC,165221.000,A,6406.1201,N,02154.4503,W,36.60,234.50,060912,,,A*46
$GPGGA,165222.000,6406.1144,N,02154.4695,W,1,11,0.8,17.3,M,60.6,M,,0000*7B
$GPGSA,A,3,22,19,07,11,03,06,08,28,18,15,01,,1.9,0.8,1.7*30
$GPRMC,165222.000,A,6406.1144,N,02154.4695,W,36.48,236.26,060912,,,A*42
$GPGGA,165223.000,6406.1091,N,02154.4889,W,1,11,0.8,17.9,M,60.6,M,,0000*7A
$GPGSA,A,3,22,19,07,11,03,06,08,28,18,15,01,,1.9,0.8,1.7*30
$GPRMC,165223.000,A,6406.1091,N,02154.4889,W,36.32,238.02,060912,,,A*4C
$GPGGA,165224.000,6406.1040,N,02154.5085,W,1,11,0.8,18.5,M,60.6,M,,0000*77
$GPGSA,A,3,22,19,07,11,03,06,08,28,18,15,01,,1.9,0.8,1.7*30
$GPGSV,3,1,12,19,73,148,24,11,45,225,32,03,41,127,28,22,41,091,35*79
$GPGSV,3,2,12,08,30,278,29,06,29,117,20,01,26,222,38,18,25,044,35*7A
$GPGSV,3,3,12,28,24,311,40,15,13,002,31,07,11,241,25,26,05,325,25*72
$GPRMC,165224.000,A,6406.1040,N,02154.5085,W,35.88,239.49,060912,,,A*4E
$GPGGA,165225.000,6406.0991,N,02154.5279,W,1,11,0.8,19.1,M,60.6,M,,0000*76
$GPGSA,A,3,22,19,07,11,03,06,08,28,18,15,01,,1.9,0.8,1.7*30
$GPRMC,165225.000,A,6406.0991,N,02154.5279,W,35.23,240.47,060912,,,A*4B
$GPGGA,165226.000,6406.0943,N,02154.5473,W,1,11,0.8,19.6,M,60.6,M,,0000*71
$GPGSA,A,3,22,19,07,11,03,06,08,28,18,15,01,,1.9,0.8,1.7*30
$GPRMC,165226.000,A,6406.0943,N,02154.5473,W,35.19,240.35,060912,,,A*47
$GPGGA,165227.000,6406.0893,N,02154.5668,W,1,11,0.8,20.3,M,60.6,M,,0000*7B
$GPGSA,A,3,22,19,07,11,03,06,08,28,18,15,01,,1.9,0.8,1.7*30
$GPRMC,165227.000,A,6406.0893,N,02154.5668,W,35.53,240.09,060912,,,A*43
$GPGGA,165228.000,6406.0843,N,02154.5865,W,1,11,0.8,20.9,M,60.6,M,,0000*70
$GPGSA,A,3,22,19,07,11,03,06,08,28,18,15,01,,1.9,0.8,1.7*30
$GPRMC,165228.000,A,6406.0843,N,02154.5865,W,35.87,239.99,060912,,,A*4C
$GPGGA,165229.000,6406.0793,N,02154.6065,W,1,11,0.8,21.7,M,60.6,M,,0000*77
$GPGSA,A,3,22,19,07,11,03,06,08,28,18,15,01,,1.9,0.8,1.7*30
$GPGSV,3,1,12,19,73,148,35,11,45,225,29,03,41,127,33,22,41,091,34*78
$GPGSV,3,2,12,08,30,278,25,06,29,117,27,01,26,222,38,18,25,044,35*71
$GPGSV,3,3,12,28,24,311,36,15,13,002,32,07,11,241,20,26,05,325,31*70
$GPRMC,165229.000,A,6406.0793,N,02154.6065,W,36.28,240.25,060912,,,A*4B
$GPGGA,165230.000,6406.0743,N,02154.6266,W,1,11,0.8,22.4,M,60.6,M,,0000*73
$GPGSA,A,3,22,19,07,11,03,06,08,28,18,15,01,,1.9,0.8,1.7*30
$GPRMC,165230.000,A,6406.0743,N,02154.6266,W,36.55,240.28,060912,,,A*48
$GPGGA,165231.000,6406.0693,N,02154.6470,W,1,11,0.8,23.2,M,60.6,M,,0000*78
$GPGSA,A,3,22,19,07,11,03,06,08,28,18,15,01,,1.9,0.8,1.7*30
$GPRMC,165231.000,A,6406.0693,N,02154.6470,W,36.96,240.57,060912,,,A*43
$GPGGA,165232.000,6406.0642,N,02154.6675,W,1,11,0.8,24.1,M,60.6,M,,0000*74
$GPGSA,A,3,22,19,07,11,03,06,08,28,18,15,01,,1.9,0.8,1.7*30
$GPRMC,165232.000,A,6406.0642,N,02154.6675,W,37.04,240.48,060912,,,A*4F
$GPGGA,165233.000,6406.0591,N,02154.6879,W,1,11,0.8,24.9,M,60.6,M,,0000*72
$GPGSA,A,3,22,19,07,11,03,06,08,28,18,15,01,,1.9,0.8,1.7*30
$GPRMC,165233.000,A,6406.0591,N,02154.6879,W,37.01,240.24,060912,,,A*4E
$GPGGA,165234.000,6406.0539,N,02154.7084,W,1,11,0.8,25.7,M,60.6,M,,0000*73
$GPGSA,A,3,22,19,07,11,03,06,08,28,18,15,01,,1.9,0.8,1.7*30
$GPGSV,3,1,12,19,73,147,37,11,45,225,30,03,41,127,27,22,41,091,30*7C
$GPGSV,3,2,12,08,30,278,26,06,29,117,30,01,26,222,38,18,25,044,36*77
$GPGSV,3,3,12,28,24,311,37,15,13,002,34,07,11,241,20,26,05,325,31*77
$GPRMC,165234.000,A,6406.0539,N,02154.7084,W,37.37,239.74,060912,,,A*4E
$GPGGA,165235.000,6406.0486,N,02154.7292,W,1,11,0.8,26.4,M,60.6,M,,0000*72
$GPGSA,A,3,22,19,07,11,03,06,08,28,18,15,01,,1.9,0.8,1.7*30
$GPRMC,165235.000,A,6406.0486,N,02154.7292,W,37.85,239.68,060912,,,A*4B
$GPGGA,165236.000,6406.0432,N,02154.7501,W,1,11,0.8,27.1,M,60.6,M,,0000*77
$GPGSA,A,3,22,19,07,11,03,06,08,28,18,15,01,,1.9,0.8,1.7*30
$GPRMC,165236.000,A,6406.0432,N,02154.7501,W,38.25,239.29,060912,,,A*4A
$GPGGA,165237.000,6406.0376,N,02154.7708,W,1,11,0.8,27.8,M,60.6,M,,0000*73
$GPGSA,A,3,22,19,07,11,03,06,08,28,18,15,01,,1.9,0.8,1.7*30
$GPRMC,165237.000,A,6406.0376,N,02154.7708,W,38.37,238.30,060912,,,A*4D
$GPGGA,165238.000,6406.0320,N,02154.7913,W,1,11,0.8,28.3,M,60.6,M,,0000*7F
$GPGSA,A,3,22,19,07,11,03,06,08,28,18,15,01,,1.9,0.8,1.7*30
$GPRMC,165238.000,A,6406.0320,N,02154.7913,W,38.24,237.60,060912,,,A*4D
$GPGGA,165239.000,6406.0262,N,02154.8118,W,1,11,0.8,28.8,M,60.6,M,,0000*7E
$GPGSA,A,3,22,19,07,11,03,06,08,28,18,15,01,,1.9,0.8,1.7*30
$GPGSV,3,1,12,19,73,147,38,11,45,225,36,03,41,127,33,22,41,091,31*71
$GPGSV,3,2,12,08,30,278,33,06,29,117,23,01,26,222,38,18,25,044,36*71
$GPGSV,3,3,12,28,24,311,43,15,13,002,35,07,11,241,27,26,05,325,37*74
$GPRMC,165239.000,A,6406.0262,N,02154.8118,W,38.27,237.14,060912,,,A*47
$GPGGA,165240.000,6406.0204,N,02154.8322,W,1,11,0.8,29.2,M,60.6,M,,0000*70
$GPGSA,A,3,22,19,07,11,03,06,08,28,18,15,01,,1.9,0.8,1.7*30
$GPRMC,165240.000,A,6406.0204,N,02154.8322,W,38.47,236.57,060912,,,A*42
$GPGGA,165241.000,6406.0143,N,02154.8527,W,1,10,0.9,29.5,M,60.6,M,,0000*75
$GPGSA,A,3,22,19,11,03,06,08,28,18,15,01,,,2.3,0.9,2.1*3A
$GPRMC,165241.000,A,6406.0143,N,02154.8527,W,38.87,235.76,060912,,,A*4C
$GPGGA,165242.000,6406.0081,N,02154.8731,W,1,10,0.9,29.8,M,60.6,M,,0000*71
$GPGSA,A,3,22,19,07,11,03,06,28,18,15,01,,,2.0,0.9,1.8*3C
$GPRMC,165242.000,A,6406.0081,N,02154.8731,W,39.24,235.02,060912,,,A*4E
$GPGGA,165243.000,6406.0018,N,02154.8933,W,1,11,0.8,29.9,M,60.6,M,,0000*7D
$GPGSA,A,3,22,19,07,11,03,06,08,28,18,15,01,,1.9,0.8,1.7*30
$GPRMC,165243.000,A,6406.0018,N,02154.8933,W,38.98,234.13,060912,,,A*44
$GPGGA,165244.000,6405.9953,N,02154.9132,W,1,10,0.9,30.0,M,60.6,M,,0000*7F
$GPGSA,A,3,22,19,07,11,03,06,08,28,18,15,,,2.0,0.9,1.8*35
$GPGSV,3,1,12,19,73,147,38,11,45,225,38,03,41,127,20,22,41,091,31*7D
$GPGSV,3,2,12,08,30,278,41,06,29,117,32,01,26,222,28,18,25,044,35*76
$GPGSV,3,3,12,28,24,311,41,15,13,002,36,07,11,241,25,26,05,325,21*70
$GPRMC,165244.000,A,6405.9953,N,02154.9132,W,39.05,233.08,060912,,,A*4F
$GPGGA,165245.000,6405.9888,N,02154.9329,W,1,10,0.9,30.0,M,60.6,M,,0000*71
$GPGSA,A,3,22,19,07,11,03,06,28,18,15,01,,,2.0,0.9,1.8*3C
$GPRMC,165245.000,A,6405.9888,N,02154.9329,W,38.98,232.73,060912,,,A*49
$GPGGA,165246.000,6405.9820,N,02154.9522,W,1,11,0.8,30.0,M,60.6,M,,0000*7D
$GPGSA,A,3,22,19,07,11,03,06,08,28,18,15,01,,1.9,0.8,1.7*30
$GPRMC,165246.000,A,6405.9820,N,02154.9522,W,38.96,230.70,060912,,,A*4A
$GPGGA,165247.000,6405.9752,N,02154.9712,W,1,11,0.8,29.9,M,60.6,M,,0000*76
$GPGSA,A,3,22,19,07,11,03,06,08,28,18,15,01,,1.9,0.8,1.7*30
$GPRMC,165247.000,A,6405.9752,N,02154.9712,W,38.79,230.19,060912,,,A*4E
$GPGGA,165248.000,6405.9682,N,02154.9897,W,1,11,0.8,29.6,M,60.6,M,,0000*78
$GPGSA,A,3,22,19,07,11,03,06,08,28,18,15,01,,1.9,0.8,1.7*30
$GPRMC,165248.000,A,6405.9682,N,02154.9897,W,38.42,228.84,060912,,,A*4A
$GPGGA,165249.000,6405.9610,N,02155.0076,W,1,11,0.8,29.3,M,60.6,M,,0000*78
$GPGSA,A,3,22,19,07,11,03,06,08,28,18,15,01,,1.9,0.8,1.7*30
$GPGSV,3,1,12,19,73,147,37,11,45,225,37,03,41,127,37,22,41,091,22*79
$GPGSV,3,2,12,08,30,278,39,06,29,117,35,01,26,222,25,18,25,044,30*76
$GPGSV,3,3,12,28,24,311,37,15,13,002,21,07,11,241,34,26,05,325,*74
$GPRMC,165249.000,A,6405.9610,N,02155.0076,W,38.19,227.04,060912,,,A*46
$GPGGA,165250.000,6405.9537,N,02155.0250,W,1,11,0.8,28.9,M,60.6,M,,0000*7B
$GPGSA,A,3,22,19,07,11,03,06,08,28,18,15,01,,1.9,0.8,1.7*30
$GPRMC,165250.000,A,6405.9537,N,02155.0250,W,38.19,225.49,060912,,,A*45
$GPGGA,165251.000,6405.9461,N,02155.0422,W,1,11,0.8,28.4,M,60.6,M,,0000*76
$GPGSA,A,3,22,19,07,11,03,06,08,28,18,15,01,,1.9,0.8,1.7*30
$GPRMC,165251.000,A,6405.9461,N,02155.0422,W,38.40,224.50,060912,,,A*40
$GPGGA,165252.000,6405.9384,N,02155.0591,W,1,11,0.8,27.9,M,60.6,M,,0000*72
$GPGSA,A,3,22,19,07,11,03,06,08,28,18,15,01,,1.9,0.8,1.7*30
$GPRMC,165252.000,A,6405.9384,N,02155.0591,W,38.53,223.19,060912,,,A*4E
$GPGGA,165253.000,6405.9305,N,02155.0758,W,1,11,0.8,27.4,M,60.6,M,,0000*70
$GPGSA,A,3,22,19,07,11,03,06,08,28,18,15,01,,1.9,0.8,1.7*30
$GPRMC,165253.000,A,6405.9305,N,02155.0758,W,38.86,222.03,060912,,,A*43
$GPGGA,165254.000,6405.9224,N,02155.0923,W,1,11,0.8,26.8,M,60.6,M,,0000*7A
$GPGSA,A,3,22,19,07,11,03,06,08,28,18,15,01,,1.9,0.8,1.7*30
$GPGSV,3,1,12,19,73,147,38,11,45,225,36,03,41,127,38,22,41,090,30*7A
$GPGSV,3,2,12,08,30,278,35,06,29,117,36,01,26,222,26,18,25,044,31*7B
$GPGSV,3,3,12,28,25,311,34,15,13,001,34,07,11,241,27,26,05,325,26*77
$GPRMC,165254.000,A,6405.9224,N,02155.0923,W,39.11,221.37,060912,,,A*4F
$GPGGA,165255.000,6405.9142,N,02155.1086,W,1,11,0.8,26.2,M,60.6,M,,0000*75
$GPGSA,A,3,22,19,07,11,03,06,08,28,18,15,01,,1.9,0.8,1.7*30
$GPRMC,165255.000,A,6405.9142,N,02155.1086,W,39.16,220.49,060912,,,A*45
$GPGGA,165256.000,6405.9059,N,02155.1244,W,1,11,0.8,25.5,M,60.6,M,,0000*75
$GPGSA,A,3,22,19,07,11,03,06,08,28,18,15,01,,1.9,0.8,1.7*30
$GPRMC,165256.000,A,6405.9059,N,02155.1244,W,38.91,219.29,060912,,,A*43
$GPGGA,165257.000,6405.8974,N,02155.1397,W,1,11,0.8,24.8,M,60.6,M,,0000*70
$GPGSA,A,3,22,19,07,11,03,06,08,28,18,15,01,,1.9,0.8,1.7*30
$GPRMC,165257.000,A,6405.8974,N,02155.1397,W,38.75,217.92,060912,,,A*4E
$GPGGA,165258.000,6405.8890,N,02155.1545,W,1,11,0.8,24.1,M,60.6,M,,0000*74
$GPGSA,A,3,22,19,07,11,03,06,08,28,18,15,01,,1.9,0.8,1.7*30
$GPRMC,165258.000,A,6405.8890,N,02155.1545,W,38.33,216.88,060912,,,A*4B
$GPGGA,165259.000,6405.8805,N,02155.1687,W,1,11,0.8,23.5,M,60.6,M,,0000*77
$GPGSA,A,3,22,19,07,11,03,06,08,28,18,15,01,,1.9,0.8,1.7*30
$GPGSV,3,1,12,19,73,147,39,11,45,225,24,03,41,127,41,22,41,090,39*7F
$GPGSV,3,2,12,08,30,278,37,06,29,117,24,01,26,222,27,18,25,044,22*79
$GPGSV,3,3,12,28,25,311,41,15,13,001,29,07,11,241,33,26,05,325,27*7D
$GPRMC,165259.000,A,6405.8805,N,02155.1687,W,38.02,215.80,060912,,,A*42
$GPGGA,165300.000,6405.8718,N,02155.1826,W,1,11,0.8,22.8,M,60.6,M,,0000*70
$GPGSA,A,3,22,19,07,11,03,06,08,28,18,15,01,,1.9,0.8,1.7*30
$GPRMC,165300.000,A,6405.8718,N,02155.1826,W,37.92,214.72,060912,,,A*43
$GPGGA,165301.000,6405.8632,N,02155.1962,W,1,10,0.9,22.2,M,60.6,M,,0000*73
$GPGSA,A,3,22,19,07,11,03,06,08,28,18,01,,,2.0,0.9,1.8*30
$GPRMC,165301.000,A,6405.8632,N,02155.1962,W,37.74,213.86,060912,,,A*4E
$GPGGA,165302.000,6405.8543,N,02155.2093,W,1,11,0.8,21.7,M,60.6,M,,0000*77
$GPGSA,A,3,22,19,07,11,03,06,08,28,18,15,01,,1.9,0.8,1.7*30
$GPRMC,165302.000,A,6405.8543,N,02155.2093,W,38.07,212.50,060912,,,A*4D
$GPGGA,165303.000,6405.8452,N,02155.2221,W,1,10,0.9,21.1,M,60.6,M,,0000*7A
$GPGSA,A,3,22,19,07,11,03,06,08,18,15,01,,,2.0,0.9,1.7*31
$GPRMC,165303.000,A,6405.8452,N,02155.2221,W,38.23,211.10,060912,,,A*47
$GPGGA,165304.000,6405.8358,N,02155.2342,W,1,11,0.8,20.6,M,60.6,M,,0000*72
$GPGSA,A,3,22,19,07,11,03,06,08,28,18,15,01,,1.9,0.8,1.7*30
$GPGSV,3,1,12,19,73,147,38,11,45,225,32,03,41,127,34,22,41,090,29*7A
$GPGSV,3,2,12,08,30,278,39,06,29,117,35,01,26,222,36,18,25,044,32*76
$GPGSV,3,3,12,28,25,311,40,15,13,001,37,07,11,241,34,26,05,325,20*73
$GPRMC,165304.000,A,6405.8358,N,02155.2342,W,38.94,208.96,060912,,,A*43
$GPGGA,165305.000,6405.8262,N,02155.2460,W,1,11,0.8,20.1,M,60.6,M,,0000*7B
$GPGSA,A,3,22,19,07,11,03,06,08,28,18,15,01,,1.9,0.8,1.7*30
$GPRMC,165305.000,A,6405.8262,N,02155.2460,W,39.18,207.80,060912,,,A*40
$GPGGA,165306.000,6405.8165,N,02155.2575,W,1,10,0.8,19.6,M,60.6,M,,0000*75
$GPGSA,A,3,19,07,11,03,06,08,28,18,15,01,,,1.9,0.8,1.7*30
$GPRMC,165306.000,A,6405.8165,N,02155.2575,W,39.44,206.90,060912,,,A*4B
$GPGGA,165307.000,6405.8067,N,02155.2687,W,1,10,0.8,19.1,M,60.6,M,,0000*7E
$GPGSA,A,3,19,07,11,03,06,08,28,18,15,01,,,1.9,0.8,1.7*30
$GPRMC,165307.000,A,6405.8067,N,02155.2687,W,39.59,206.05,060912,,,A*47
$GPGGA,165308.000,6405.7967,N,02155.2799,W,1,11,0.8,18.6,M,60.6,M,,0000*7E
$GPGSA,A,3,22,19,07,11,03,06,08,28,18,15,01,,1.9,0.8,1.7*30
$GPRMC,165308.000,A,6405.7967,N,02155.2799,W,39.92,205.81,060912,,,A*48
$GPGGA,165309.000,6405.7867,N,02155.2910,W,1,10,0.9,18.2,M,60.6,M,,0000*75
$GPGSA,A,3,22,19,07,11,03,08,28,18,15,01,,,2.1,0.9,1.9*32
$GPGSV,3,1,12,19,73,147,35,11,45,225,33,03,41,127,29,22,41,090,41*74
$GPGSV,3,2,12,08,30,278,44,06,29,117,,01,26,222,36,18,25,044,29*70
$GPGSV,3,3,12,28,25,311,40,15,13,001,39,07,11,241,26,26,05,325,20*7E
$GPRMC,165309.000,A,6405.7867,N,02155.2910,W,40.07,205.65,060912,,,A*4F
$GPGGA,165310.000,6405.7767,N,02155.3022,W,1,10,0.9,17.8,M,60.6,M,,0000*7E
$GPGSA,A,3,22,19,07,11,03,08,28,18,15,01,,,2.1,0.9,1.9*32
$GPRMC,165310.000,A,6405.7767,N,02155.3022,W,40.20,205.55,060912,,,A*47
$GPGGA,165311.000,6405.7666,N,02155.3132,W,1,11,0.8,17.4,M,60.6,M,,0000*73
$GPGSA,A,3,22,19,07,11,03,06,08,28,18,15,01,,1.9,0.8,1.7*30
$GPRMC,165311.000,A,6405.7666,N,02155.3132,W,40.30,205.30,060912,,,A*44
$GPGGA,165312.000,6405.7565,N,02155.3243,W,1,11,0.8,17.1,M,60.6,M,,0000*70
$GPGSA,A,3,22,19,07,11,03,06,08,28,18,15,01,,1.9,0.8,1.7*30
$GPRMC,165312.000,A,6405.7565,N,02155.3243,W,40.26,205.33,060912,,,A*46
$GPGGA,165313.000,6405.7465,N,02155.3353,W,1,11,0.8,16.9,M,60.6,M,,0000*79
$GPGSA,A,3,22,19,07,11,03,06,08,28,18,15,01,,1.9,0.8,1.7*30
$GPRMC,165313.000,A,6405.7465,N,02155.3353,W,40.26,205.29,060912,,,A*4D
$GPGGA,165314.000,6405.7364,N,02155.3463,W,1,11,0.8,16.7,M,60.6,M,,0000*72
$GPGSA,A,3,22,19,07,11,03,06,08,28,18,15,01,,1.9,0.8,1.7*30
$GPGSV,3,1,12,19,73,147,36,11,45,225,33,03,41,127,27,22,41,090,41*79
$GPGSV,3,2,12,08,30,278,43,06,29,117,32,01,26,222,36,18,25,044,30*7E
$GPGSV,3,3,12,28,25,311,40,15,13,001,39,07,11,241,28,26,05,325,23*73
$GPRMC,165314.000,A,6405.7364,N,02155.3463,W,40.00,205.17,060912,,,A*41
$GPGGA,165315.000,6405.7265,N,02155.3571,W,1,11,0.8,16.6,M,60.6,M,,0000*70
$GPGSA,A,3,22,19,07,11,03,06,08,28,18,15,01,,1.9,0.8,1.7*30
$GPRMC,165315.000,A,6405.7265,N,02155.3571,W,39.55,205.30,060912,,,A*49
$GPGGA,165316.000,6405.7167,N,02155.3679,W,1,11,0.8,16.5,M,60.6,M,,0000*7A
$GPGSA,A,3,22,19,07,11,03,06,08,28,18,15,01,,1.9,0.8,1.7*30
$GPRMC,165316.000,A,6405.7167,N,02155.3679,W,39.26,205.37,060912,,,A*43
$GPGGA,165317.000,6405.7070,N,02155.3787,W,1,11,0.8,16.5,M,60.6,M,,0000*7C
$GPGSA,A,3,22,19,07,11,03,06,08,28,18,15,01,,1.9,0.8,1.7*30
$GPRMC,165317.000,A,6405.7070,N,02155.3787,W,38.98,205.60,060912,,,A*43
$GPGGA,165318.000,6405.6973,N,02155.3894,W,1,11,0.8,16.6,M,60.6,M,,0000*76
$GPGSA,A,3,22,19,07,11,03,06,08,28,18,15,01,,1.9,0.8,1.7*30
$GPRMC,165318.000,A,6405.6973,N,02155.3894,W,38.55,205.59,060912,,,A*41
$GPGGA,165319.000,6405.6878,N,02155.3999,W,1,11,0.8,16.8,M,60.6,M,,0000*7F
$GPGSA,A,3,22,19,07,11,03,06,08,28,18,15,01,,1.9,0.8,1.7*30
$GPGSV,3,1,12,19,73,147,37,11,45,225,33,03,41,127,29,22,41,090,42*75
$GPGSV,3,2,12,08,30,278,43,06,29,117,32,01,27,222,36,18,25,044,30*7F
$GPGSV,3,3,12,28,25,311,40,15,13,001,41,07,11,241,33,26,05,325,30*74
$GPRMC,165319.000,A,6405.6878,N,02155.3999,W,37.96,205.51,060912,,,A*4E
$GPGGA,165320.000,6405.6784,N,02155.4102,W,1,11,0.8,17.0,M,60.6,M,,0000*7D
$GPGSA,A,3,22,19,07,11,03,06,08,28,18,15,01,,1.9,0.8,1.7*30
$GPRMC,165320.000,A,6405.6784,N,02155.4102,W,37.49,205.28,060912,,,A*49
$GPGGA,165321.000,6405.6692,N,02155.4203,W,1,11,0.8,17.3,M,60.6,M,,0000*7B
$GPGSA,A,3,22,19,07,11,03,06,08,28,18,15,01,,1.9,0.8,1.7*30
$GPRMC,165321.000,A,6405.6692,N,02155.4203,W,36.96,205.17,060912,,,A*43
$GPGGA,165322.000,6405.6600,N,02155.4302,W,1,11,0.8,17.6,M,60.6,M,,0000*76
$GPGSA,A,3,22,19,07,11,03,06,08,28,18,15,01,,1.9,0.8,1.7*30
$GPRMC,165322.000,A,6405.6600,N,02155.4302,W,36.38,205.21,060912,,,A*4A
$GPGGA,165323.000,6405.6510,N,02155.4401,W,1,11,0.8,18.0,M,60.6,M,,0000*78
$GPGSA,A,3,22,19,07,11,03,06,08,28,18,15,01,,1.9,0.8,1.7*30
$GPRMC,165323.000,A,6405.6510,N,02155.4401,W,35.89,205.48,060912,,,A*4B
$GPGGA,165324.000,6405.6422,N,02155.4500,W,1,11,0.8,18.5,M,60.6,M,,0000*7A
$GPGSA,A,3,22,19,07,11,03,06,08,28,18,15,01,,1.9,0.8,1.7*30
$GPGSV,3,1,12,19,73,147,38,11,45,225,33,03,41,127,30,22,41,090,41*71
$GPGSV,3,2,12,08,30,278,43,06,29,117,33,01,27,222,36,18,25,044,31*7F
$GPGSV,3,3,12,28,25,311,41,15,13,001,42,07,11,241,31,26,05,325,25*70
$GPRMC,165324.000,A,6405.6422,N,02155.4500,W,35.45,205.79,060912,,,A*4E
$GPGGA,165325.000,6405.6334,N,02155.4598,W,1,11,0.8,19.0,M,60.6,M,,0000*7E
$GPGSA,A,3,22,19,07,11,03,06,08,28,18,15,01,,1.9,0.8,1.7*30
$GPRMC,165325.000,A,6405.6334,N,02155.4598,W,35.08,205.74,060912,,,A*4A
$GPGGA,165326.000,6405.6247,N,02155.4694,W,1,11,0.8,19.4,M,60.6,M,,0000*73
$GPGSA,A,3,22,19,07,11,03,06,08,28,18,15,01,,1.9,0.8,1.7*30
$GPRMC,165326.000,A,6405.6247,N,02155.4694,W,34.84,205.56,060912,,,A*46
$GPGGA,165327.000,6405.6160,N,02155.4790,W,1,11,0.8,19.9,M,60.6,M,,0000*7C
$GPGSA,A,3,22,19,07,11,03,06,08,28,18,15,01,,1.9,0.8,1.7*30
$GPRMC,165327.000,A,6405.6160,N,02155.4790,W,34.80,205.38,060912,,,A*48
$GPGGA,165328.000,6405.6073,N,02155.4885,W,1,11,0.8,20.4,M,60.6,M,,0000*7C
$GPGSA,A,3,22,19,07,11,03,06,08,28,18,15,01,,1.9,0.8,1.7*30
$GPRMC,165328.000,A,6405.6073,N,02155.4885,W,34.81,205.36,060912,,,A*40
$GPGGA,165329.000,6405.5986,N,02155.4981,W,1,11,0.8,21.0,M,60.6,M,,0000*7D
$GPGSA,A,3,22,19,07,11,03,06,08,28,18,15,01,,1.9,0.8,1.7*30
$GPGSV,3,1,12,19,73,147,39,11,45,225,34,03,41,127,30,22,41,090,39*78
$GPGSV,3,2,12,08,30,278,42,06,29,117,33,01,27,222,36,18,25,044,31*7E
$GPGSV,3,3,12,28,25,311,41,15,13,001,42,07,11,241,31,26,05,325,25*70
$GPRMC,165329.000,A,6405.5986,N,02155.4981,W,34.81,205.50,060912,,,A*44
$GPGGA,165330.000,6405.5899,N,02155.5077,W,1,11,0.8,21.5,M,60.6,M,,0000*7E
$GPGSA,A,3,22,19,07,11,03,06,08,28,18,15,01,,1.9,0.8,1.7*30
$GPRMC,165330.000,A,6405.5899,N,02155.5077,W,34.71,205.63,060912,,,A*4D
$GPGGA,165331.000,6405.5813,N,02155.5172,W,1,11,0.8,22.0,M,60.6,M,,0000*7F
$GPGSA,A,3,22,19,07,11,03,06,08,28,18,15,01,,1.9,0.8,1.7*30
$GPRMC,165331.000,A,6405.5813,N,02155.5172,W,34.43,205.58,060912,,,A*43
$GPGGA,165332.000,6405.5728,N,02155.5266,W,1,11,0.8,22.5,M,60.6,M,,0000*78
$GPGSA,A,3,22,19,07,11,03,06,08,28,18,15,01,,1.9,0.8,1.7*30
$GPRMC,165332.000,A,6405.5728,N,02155.5266,W,34.04,205.60,060912,,,A*49
$GPGGA,165333.000,6405.5645,N,02155.5358,W,1,11,0.8,22.9,M,60.6,M,,0000*73
$GPGSA,A,3,22,19,07,11,03,06,08,28,18,15,01,,1.9,0.8,1.7*30
$GPRMC,165333.000,A,6405.5645,N,02155.5358,W,33.29,205.60,060912,,,A*46
$GPGGA,165334.000,6405.5564,N,02155.5448,W,1,11,0.8,23.3,M,60.6,M,,0000*79
$GPGSA,A,3,22,19,07,11,03,06,08,28,18,15,01,,1.9,0.8,1.7*30
$GPGSV,3,1,12,19,73,146,39,11,45,225,33,03,41,127,30,22,41,090,39*7E
$GPGSV,3,2,12,08,29,277,43,06,29,117,33,01,27,222,36,28,25,311,41*7F
$GPGSV,3,3,12,18,25,044,31,15,13,001,42,07,11,241,32,26,05,325,25*74
$GPRMC,165334.000,A,6405.5564,N,02155.5448,W,32.21,205.85,060912,,,A*45
$GPGGA,165335.000,6405.5487,N,02155.5536,W,1,11,0.8,23.7,M,60.6,M,,0000*78
$GPGSA,A,3,22,19,07,11,03,06,08,28,18,15,01,,1.9,0.8,1.7*30
$GPRMC,165335.000,A,6405.5487,N,02155.5536,W,31.03,206.39,060912,,,A*47
$GPGGA,165336.000,6405.5413,N,02155.5623,W,1,11,0.8,24.0,M,60.6,M,,0000*71
$GPGSA,A,3,22,19,07,11,03,06,08,28,18,15,01,,1.9,0.8,1.7*30
$GPRMC,165336.000,A,6405.5413,N,02155.5623,W,29.87,207.26,060912,,,A*44
$GPGGA,165337.000,6405.5343,N,02155.5711,W,1,11,0.8,24.3,M,60.6,M,,0000*71
$GPGSA,A,3,22,19,07,11,03,06,08,28,18,15,01,,1.9,0.8,1.7*30
$GPRMC,165337.000,A,6405.5343,N,02155.5711,W,28.72,208.38,060912,,,A*4C
$GPGGA,165338.000,6405.5276,N,02155.5798,W,1,10,0.9,24.6,M,60.6,M,,0000*7D
$GPGSA,A,3,22,19,07,11,06,08,28,18,15,01,,,1.9,0.9,1.7*32
$GPRMC,165338.000,A,6405.5276,N,02155.5798,W,27.61,209.91,060912,,,A*4A
$GPGGA,165339.000,6405.5214,N,02155.5888,W,1,11,0.8,24.9,M,60.6,M,,0000*79
$GPGSA,A,3,22,19,07,11,03,06,08,28,18,15,01,,1.9,0.8,1.7*30
$GPGSV,3,1,12,19,73,146,35,11,45,225,27,03,41,127,35,22,41,090,34*7F
$GPGSV,3,2,12,08,29,277,43,06,29,117,33,01,27,222,36,28,25,311,40*7E
$GPGSV,3,3,12,18,25,044,32,15,13,001,41,07,11,241,33,26,05,325,25*75
$GPRMC,165339.000,A,6405.5214,N,02155.5888,W,26.39,212.13,060912,,,A*4D
$GPGGA,165340.000,6405.5155,N,02155.5979,W,1,11,0.8,25.2,M,60.6,M,,0000*74
$GPGSA,A,3,22,19,07,11,03,06,08,28,18,15,01,,1.9,0.8,1.7*30
$GPRMC,165340.000,A,6405.5155,N,02155.5979,W,25.28,214.71,060912,,,A*4B
$GPGGA,165341.000,6405.5102,N,02155.6074,W,1,11,0.8,25.5,M,60.6,M,,0000*77
$GPGSA,A,3,22,19,07,11,03,06,08,28,18,15,01,,1.9,0.8,1.7*30
$GPRMC,165341.000,A,6405.5102,N,02155.6074,W,24.18,217.77,060912,,,A*48
$GPGGA,165342.000,6405.5053,N,02155.6171,W,1,11,0.8,25.7,M,60.6,M,,0000*77
$GPGSA,A,3,22,19,07,11,03,06,08,28,18,15,01,,1.9,0.8,1.7*30
$GPRMC,165342.000,A,6405.5053,N,02155.6171,W,23.01,221.67,060912,,,A*41
$GPGGA,165343.000,6405.5010,N,02155.6268,W,1,11,0.8,25.9,M,60.6,M,,0000*74
$GPGSA,A,3,22,19,07,11,03,06,08,28,18,15,01,,1.9,0.8,1.7*30
$GPRMC,165343.000,A,6405.5010,N,02155.6268,W,21.57,225.25,060912,,,A*4F
$GPGGA,165344.000,6405.4974,N,02155.6359,W,1,11,0.8,26.2,M,60.6,M,,0000*72
$GPGSA,A,3,22,19,07,11,03,06,08,28,18,15,01,,1.9,0.8,1.7*30
$GPGSV,3,1,12,19,73,146,35,11,45,225,43,03,41,127,36,22,41,090,34*7E
$GPGSV,3,2,12,08,29,277,36,06,29,117,29,01,27,222,25,28,25,311,35*77
$GPGSV,3,3,12,18,25,044,29,15,13,001,32,07,11,241,35,26,05,325,26*7E
$GPRMC,165344.000,A,6405.4974,N,02155.6359,W,19.22,228.27,060912,,,A*47
$GPGGA,165345.000,6405.4945,N,02155.6439,W,1,11,0.8,26.5,M,60.6,M,,0000*77
$GPGSA,A,3,22,19,07,11,03,06,08,28,18,15,01,,1.9,0.8,1.7*30
$GPRMC,165345.000,A,6405.4945,N,02155.6439,W,15.93,231.43,060912,,,A*49
$GPGGA,165346.000,6405.4923,N,02155.6507,W,1,10,0.9,26.9,M,60.6,M,,0000*74
$GPGSA,A,3,22,19,07,11,06,08,28,18,15,01,,,1.9,0.9,1.7*32
$GPRMC,165346.000,A,6405.4923,N,02155.6507,W,13.08,233.83,060912,,,A*4C
$GPGGA,165347.000,6405.4907,N,02155.6568,W,1,10,0.9,27.3,M,60.6,M,,0000*71
$GPGSA,A,3,22,19,07,11,06,08,28,18,15,01,,,1.9,0.9,1.7*32
$GPRMC,165347.000,A,6405.4907,N,02155.6568,W,11.02,239.99,060912,,,A*4B
$GPGGA,165348.000,6405.4896,N,02155.6624,W,1,10,0.8,27.7,M,60.6,M,,0000*79
$GPGSA,A,3,22,07,11,03,06,08,28,18,15,01,,,2.5,0.8,2.4*37
$GPRMC,165348.000,A,6405.4896,N,02155.6624,W,9.45,248.33,060912,,,A*7A
$GPGGA,165349.000,6405.4891,N,02155.6673,W,1,11,0.8,27.9,M,60.6,M,,0000*72
$GPGSA,A,3,22,19,07,11,03,06,08,28,18,15,01,,1.9,0.8,1.7*30
$GPGSV,3,1,12,19,73,146,36,11,45,225,34,03,41,127,36,22,41,090,29*71
$GPGSV,3,2,12,08,29,277,30,06,29,117,29,01,27,222,25,28,25,311,37*73
$GPGSV,3,3,12,18,25,044,35,15,13,001,36,07,11,241,22,26,05,325,23*74
$GPRMC,165349.000,A,6405.4891,N,02155.6673,W,7.87,257.91,060912,,,A*78
$GPGGA,165350.000,6405.4889,N,02155.6714,W,1,11,0.8,28.1,M,60.6,M,,0000*74
$GPGSA,A,3,22,19,07,11,03,06,08,28,18,15,01,,1.9,0.8,1.7*30
$GPRMC,165350.000,A,6405.4889,N,02155.6714,W,6.28,264.91,060912,,,A*7D
$GPGGA,165351.000,6405.4886,N,02155.6744,W,1,11,0.8,28.4,M,60.6,M,,0000*7A
$GPGSA,A,3,22,19,07,11,03,06,08,28,18,15,01,,1.9,0.8,1.7*30
$GPRMC,165351.000,A,6405.4886,N,02155.6744,W,4.68,262.77,060912,,,A*7E
$GPGGA,165352.000,6405.4886,N,02155.6757,W,1,11,0.8,28.7,M,60.6,M,,0000*78
$GPGSA,A,3,22,19,07,11,03,06,08,28,18,15,01,,1.9,0.8,1.7*30
$GPRMC,165352.000,A,6405.4886,N,02155.6757,W,1.86,265.60,060912,,,A*7B
$GPGGA,165353.000,6405.4886,N,02155.6763,W,1,11,0.8,29.0,M,60.6,M,,0000*78
$GPGSA,A,3,22,19,07,11,03,06,08,28,18,15,01,,1.9,0.8,1.7*30
$GPRMC,165655.000,A,6405.4926,N,02155.6772,W,1.06,268.07,060912,,,A*71
$GPGGA,165656.000,6405.4926,N,02155.6786,W,1,11,0.8,3.2,M,60.6,M,,0000*42
$GPGSA,A,3,22,19,07,11,03,06,08,28,18,15,01,,1.9,0.8,1.7*30
$GPRMC,165656.000,A,6405.4926,N,02155.6786,W,2.14,257.60,060912,,,A*74
$GPGGA,165657.000,6405.4924,N,02155.6804,W,1,11,0.8,3.6,M,60.6,M,,0000*40
$GPGSA,A,3,22,19,07,11,03,06,08,28,18,15,01,,1.9,0.8,1.7*30
$GPRMC,165657.000,A,6405.4924,N,02155.6804,W,2.77,252.08,060912,,,A*7C
$GPGGA,165658.000,6405.4921,N,02155.6821,W,1,10,0.9,3.9,M,60.6,M,,0000*42
$GPGSA,A,3,22,19,07,11,03,06,08,28,18,15,,,1.9,0.9,1.7*30
$GPRMC,165658.000,A,6405.4921,N,02155.6821,W,2.98,242.24,060912,,,A*7F
$GPGGA,165659.000,6405.4918,N,02155.6835,W,1,10,0.8,4.2,M,60.6,M,,0000*41
$GPGSA,A,3,22,19,07,03,06,08,28,18,15,01,,,2.0,0.8,1.8*35
$GPGSV,3,1,12,19,71,143,25,11,47,225,,22,41,088,26,03,39,127,30*7E
$GPGSV,3,2,12,08,29,276,33,01,28,223,24,06,27,117,27,28,26,310,35*7E
$GPGSV,3,3,12,18,24,043,30,15,13,000,32,07,10,240,34,26,04,324,28*7E
$GPRMC,165659.000,A,6405.4918,N,02155.6835,W,2.38,245.52,060912,,,A*7D
$GPGGA,165700.000,6405.4916,N,02155.6845,W,1,11,0.8,4.4,M,60.6,M,,0000*42
$GPGSA,A,3,22,19,07,11,03,06,08,28,18,15,01,,1.9,0.8,1.7*30
$GPRMC,165700.000,A,6405.4916,N,02155.6845,W,1.82,242.30,060912,,,A*78
$GPGGA,165701.000,6405.4913,N,02155.6855,W,1,11,0.8,4.7,M,60.6,M,,0000*44
$GPGSA,A,3,22,19,07,11,03,06,08,28,18,15,01,,1.9,0.8,1.7*30
$GPRMC,165701.000,A,6405.4913,N,02155.6855,W,1.86,229.29,060912,,,A*7C
$GPGGA,165702.000,6405.4909,N,02155.6866,W,1,11,0.8,5.0,M,60.6,M,,0000*4A
$GPGSA,A,3,22,19,07,11,03,06,08,28,18,15,01,,1.9,0.8,1.7*30
$GPRMC,165702.000,A,6405.4909,N,02155.6866,W,2.14,231.18,060912,,,A*77
$GPGGA,165703.000,6405.4906,N,02155.6881,W,1,11,0.8,5.2,M,60.6,M,,0000*4F
$GPGSA,A,3,22,19,07,11,03,06,08,28,18,15,01,,1.9,0.8,1.7*30
$GPRMC,165703.000,A,6405.4906,N,02155.6881,W,2.58,241.34,060912,,,A*71
$GPGGA,165704.000,6405.4899,N,02155.6898,W,1,10,0.8,5.3,M,60.6,M,,0000*47
$GPGSA,A,3,22,19,07,03,06,08,28,18,15,01,,,2.0,0.8,1.8*35
$GPGSV,3,1,12,19,71,143,29,11,47,225,,22,41,088,31,03,39,127,33*77
$GPGSV,3,2,12,08,29,276,37,01,28,223,27,06,27,117,27,28,26,310,30*7C
$GPGSV,3,3,12,18,24,043,30,15,13,000,29,07,10,240,34,26,04,324,21*7D
$GPRMC,165704.000,A,6405.4899,N,02155.6898,W,3.61,230.11,060912,,,A*73
$GPGGA,165705.000,6405.4893,N,02155.6921,W,1,11,0.8,5.3,M,60.6,M,,0000*4E
$GPGSA,A,3,22,19,07,11,03,06,08,28,18,15,01,,1.8,0.8,1.7*31
$GPRMC,165705.000,A,6405.4893,N,02155.6921,W,4.19,237.76,060912,,,A*75
$GPGGA,165706.000,6405.4886,N,02155.6952,W,1,11,0.8,5.2,M,60.6,M,,0000*4C
$GPGSA,A,3,22,19,07,11,03,06,08,28,18,15,01,,1.8,0.8,1.7*31
$GPRMC,165706.000,A,6405.4886,N,02155.6952,W,5.37,247.49,060912,,,A*70
$GPGGA,165707.000,6405.4881,N,02155.6984,W,1,11,0.8,5.3,M,60.6,M,,0000*40
$GPGSA,A,3,22,19,07,11,03,06,08,28,18,15,01,,1.8,0.8,1.7*31
$GPRMC,165707.000,A,6405.4881,N,02155.6984,W,5.28,251.05,060912,,,A*7C
$GPGGA,165708.000,6405.4875,N,02155.7019,W,1,11,0.8,5.5,M,60.6,M,,0000*4E
$GPGSA,A,3,22,19,07,11,03,06,08,28,18,15,01,,1.8,0.8,1.7*31
$GPRMC,165708.000,A,6405.4875,N,02155.7019,W,5.53,254.84,060912,,,A*74
$GPGGA,165709.000,6405.4869,N,02155.7054,W,1,11,0.8,5.9,M,60.6,M,,0000*47
$GPGSA,A,3,22,19,07,11,03,06,08,28,18,15,01,,1.8,0.8,1.7*31
$GPGSV,3,1,12,19,71,143,30,11,47,225,39,22,41,088,27,03,39,127,29*79
$GPGSV,3,2,12,08,29,276,30,01,28,223,39,06,27,117,27,28,26,310,32*76
$GPGSV,3,3,12,18,24,043,30,15,13,000,38,07,10,240,33,26,04,324,27*7C
$GPRMC,165709.000,A,6405.4869,N,02155.7054,W,5.50,255.01,060912,,,A*7E
$GPGGA,165710.000,6405.4864,N,02155.7092,W,1,11,0.8,6.3,M,60.6,M,,0000*41
$GPGSA,A,3,22,19,07,11,03,06,08,28,18,15,01,,1.8,0.8,1.7*31
$GPRMC,165710.000,A,6405.4864,N,02155.7092,W,6.09,258.81,060912,,,A*7B
$GPGGA,165711.000,6405.4859,N,02155.7135,W,1,11,0.8,6.7,M,60.6,M,,0000*46
$GPGSA,A,3,22,19,07,11,03,06,08,28,18,15,01,,1.8,0.8,1.7*31
$GPRMC,165711.000,A,6405.4859,N,02155.7135,W,6.64,258.98,060912,,,A*7B
$GPGGA,165712.000,6405.4852,N,02155.7181,W,1,11,0.8,7.2,M,60.6,M,,0000*45
$GPGSA,A,3,22,19,07,11,03,06,08,28,18,15,01,,1.8,0.8,1.7*31
$GPRMC,165712.000,A,6405.4852,N,02155.7181,W,7.48,253.95,060912,,,A*75
$GPGGA,165713.000,6405.4842,N,02155.7225,W,1,11,0.8,7.8,M,60.6,M,,0000*42
$GPGSA,A,3,22,19,07,11,03,06,08,28,18,15,01,,1.8,0.8,1.7*31
$GPRMC,165713.000,A,6405.4842,N,02155.7225,W,7.39,246.94,060912,,,A*7B
$GPGGA,165714.000,6405.4833,N,02155.7264,W,1,10,0.9,8.3,M,60.6,M,,0000*42
$GPGSA,A,3,22,19,07,11,03,06,08,18,15,01,,,1.9,0.9,1.7*3B
$GPGSV,3,1,12,19,71,143,31,11,47,225,28,22,41,088,29,03,39,127,36*78
$GPGSV,3,2,12,08,29,276,37,01,28,223,40,06,27,117,30,28,26,310,*78
$GPGSV,3,3,12,18,24,043,33,15,13,000,26,07,10,240,24,26,04,324,28*79
$GPRMC,165714.000,A,6405.4833,N,02155.7264,W,6.43,244.86,060912,,,A*72
$GPGGA,165715.000,6405.4825,N,02155.7288,W,1,11,0.8,8.7,M,60.6,M,,0000*42
$GPGSA,A,3,22,19,07,11,03,06,08,28,18,15,01,,1.8,0.8,1.7*31
$GPRMC,165715.000,A,6405.4825,N,02155.7288,W,4.26,237.74,060912,,,A*7E
$GPGGA,165716.000,6405.4820,N,02155.7302,W,1,11,0.8,9.2,M,60.6,M,,0000*43
$GPGSA,A,3,22,19,07,11,03,06,08,28,18,15,01,,1.8,0.8,1.7*31
$GPRMC,165716.000,A,6405.4820,N,02155.7302,W,2.10,239.32,060912,,,A*74
$GPGGA,165717.000,6405.4818,N,02155.7307,W,1,11,0.8,9.5,M,60.6,M,,0000*4B
$GPGSA,A,3,22,19,07,11,03,06,08,28,18,15,01,,1.8,0.8,1.7*31
$GPRMC,165719.000,A,6405.4812,N,02155.7318,W,1.38,237.49,060912,,,A*7A
$GPGGA,165720.000,6405.4805,N,02155.7338,W,1,11,0.8,10.2,M,60.6,M,,0000*70
$GPGSA,A,3,22,19,07,11,03,06,08,28,18,15,01,,1.8,0.8,1.7*31
$GPRMC,165720.000,A,6405.4805,N,02155.7338,W,3.90,234.21,060912,,,A*79
$GPGGA,165721.000,6405.4791,N,02155.7363,W,1,11,0.8,10.5,M,60.6,M,,0000*7A
$GPGSA,A,3,22,19,07,11,03,06,08,28,18,15,01,,1.8,0.8,1.7*31
$GPRMC,165721.000,A,6405.4791,N,02155.7363,W,5.87,219.54,060912,,,A*79
$GPGGA,165722.000,6405.4772,N,02155.7380,W,1,11,0.8,10.8,M,60.6,M,,0000*74
$GPGSA,A,3,22,19,07,11,03,06,08,28,18,15,01,,1.8,0.8,1.7*31
$GPRMC,165722.000,A,6405.4772,N,02155.7380,W,6.77,202.94,060912,,,A*70
$GPGGA,165723.000,6405.4752,N,02155.7387,W,1,11,0.8,11.3,M,60.6,M,,0000*7A
$GPGSA,A,3,22,19,07,11,03,06,08,28,18,15,01,,1.8,0.8,1.7*31
$GPRMC,165723.000,A,6405.4752,N,02155.7387,W,6.94,186.52,060912,,,A*7C
$GPGGA,165724.000,6405.4732,N,02155.7384,W,1,11,0.8,11.9,M,60.6,M,,0000*72
$GPGSA,A,3,22,19,07,11,03,06,08,28,18,15,01,,1.8,0.8,1.7*31
$GPGSV,3,1,12,19,71,143,40,11,47,225,42,22,41,088,33,03,39,127,38*77
$GPGSV,3,2,12,08,29,276,40,01,28,223,34,06,27,117,35,28,26,310,34*79
$GPGSV,3,3,12,18,24,043,31,15,13,000,32,07,10,240,21,26,04,324,28*7B
$GPRMC,165724.000,A,6405.4732,N,02155.7384,W,6.98,174.64,060912,,,A*7A
$GPGGA,165725.000,6405.4714,N,02155.7376,W,1,11,0.8,12.5,M,60.6,M,,0000*75
$GPGSA,A,3,22,19,07,11,03,06,08,28,18,15,01,,1.8,0.8,1.7*31
$GPRMC,165725.000,A,6405.4714,N,02155.7376,W,6.42,166.43,060912,,,A*73
$GPGGA,165726.000,6405.4698,N,02155.7367,W,1,11,0.8,13.1,M,60.6,M,,0000*76
$GPGSA,A,3,22,19,07,11,03,06,08,28,18,15,01,,1.8,0.8,1.7*31
$GPRMC,165726.000,A,6405.4698,N,02155.7367,W,5.47,163.90,060912,,,A*78
$GPGGA,165727.000,6405.4685,N,02155.7359,W,1,11,0.8,13.8,M,60.6,M,,0000*7F
$GPGSA,A,3,22,19,07,11,03,06,08,28,18,15,01,,1.8,0.8,1.7*31
$GPRMC,165727.000,A,6405.4685,N,02155.7359,W,4.56,161.99,060912,,,A*72
$GPGGA,165728.000,6405.4674,N,02155.7352,W,1,11,0.8,14.4,M,60.6,M,,0000*7E
$GPGSA,A,3,22,19,07,11,03,06,08,28,18,15,01,,1.8,0.8,1.7*31
$GPRMC,165728.000,A,6405.4674,N,02155.7352,W,3.71,160.21,060912,,,A*78
$GPGGA,165729.000,6405.4666,N,02155.7347,W,1,11,0.8,14.9,M,60.6,M,,0000*75
$GPGSA,A,3,22,19,07,11,03,06,08,28,18,15,01,,1.8,0.8,1.7*31
$GPGSV,3,1,12,19,71,143,42,11,47,225,43,22,41,088,37,03,39,127,38*70
$GPGSV,3,2,12,08,29,276,40,01,28,223,35,06,27,117,35,28,26,310,27*7A
$GPGSV,3,3,12,18,24,043,31,15,13,000,31,07,10,240,21,26,04,324,24*74
$GPRMC,165729.000,A,6405.4666,N,02155.7347,W,2.93,159.76,060912,,,A*7B
$GPGGA,165730.000,6405.4659,N,02155.7343,W,1,11,0.8,15.4,M,60.6,M,,0000*79
$GPGSA,A,3,22,19,07,11,03,06,08,28,18,15,01,,1.8,0.8,1.7*31
$GPRMC,165730.000,A,6405.4659,N,02155.7343,W,2.15,159.35,060912,,,A*72
$GPGGA,165731.000,6405.4654,N,02155.7340,W,1,11,0.8,15.9,M,60.6,M,,0000*7B
$GPGSA,A,3,22,19,07,11,03,06,08,28,18,15,01,,1.8,0.8,1.7*31
$GPRMC,165731.000,A,6405.4654,N,02155.7340,W,1.41,157.55,060912,,,A*77
$GPGGA,165732.000,6405.4651,N,02155.7339,W,1,11,0.8,16.4,M,60.6,M,,0000*7D
$GPGSA,A,3,22,19,07,11,03,06,08,28,18,15,01,,1.8,0.8,1.7*31
$GPRMC,165808.000,A,6405.4635,N,02155.7350,W,0.92,155.61,060912,,,A*7E
$GPGGA,165809.000,6405.4626,N,02155.7342,W,1,11,0.8,25.3,M,60.6,M,,0000*71
$GPGSA,A,3,22,19,07,11,03,06,08,28,18,15,01,,1.8,0.8,1.6*30
$GPGSV,3,1,12,19,71,142,43,11,47,225,43,22,41,087,37,03,39,127,41*71
$GPGSV,3,2,12,01,29,223,36,08,28,275,38,06,27,117,37,28,26,310,31*70
$GPGSV,3,3,12,18,24,043,31,15,12,359,28,07,09,240,19,26,03,323,22*77
$GPRMC,165809.000,A,6405.4626,N,02155.7342,W,3.75,158.34,060912,,,A*79
$GPGGA,165810.000,6405.4609,N,02155.7328,W,1,11,0.8,25.5,M,60.6,M,,0000*7E
$GPGSA,A,3,22,19,07,11,03,06,08,28,18,15,01,,1.8,0.8,1.6*30
$GPRMC,165810.000,A,6405.4609,N,02155.7328,W,6.56,159.09,060912,,,A*7B
$GPGGA,165811.000,6405.4589,N,02155.7312,W,1,10,0.9,25.7,M,60.6,M,,0000*7F
$GPGSA,A,3,22,19,11,03,06,08,28,18,15,01,,,2.3,0.9,2.1*3A
$GPRMC,165811.000,A,6405.4589,N,02155.7312,W,7.57,158.69,060912,,,A*7F
$GPGGA,165812.000,6405.4569,N,02155.7293,W,1,11,0.8,26.0,M,60.6,M,,0000*7E
$GPGSA,A,3,22,19,07,11,03,06,08,28,18,15,01,,1.8,0.8,1.6*30
$GPRMC,165812.000,A,6405.4569,N,02155.7293,W,7.96,157.42,060912,,,A*71
$GPGGA,165813.000,6405.4547,N,02155.7273,W,1,11,0.8,26.2,M,60.6,M,,0000*7F
$GPGSA,A,3,22,19,07,11,03,06,08,28,18,15,01,,1.8,0.8,1.6*30
$GPRMC,165813.000,A,6405.4547,N,02155.7273,W,8.78,158.21,060912,,,A*77
$GPGGA,165814.000,6405.4522,N,02155.7262,W,1,11,0.8,26.5,M,60.6,M,,0000*7C
$GPGSA,A,3,22,19,07,11,03,06,08,28,18,15,01,,1.8,0.8,1.6*30
$GPGSV,3,1,12,19,71,142,43,11,47,225,42,22,41,087,34,03,39,127,40*72
$GPGSV,3,2,12,01,29,223,36,08,28,275,37,06,27,117,37,28,26,310,36*78
$GPGSV,3,3,12,18,24,043,31,15,12,359,32,07,09,240,32,26,03,323,30*76
$GPRMC,165814.000,A,6405.4522,N,02155.7262,W,9.36,168.75,060912,,,A*7A
$GPGGA,165815.000,6405.4495,N,02155.7266,W,1,11,0.8,26.9,M,60.6,M,,0000*78
$GPGSA,A,3,22,19,07,11,03,06,08,28,18,15,01,,1.8,0.8,1.6*30
$GPRMC,165815.000,A,6405.4495,N,02155.7266,W,9.62,184.03,060912,,,A*70
$GPGGA,165816.000,6405.4469,N,02155.7293,W,1,11,0.8,27.3,M,60.6,M,,0000*79
$GPGSA,A,3,22,19,07,11,03,06,08,28,18,15,01,,1.8,0.8,1.6*30
$GPRMC,165816.000,A,6405.4469,N,02155.7293,W,10.60,204.05,060912,,,A*4D
$GPGGA,165817.000,6405.4443,N,02155.7339,W,1,11,0.8,27.6,M,60.6,M,,0000*74
$GPGSA,A,3,22,19,07,11,03,06,08,28,18,15,01,,1.8,0.8,1.6*30
$GPRMC,165817.000,A,6405.4443,N,02155.7339,W,11.95,219.44,060912,,,A*47
$GPGGA,165818.000,6405.4417,N,02155.7401,W,1,11,0.8,28.0,M,60.6,M,,0000*7F
$GPGSA,A,3,22,19,07,11,03,06,08,28,18,15,01,,1.8,0.8,1.6*30
$GPRMC,165818.000,A,6405.4417,N,02155.7401,W,13.56,227.17,060912,,,A*43
$GPGGA,165819.000,6405.4392,N,02155.7466,W,1,11,0.8,28.3,M,60.6,M,,0000*76
$GPGSA,A,3,22,19,07,11,03,06,08,28,18,15,01,,1.8,0.8,1.6*30
$GPGSV,3,1,12,19,71,142,30,11,47,225,35,22,41,087,34,03,39,127,37*76
$GPGSV,3,2,12,01,29,223,29,08,28,275,39,06,27,117,36,28,27,310,43*7A
$GPGSV,3,3,12,18,24,043,31,15,12,359,26,07,09,240,34,26,03,323,19*7E
$GPRMC,165819.000,A,6405.4392,N,02155.7466,W,14.09,228.71,060912,,,A*4B
$GPGGA,165820.000,6405.4366,N,02155.7534,W,1,11,0.8,28.6,M,60.6,M,,0000*74
$GPGSA,A,3,22,19,07,11,03,06,08,28,18,15,01,,1.8,0.8,1.6*30
$GPRMC,165820.000,A,6405.4366,N,02155.7534,W,14.43,229.16,060912,,,A*42
$GPGGA,165821.000,6405.4337,N,02155.7609,W,1,11,0.8,28.9,M,60.6,M,,0000*73
$GPGSA,A,3,22,19,07,11,03,06,08,28,18,15,01,,1.8,0.8,1.6*30
$GPRMC,165821.000,A,6405.4337,N,02155.7609,W,15.72,229.64,060912,,,A*4C
$GPGGA,165822.000,6405.4307,N,02155.7692,W,1,11,0.8,29.2,M,60.6,M,,0000*7B
$GPGSA,A,3,22,19,07,11,03,06,08,28,18,15,01,,1.8,0.8,1.6*30
$GPRMC,165822.000,A,6405.4307,N,02155.7692,W,17.31,230.78,060912,,,A*4E
$GPGGA,165823.000,6405.4275,N,02155.7783,W,1,11,0.8,29.5,M,60.6,M,,0000*78
$GPGSA,A,3,22,19,07,11,03,06,08,28,18,15,01,,1.8,0.8,1.6*30
$GPRMC,165823.000,A,6405.4275,N,02155.7783,W,18.71,230.81,060912,,,A*47
$GPGGA,165824.000,6405.4240,N,02155.7879,W,1,11,0.8,29.7,M,60.6,M,,0000*71
$GPGSA,A,3,22,19,07,11,03,06,08,28,18,15,01,,1.8,0.8,1.6*30
$GPGSV,3,1,12,19,71,142,29,11,47,225,36,22,41,087,33,03,39,127,33*7E
$GPGSV,3,2,12,01,29,223,37,08,28,275,39,06,27,117,33,28,27,310,43*70
$GPGSV,3,3,12,18,24,043,32,15,12,359,27,07,09,240,34,26,03,323,32*75
$GPRMC,165824.000,A,6405.4240,N,02155.7879,W,19.84,230.55,060912,,,A*4E
$GPGGA,165825.000,6405.4203,N,02155.7980,W,1,11,0.8,29.9,M,60.6,M,,0000*7E
$GPGSA,A,3,22,19,07,11,03,06,08,28,18,15,01,,1.8,0.8,1.6*30
$GPRMC,165825.000,A,6405.4203,N,02155.7980,W,21.02,230.30,060912,,,A*49
$GPGGA,165826.000,6405.4165,N,02155.8082,W,1,11,0.8,30.1,M,60.6,M,,0000*7A
$GPGSA,A,3,22,19,07,11,03,06,08,28,18,15,01,,1.8,0.8,1.6*30
$GPRMC,165826.000,A,6405.4165,N,02155.8082,W,21.32,230.14,060912,,,A*48
$GPGGA,165827.000,6405.4128,N,02155.8184,W,1,11,0.8,30.3,M,60.6,M,,0000*77
$GPGSA,A,3,22,19,07,11,03,06,08,28,18,15,01,,1.8,0.8,1.6*30
$GPRMC,165827.000,A,6405.4128,N,02155.8184,W,21.06,230.23,060912,,,A*44
$GPGGA,165828.000,6405.4090,N,02155.8289,W,1,11,0.8,30.5,M,60.6,M,,0000*72
$GPGSA,A,3,22,19,07,11,03,06,08,28,18,15,01,,1.8,0.8,1.6*30
$GPRMC,165828.000,A,6405.4090,N,02155.8289,W,21.61,230.71,060912,,,A*41
$GPGGA,165829.000,6405.4051,N,02155.8398,W,1,11,0.8,30.7,M,60.6,M,,0000*7D
$GPGSA,A,3,22,19,07,11,03,06,08,28,18,15,01,,1.8,0.8,1.6*30
$GPGSV,3,1,12,19,71,142,27,11,47,225,35,22,41,087,33,03,39,127,23*72
$GPGSV,3,2,12,01,29,223,37,08,28,275,40,06,27,117,34,28,27,310,43*79
$GPGSV,3,3,12,18,24,043,23,15,12,359,27,07,09,240,27,26,03,323,29*7D
$GPRMC,165829.000,A,6405.4051,N,02155.8398,W,22.47,230.62,060912,,,A*49
$GPGGA,165830.000,6405.4009,N,02155.8512,W,1,10,0.9,30.9,M,60.6,M,,0000*72
$GPGSA,A,3,22,19,11,03,06,08,28,18,15,01,,,2.3,0.9,2.1*3A
$GPRMC,165830.000,A,6405.4009,N,02155.8512,W,23.38,230.33,060912,,,A*45
$GPGGA,165831.000,6405.3967,N,02155.8627,W,1,10,0.9,31.1,M,60.6,M,,0000*79
$GPGSA,A,3,22,19,11,03,06,08,28,18,15,01,,,2.3,0.9,2.1*3A
$GPRMC,165831.000,A,6405.3967,N,02155.8627,W,23.93,229.95,060912,,,A*42
$GPGGA,165832.000,6405.3924,N,02155.8744,W,1,10,0.9,31.3,M,60.6,M,,0000*7B
$GPGSA,A,3,22,19,11,03,06,08,28,18,15,01,,,2.3,0.9,2.1*3A
$GPRMC,165832.000,A,6405.3924,N,02155.8744,W,24.30,229.84,060912,,,A*4C
$GPGGA,165833.000,6405.3879,N,02155.8862,W,1,10,0.9,31.5,M,60.6,M,,0000*7E
$GPGSA,A,3,22,19,11,03,06,08,28,18,15,01,,,2.3,0.9,2.1*3A
$GPRMC,165833.000,A,6405.3879,N,02155.8862,W,24.47,229.33,060912,,,A*43
$GPGGA,165834.000,6405.3835,N,02155.8978,W,1,10,0.9,31.6,M,60.6,M,,0000*78
$GPGSA,A,3,22,19,11,03,06,08,28,18,15,01,,,2.3,0.9,2.1*3A
$GPGSV,3,1,12,19,71,142,32,11,47,225,35,22,41,087,34,03,39,127,27*75
$GPGSV,3,2,12,01,29,223,36,08,28,275,39,06,27,117,34,28,27,310,43*76
$GPGSV,3,3,12,18,24,043,23,15,12,359,20,07,09,240,32,26,03,323,19*7D
$GPRMC,165834.000,A,6405.3835,N,02155.8978,W,24.49,228.84,060912,,,A*45
$GPGGA,165835.000,6405.3789,N,02155.9096,W,1,10,0.9,31.7,M,60.6,M,,0000*78
$GPGSA,A,3,22,19,11,03,06,08,28,18,15,01,,,2.3,0.9,2.1*3A
$GPRMC,165835.000,A,6405.3789,N,02155.9096,W,24.78,228.30,060912,,,A*49
$GPGGA,165836.000,6405.3742,N,02155.9215,W,1,10,0.9,31.8,M,60.6,M,,0000*7A
$GPGSA,A,3,22,19,11,03,06,08,28,18,15,01,,,2.3,0.9,2.1*3A
$GPRMC,165836.000,A,6405.3742,N,02155.9215,W,25.48,227.74,060912,,,A*49
$GPGGA,165837.000,6405.3693,N,02155.9337,W,1,10,0.9,31.9,M,60.6,M,,0000*76
$GPGSA,A,3,22,19,11,03,06,08,28,18,15,01,,,2.3,0.9,2.1*3A
$GPRMC,165837.000,A,6405.3693,N,02155.9337,W,26.09,227.63,060912,,,A*44
$GPGGA,165838.000,6405.3643,N,02155.9463,W,1,10,0.9,32.0,M,60.6,M,,0000*78
$GPGSA,A,3,22,19,11,03,06,08,28,18,15,01,,,2.3,0.9,2.1*3A
$GPRMC,165838.000,A,6405.3643,N,02155.9463,W,26.68,227.68,060912,,,A*4C
$GPGGA,165839.000,6405.3592,N,02155.9590,W,1,10,0.9,32.0,M,60.6,M,,0000*7B
$GPGSA,A,3,22,19,11,03,06,08,28,18,15,01,,,2.3,0.9,2.1*3A
$GPGSV,3,1,12,19,71,142,24,11,48,225,33,22,41,087,34,03,38,127,31*7D
$GPGSV,3,2,12,01,29,223,33,08,28,275,40,28,27,310,42,06,27,117,35*7D
$GPGSV,3,3,12,18,23,042,18,15,12,359,22,07,09,240,30,26,03,323,22*7B
$GPRMC,165839.000,A,6405.3592,N,02155.9590,W,27.20,227.36,060912,,,A*49
$GPGGA,165840.000,6405.3541,N,02155.9717,W,1,10,0.9,32.0,M,60.6,M,,0000*76
$GPGSA,A,3,22,19,11,03,06,08,28,18,15,01,,,2.3,0.9,2.1*3A
$GPRMC,165840.000,A,6405.3541,N,02155.9717,W,27.33,227.26,060912,,,A*47
$GPGGA,165841.000,6405.3489,N,02155.9847,W,1,10,0.9,32.1,M,60.6,M,,0000*79
$GPGSA,A,3,22,19,11,03,06,08,28,18,15,01,,,2.3,0.9,2.1*3A
$GPRMC,165841.000,A,6405.3489,N,02155.9847,W,27.61,227.35,060912,,,A*4C
$GPGGA,165842.000,6405.3437,N,02155.9977,W,1,10,0.9,32.0,M,60.6,M,,0000*7C
$GPGSA,A,3,22,19,11,03,06,08,28,18,15,01,,,2.3,0.9,2.1*3A
$GPRMC,165842.000,A,6405.3437,N,02155.9977,W,27.68,227.78,060912,,,A*48
$GPGGA,165843.000,6405.3385,N,02156.0108,W,1,10,0.9,32.0,M,60.6,M,,0000*79
$GPGSA,A,3,22,19,11,03,06,08,28,18,15,01,,,2.3,0.9,2.1*3A
$GPRMC,165843.000,A,6405.3385,N,02156.0108,W,27.80,227.58,060912,,,A*49
$GPGGA,165844.000,6405.3333,N,02156.0237,W,1,10,0.9,31.9,M,60.6,M,,0000*76
$GPGSA,A,3,22,19,11,03,06,08,28,18,15,01,,,2.3,0.9,2.1*3A
$GPGSV,3,1,12,19,71,142,23,11,48,225,33,22,41,087,34,03,38,127,33*78
$GPGSV,3,2,12,01,29,223,31,08,28,275,40,28,27,310,42,06,27,117,37*7D
$GPGSV,3,3,12,18,23,042,30,15,12,359,25,07,09,240,32,26,03,323,21*77
$GPRMC,165844.000,A,6405.3333,N,02156.0237,W,27.62,227.27,060912,,,A*48
$GPGGA,165845.000,6405.3281,N,02156.0364,W,1,10,0.9,31.8,M,60.6,M,,0000*79
$GPGSA,A,3,22,19,11,03,06,08,28,18,15,01,,,2.3,0.9,2.1*3A
$GPRMC,165845.000,A,6405.3281,N,02156.0364,W,27.42,226.46,060912,,,A*42
$GPGGA,165846.000,6405.3227,N,02156.0488,W,1,10,0.9,31.7,M,60.6,M,,0000*7C
$GPGSA,A,3,22,19,11,03,06,08,28,18,15,01,,,2.3,0.9,2.1*3A
$GPRMC,165846.000,A,6405.3227,N,02156.0488,W,27.28,225.14,060912,,,A*40
$GPGGA,165847.000,6405.3172,N,02156.0608,W,1,10,0.9,31.7,M,60.6,M,,0000*74
$GPGSA,A,3,22,19,11,03,06,08,28,18,15,01,,,2.3,0.9,2.1*3A
$GPRMC,165847.000,A,6405.3172,N,02156.0608,W,27.51,223.38,060912,,,A*4E
$GPGGA,165848.000,6405.3114,N,02156.0727,W,1,10,0.9,31.7,M,60.6,M,,0000*77
$GPGSA,A,3,22,19,11,03,06,08,28,18,15,01,,,2.3,0.9,2.1*3A
$GPRMC,165848.000,A,6405.3114,N,02156.0727,W,28.02,221.44,060912,,,A*4D
$GPGGA,165849.000,6405.3053,N,02156.0844,W,1,10,0.9,31.8,M,60.6,M,,0000*71
$GPGSA,A,3,22,19,11,03,06,08,28,18,15,01,,,2.3,0.9,2.1*3A
$GPGSV,3,1,12,19,71,142,32,11,48,225,33,22,41,087,32,03,38,127,29*75
$GPGSV,3,2,12,01,29,223,30,08,28,275,40,28,27,310,42,06,27,117,36*7D
$GPGSV,3,3,12,18,23,042,28,15,12,359,32,07,09,240,26,26,03,323,36*7B
$GPRMC,165849.000,A,6405.3053,N,02156.0844,W,28.65,219.70,060912,,,A*49
$GPGGA,165850.000,6405.2990,N,02156.0959,W,1,10,0.9,32.0,M,60.6,M,,0000*78
$GPGSA,A,3,22,19,11,03,06,08,28,18,15,01,,,2.3,0.9,2.1*3A
$GPRMC,165850.000,A,6405.2990,N,02156.0959,W,29.07,218.42,060912,,,A*4E
$GPGGA,165851.000,6405.2924,N,02156.1072,W,1,10,0.9,32.1,M,60.6,M,,0000*76
$GPGSA,A,3,22,19,11,03,06,08,28,18,15,01,,,2.3,0.9,2.1*3A
$GPRMC,165851.000,A,6405.2924,N,02156.1072,W,29.56,216.68,060912,,,A*43
$GPGGA,165852.000,6405.2857,N,02156.1184,W,1,10,0.9,32.3,M,60.6,M,,0000*7A
$GPGSA,A,3,22,19,11,03,06,08,28,18,15,01,,,2.3,0.9,2.1*3A
$GPRMC,165852.000,A,6405.2857,N,02156.1184,W,29.70,215.79,060912,,,A*4A
$GPGGA,165853.000,6405.2790,N,02156.1294,W,1,10,0.9,32.5,M,60.6,M,,0000*7B
$GPGSA,A,3,22,19,11,03,06,08,28,18,15,01,,,2.3,0.9,2.1*3A
$GPRMC,165853.000,A,6405.2790,N,02156.1294,W,29.87,215.15,060912,,,A*4F
$GPGGA,165854.000,6405.2722,N,02156.1402,W,1,10,0.9,32.7,M,60.6,M,,0000*7E
$GPGSA,A,3,22,19,11,03,06,08,28,18,15,01,,,2.3,0.9,2.1*3A
$GPGSV,3,1,12,19,71,142,34,11,48,225,34,22,41,087,37,03,38,127,31*78
$GPGSV,3,2,12,01,29,223,36,08,28,275,39,28,27,310,36,06,27,117,28*79
$GPGSV,3,3,12,18,23,042,17,15,12,359,32,07,09,240,32,26,03,323,36*72
$GPRMC,165854.000,A,6405.2722,N,02156.1402,W,29.87,214.65,060912,,,A*4E
$GPGGA,165855.000,6405.2653,N,02156.1510,W,1,10,0.9,33.0,M,60.6,M,,0000*7C
$GPGSA,A,3,22,19,11,03,06,08,28,18,15,01,,,2.3,0.9,2.1*3A
$GPRMC,165855.000,A,6405.2653,N,02156.1510,W,29.91,214.23,060912,,,A*4F
$GPGGA,165856.000,6405.2585,N,02156.1618,W,1,10,0.9,33.3,M,60.6,M,,0000*7F
$GPGSA,A,3,22,19,11,03,06,08,28,18,15,01,,,2.3,0.9,2.1*3A
$GPRMC,165856.000,A,6405.2585,N,02156.1618,W,29.78,214.53,060912,,,A*4F
$GPGGA,165857.000,6405.2517,N,02156.1728,W,1,10,0.9,33.6,M,60.6,M,,0000*72
$GPGSA,A,3,22,19,11,03,06,08,28,18,15,01,,,2.3,0.9,2.1*3A
$GPRMC,165857.000,A,6405.2517,N,02156.1728,W,29.93,214.96,060912,,,A*4B
$GPGGA,165858.000,6405.2448,N,02156.1839,W,1,10,0.9,33.9,M,60.6,M,,0000*76
$GPGSA,A,3,22,19,11,03,06,08,28,18,15,01,,,2.3,0.9,2.1*3A
$GPRMC,165858.000,A,6405.2448,N,02156.1839,W,30.24,214.90,060912,,,A*42
$GPGGA,165859.000,6405.2378,N,02156.1952,W,1,10,0.9,34.3,M,60.6,M,,0000*72
$GPGSA,A,3,22,19,11,03,06,08,28,18,15,01,,,2.3,0.9,2.1*3A
