$GPRMC,082708.068,A,5229.6034,N,01319.4604,E,1.24,5.10,120912,,,A*6E
$GPGGA,082709.068,5229.6075,N,01319.4587,E,1,03,6.9,54.7,M,44.8,M,,0000*68
$GPGSA,A,2,12,14,25,,,,,,,,,,7.0,6.9,1.0*3B
$GPRMC,082709.068,A,5229.6075,N,01319.4587,E,2.25,7.73,120912,,,A*67
$GPGGA,082710.068,5229.6286,N,01319.4662,E,1,03,6.9,54.7,M,44.8,M,,0000*66
$GPGSA,A,2,12,14,25,,,,,,,,,,7.0,6.9,1.0*3B
$GPRMC,082713.068,A,5229.6267,N,01319.4643,E,0.84,1.44,120912,,,A*6D
$GPGGA,082714.069,5229.6339,N,01319.4753,E,1,03,6.9,54.7,M,44.8,M,,0000*65
$GPGSA,A,2,12,14,25,,,,,,,,,,7.0,6.9,1.0*3B
$GPRMC,082714.069,A,5229.6339,N,01319.4753,E,3.86,34.15,120912,,,A*52
$GPGGA,082715.069,5229.6366,N,01319.4677,E,1,03,6.9,54.7,M,44.8,M,,0000*69
$GPGSA,A,2,12,14,25,,,,,,,,,,7.0,6.9,1.0*3B
$GPRMC,082715.069,A,5229.6366,N,01319.4677,E,1.53,335.36,120912,,,A*67
$GPGGA,082716.069,5229.6412,N,01319.4695,E,1,03,6.9,54.7,M,44.8,M,,0000*62
$GPGSA,A,2,12,14,25,,,,,,,,,,7.0,6.9,1.0*3B
$GPRMC,082719.069,A,5229.6140,N,01319.4555,E,2.18,8.27,120912,,,A*6F
$GPGGA,082720.069,5229.6468,N,01319.4617,E,1,03,7.0,54.7,M,44.8,M,,0000*68
$GPGSA,A,2,12,14,25,,,,,,,,,,7.0,7.0,1.0*33
$GPRMC,082720.069,A,5229.6468,N,01319.4617,E,0.91,12.63,120912,,,A*57
$GPGGA,082721.069,5229.6110,N,01319.4558,E,1,03,7.0,54.7,M,44.8,M,,0000*6B
$GPGSA,A,2,12,14,25,,,,,,,,,,7.0,7.0,1.0*33
$GPRMC,082722.065,A,5229.6391,N,01319.4557,E,1.59,193.24,120912,,,A*61
$GPGGA,082723.069,5229.6411,N,01319.4608,E,1,03,7.0,54.7,M,44.8,M,,0000*6B
$GPGSA,A,2,12,14,25,,,,,,,,,,7.1,7.0,1.0*32
$GPRMC,082726.069,A,5229.6342,N,01319.4584,E,0.96,359.54,120912,,,A*68
$GPGGA,082727.069,5229.6376,N,01319.4591,E,1,03,7.0,54.7,M,44.8,M,,0000*6A
$GPGSA,A,2,12,14,25,,,,,,,,,,7.1,7.0,1.0*32
$GPGSV,3,1,12,12,85,338,30,25,46,267,29,14,40,283,30,09,42,141,27*75
$GPGSV,3,2,12,27,35,141,23,04,26,073,22,02,23,118,,29,16,206,*7A
$GPGSV,3,3,12,17,06,042,26,32,04,343,,31,03,308,23,20,00,009,*79
$GPRMC,082736.069,A,5229.6355,N,01319.4587,E,0.86,2.73,120912,,,A*65
$GPGGA,082737.069,5229.6349,N,01319.4588,E,1,03,7.1,54.7,M,44.8,M,,0000*6E
$GPGSA,A,2,12,14,25,,,,,,,,,,7.1,7.1,1.0*33
$GPGSV,3,1,12,12,85,338,29,25,46,267,30,14,40,283,30,09,42,141,27*75
$GPGSV,3,2,12,27,35,141,22,04,26,073,21,02,23,118,,29,16,206,*78
$GPGSV,3,3,12,17,06,042,25,32,04,343,,31,03,308,25,20,00,009,*7C
$GPRMC,082743.069,A,5229.6347,N,01319.4604,E,0.99,3.48,120912,,,A*6B
$GPGGA,082744.069,5229.6343,N,01319.4608,E,1,03,7.1,54.7,M,44.8,M,,0000*6B
$GPGSA,A,2,12,14,25,,,,,,,,,,7.2,7.1,1.0*30
$GPRMC,082747.069,A,5229.6341,N,01319.4616,E,1.07,4.40,120912,,,A*63
$GPGGA,082748.069,5229.6341,N,01319.4617,E,1,03,7.1,54.7,M,44.8,M,,0000*6B
$GPGSA,A,2,12,14,25,,,,,,,,,,7.2,7.1,1.0*30
$GPRMC,082751.069,A,5229.6338,N,01319.4620,E,0.81,1.29,120912,,,A*6A
$GPGGA,082752.069,5229.6338,N,01319.4621,E,1,03,7.2,54.7,M,44.8,M,,0000*68
$GPGSA,A,2,12,14,25,,,,,,,,,,7.2,7.2,1.0*33
$GPGSV,3,1,12,12,85,338,29,25,46,267,30,14,40,283,30,09,42,141,29*7B
$GPGSV,3,2,12,27,35,141,21,04,26,073,22,02,23,118,,29,16,206,*78
$GPGSV,3,3,12,17,06,042,24,32,04,343,,31,03,308,25,20,00,009,*7D
$GPRMC,082759.069,A,5229.6338,N,01319.4628,E,0.97,0.37,120912,,,A*63
$GPGGA,082800.069,5229.6340,N,01319.4629,E,1,03,7.2,54.7,M,44.8,M,,0000*67
$GPGSA,A,2,12,14,25,,,,,,,,,,7.3,7.2,1.0*32
$GPRMC,082806.069,A,5229.6337,N,01319.4639,E,0.90,359.63,120912,,,A*60
$GPGGA,082807.069,5229.6339,N,01319.4641,E,1,03,7.2,54.7,M,44.8,M,,0000*60
$GPGSA,A,2,12,14,25,,,,,,,,,,7.3,7.2,1.0*32
$GPGSV,3,1,12,12,85,338,28,25,46,267,30,14,40,283,30,09,42,141,30*72
$GPGSV,3,2,12,27,35,141,18,04,26,073,21,02,23,118,17,29,16,206,*77
$GPGSV,3,3,12,17,06,042,24,32,04,343,,31,03,308,25,20,00,009,*7D
$GPRMC,082807.069,A,5229.6339,N,01319.4641,E,0.90,4.81,120912,,,A*67
$GPGGA,082808.069,5229.6340,N,01319.4642,E,1,03,7.3,54.7,M,44.8,M,,0000*63
$GPGSA,A,2,12,14,25,,,,,,,,,,7.3,7.3,1.0*33
$GPRMC,082809.069,A,5229.6337,N,01319.4644,E,0.91,358.10,120912,,,A*61
$GPGGA,082810.069,5229.6338,N,01319.4645,E,1,03,7.3,54.7,M,44.8,M,,0000*62
$GPGSA,A,2,12,14,25,,,,,,,,,,7.3,7.3,1.0*33
$GPRMC,082810.069,A,5229.6338,N,01319.4645,E,1.16,3.72,120912,,,A*60
$GPGGA,082811.069,5229.6337,N,01319.4647,E,1,03,7.3,54.7,M,44.8,M,,0000*6E
$GPGSA,A,2,12,14,25,,,,,,,,,,7.3,7.3,1.0*33
$GPRMC,082813.069,A,5229.6341,N,01319.4650,E,1.02,3.80,120912,,,A*61
$GPGGA,082814.069,5229.6340,N,01319.4653,E,1,03,7.3,54.7,M,44.8,M,,0000*6E
$GPGSA,A,2,12,14,25,,,,,,,,,,7.4,7.3,1.0*34
$GPRMC,082814.069,A,5229.6340,N,01319.4653,E,0.97,1.62,120912,,,A*67
$GPGGA,082815.069,5229.6339,N,01319.4656,E,1,03,7.3,54.7,M,44.8,M,,0000*64
$GPGSA,A,2,12,14,25,,,,,,,,,,7.4,7.3,1.0*34
$GPRMC,082815.069,A,5229.6339,N,01319.4656,E,0.88,3.52,120912,,,A*62
$GPGGA,082816.069,5229.6339,N,01319.4657,E,1,03,7.3,54.7,M,44.8,M,,0000*66
$GPGSA,A,2,12,14,25,,,,,,,,,,7.4,7.3,1.0*34
$GPRMC,082816.069,A,5229.6339,N,01319.4657,E,1.01,0.86,120912,,,A*6A
$GPGGA,082817.069,5229.6341,N,01319.4658,E,1,03,7.3,54.7,M,44.8,M,,0000*67
$GPGSA,A,2,12,14,25,,,,,,,,,,7.4,7.3,1.0*34
$GPGSV,3,1,12,12,85,345,27,25,46,268,31,14,40,282,30,09,42,141,30*78
$GPGSV,3,2,12,27,34,141,18,04,26,072,19,02,23,117,16,29,17,206,*73
$GPGSV,3,3,12,17,05,042,24,32,04,342,,31,03,308,25,20,00,009,*7F
$GPRMC,082934.000,A,5229.6349,N,01319.4700,E,0.90,179.46,120912,,,A*6A
$GPGGA,082935.000,5229.6344,N,01319.4699,E,1,04,6.5,49.5,M,44.8,M,,0000*6F
$GPGSA,A,3,12,14,25,09,,,,,,,,,9.7,6.5,7.2*32
$GPRMC,082935.000,A,5229.6344,N,01319.4699,E,1.19,182.92,120912,,,A*6A
$GPGGA,082936.000,5229.6340,N,01319.4699,E,1,04,6.5,49.6,M,44.8,M,,0000*6B
$GPGSA,A,3,12,14,25,09,,,,,,,,,9.8,6.5,7.2*3D
$GPRMC,082936.000,A,5229.6340,N,01319.4699,E,0.89,184.01,120912,,,A*69
$GPGGA,082937.000,5229.6338,N,01319.4698,E,1,04,6.5,49.7,M,44.8,M,,0000*65
$GPGSA,A,3,12,14,25,09,,,,,,,,,9.8,6.5,7.2*3D
$GPGSV,3,1,12,12,85,347,29,25,46,268,30,09,42,141,24,14,40,282,30*70
$GPGSV,3,2,12,27,34,141,16,04,26,072,19,02,23,117,21,29,17,206,*79
$GPGSV,3,3,12,17,05,042,22,32,04,342,,31,03,308,22,20,00,009,*7E
$GPRMC,082938.000,A,5229.6334,N,01319.4699,E,0.97,171.36,120912,,,A*65
$GPGGA,082939.000,5229.6332,N,01319.4699,E,1,04,6.6,49.7,M,44.8,M,,0000*63
$GPGSA,A,3,12,14,25,09,,,,,,,,,9.8,6.6,7.2*3E
$GPRMC,082949.000,A,5229.6315,N,01319.4707,E,1.13,165.61,120912,,,A*6C
$GPGGA,082950.000,5229.6313,N,01319.4707,E,1,04,6.6,47.9,M,44.8,M,,0000*69
$GPGSA,A,3,12,14,25,09,,,,,,,,,9.8,6.6,7.3*3F
$GPRMC,082958.000,A,5229.6305,N,01319.4712,E,1.24,163.03,120912,,,A*6F
$GPGGA,082959.000,5229.6305,N,01319.4711,E,1,04,6.6,46.9,M,44.8,M,,0000*61
$GPGSA,A,3,12,14,25,09,,,,,,,,,9.9,6.6,7.3*3E
$GPRMC,083000.000,A,5229.6309,N,01319.4709,E,1.29,351.72,120912,,,A*64
$GPGGA,083001.000,5229.6313,N,01319.4708,E,1,04,6.6,47.0,M,44.8,M,,0000*63
$GPGSA,A,3,12,14,25,09,,,,,,,,,9.9,6.6,7.3*3E
$GPRMC,083001.000,A,5229.6313,N,01319.4708,E,1.48,357.52,120912,,,A*6C
$GPGGA,083002.000,5229.6313,N,01319.4708,E,1,04,6.6,47.0,M,44.8,M,,0000*60
$GPGSA,A,3,12,14,25,09,,,,,,,,,9.9,6.6,7.3*3E
$GPGSV,3,1,12,12,85,354,30,25,47,268,29,09,41,142,21,14,40,281,30*75
$GPGSV,3,2,12,27,33,141,18,04,26,071,17,02,24,117,17,29,17,206,*7F
$GPGSV,3,3,12,17,05,042,21,32,04,342,,31,04,308,22,20,00,008,*7B
$GPRMC,083010.000,A,5229.6308,N,01319.4709,E,1.22,164.19,120912,,,A*66
$GPGGA,083011.000,5229.6306,N,01319.4709,E,1,04,6.6,46.8,M,44.8,M,,0000*6E
$GPGSA,A,3,12,14,25,09,,,,,,,,,9.9,6.6,7.4*39
$GPRMC,083014.000,A,5229.6311,N,01319.4708,E,1.17,3.25,120912,,,A*62
$GPGGA,083015.000,5229.6314,N,01319.4708,E,1,04,6.7,46.6,M,44.8,M,,0000*67
$GPGSA,A,3,12,14,25,09,,,,,,,,,9.9,6.7,7.4*38
$GPRMC,083045.000,A,5229.6359,N,01319.4656,E,1.04,189.57,120912,,,A*64
$GPGGA,083046.000,5229.6354,N,01319.4655,E,1,04,3.4,57.4,M,44.8,M,,0000*68
$GPGSA,A,3,12,14,25,09,,,,,,,,,3.5,3.4,1.0*3A
$GPRMC,083046.000,A,5229.6354,N,01319.4655,E,1.14,183.94,120912,,,A*6D
$GPGGA,083047.000,5229.6348,N,01319.4653,E,1,04,3.4,57.7,M,44.8,M,,0000*61
$GPGSA,A,3,12,14,25,09,,,,,,,,,3.5,3.4,1.0*3A
$GPGSV,3,1,12,12,85,354,31,25,47,268,28,09,41,142,24,14,40,281,31*71
$GPGSV,3,2,12,27,33,141,19,04,26,071,19,02,24,117,16,29,17,206,*71
$GPGSV,3,3,12,17,05,042,18,32,04,342,17,31,04,308,25,20,00,008,*70
$GPRMC,083047.000,A,5229.6348,N,01319.4653,E,1.49,179.63,120912,,,A*62
$GPGGA,083048.000,5229.6341,N,01319.4652,E,1,04,3.4,57.8,M,44.8,M,,0000*69
$GPGSA,A,3,12,14,25,09,,,,,,,,,3.5,3.4,1.0*3A
$GPRMC,083048.000,A,5229.6341,N,01319.4652,E,1.45,181.52,120912,,,A*6C
$GPGGA,083049.000,5229.6334,N,01319.4651,E,1,04,3.4,57.9,M,44.8,M,,0000*68
$GPGSA,A,3,12,14,25,09,,,,,,,,,3.5,3.4,1.0*3A
$GPRMC,083049.000,A,5229.6334,N,01319.4651,E,1.36,184.92,120912,,,A*61
$GPGGA,083050.000,5229.6327,N,01319.4651,E,1,04,3.4,58.0,M,44.8,M,,0000*64
$GPGSA,A,3,12,14,25,09,,,,,,,,,3.5,3.4,1.0*3A
$GPRMC,083050.000,A,5229.6327,N,01319.4651,E,1.43,181.61,120912,,,A*60
$GPGGA,083051.000,5229.6319,N,01319.4651,E,1,04,3.4,57.9,M,44.8,M,,0000*6E
$GPGSA,A,3,12,14,25,09,,,,,,,,,3.5,3.4,1.0*3A
$GPRMC,083051.000,A,5229.6319,N,01319.4651,E,1.40,178.53,120912,,,A*68
$GPGGA,083052.000,5229.6311,N,01319.4651,E,1,04,3.4,57.9,M,44.8,M,,0000*65
$GPGSA,A,3,12,14,25,09,,,,,,,,,3.5,3.4,1.0*3A
$GPGSV,3,1,12,12,85,354,31,25,47,268,29,09,41,142,23,14,40,281,31*77
$GPGSV,3,2,12,27,33,141,19,04,26,071,20,02,24,117,15,29,17,206,*78
$GPGSV,3,3,12,17,05,042,18,32,04,342,16,31,04,308,24,20,00,008,*70
$GPRMC,083052.000,A,5229.6311,N,01319.4651,E,1.74,174.07,120912,,,A*69
$GPGGA,083053.000,5229.6305,N,01319.4651,E,1,04,3.4,57.8,M,44.8,M,,0000*60
$GPGSA,A,3,12,14,25,09,,,,,,,,,3.5,3.4,1.0*3A
$GPRMC,083053.000,A,5229.6305,N,01319.4651,E,1.05,182.49,120912,,,A*68
$GPGGA,083054.000,5229.6300,N,01319.4651,E,1,04,3.4,57.6,M,44.8,M,,0000*6C
$GPGSA,A,3,12,14,25,09,,,,,,,,,3.5,3.4,1.0*3A
$GPRMC,083217.000,A,5229.6327,N,01319.4664,E,1.12,175.90,120912,,,A*66
$GPGGA,083218.000,5229.6319,N,01319.4664,E,1,04,3.3,52.9,M,44.8,M,,0000*65
$GPGSA,A,3,12,14,25,09,,,,,,,,,3.5,3.3,1.0*3D
$GPRMC,083218.000,A,5229.6319,N,01319.4664,E,1.60,177.74,120912,,,A*69
$GPGGA,083219.000,5229.6314,N,01319.4664,E,1,04,3.3,52.7,M,44.8,M,,0000*67
$GPGSA,A,3,12,14,25,09,,,,,,,,,3.5,3.3,1.0*3D
$GPRMC,083219.000,A,5229.6314,N,01319.4664,E,1.02,183.65,120912,,,A*6A
$GPGGA,083220.000,5229.6308,N,01319.4664,E,1,04,3.3,52.6,M,44.8,M,,0000*61
$GPGSA,A,3,12,14,25,09,,,,,,,,,3.5,3.3,1.0*3D
$GPRMC,083220.000,A,5229.6308,N,01319.4664,E,1.07,174.97,120912,,,A*6D
$GPGGA,083221.000,5229.6304,N,01319.4664,E,1,04,3.3,52.4,M,44.8,M,,0000*6E
$GPGSA,A,3,12,14,25,09,,,,,,,,,3.5,3.3,1.0*3D
$GPRMC,083238.000,A,5229.6307,N,01319.4665,E,1.34,356.38,120912,,,A*6D
$GPGGA,083239.000,5229.6311,N,01319.4665,E,1,04,3.3,50.9,M,44.8,M,,0000*6D
$GPGSA,A,3,12,14,25,09,,,,,,,,,3.5,3.3,1.0*3D
$GPRMC,083239.000,A,5229.6311,N,01319.4665,E,1.27,3.74,120912,,,A*62
$GPGGA,083240.000,5229.6312,N,01319.4665,E,1,04,3.3,51.0,M,44.8,M,,0000*68
$GPGSA,A,3,12,14,25,09,,,,,,,,,3.5,3.3,1.0*3D
$GPRMC,083242.000,A,5229.6309,N,01319.4664,E,1.06,167.63,120912,,,A*60
$GPGGA,083243.000,5229.6307,N,01319.4664,E,1,04,3.3,51.1,M,44.8,M,,0000*6F
$GPGSA,A,3,12,14,25,09,,,,,,,,,3.5,3.3,1.0*3D
$GPRMC,083245.000,A,5229.6302,N,01319.4663,E,0.98,168.51,120912,,,A*63
$GPGGA,083246.000,5229.6297,N,01319.4663,E,1,04,3.3,51.1,M,44.8,M,,0000*65
$GPGSA,A,3,12,14,25,09,,,,,,,,,3.5,3.3,1.0*3D
$GPRMC,083246.000,A,5229.6297,N,01319.4663,E,1.29,177.54,120912,,,A*6D
$GPGGA,083247.000,5229.6292,N,01319.4663,E,1,04,3.3,51.1,M,44.8,M,,0000*61
$GPGSA,A,3,12,14,25,09,,,,,,,,,3.5,3.3,1.0*3D
$GPGSV,3,1,12,12,85,011,31,25,48,269,30,14,40,280,31,09,40,142,24*74
$GPGSV,3,2,12,27,32,142,15,04,26,070,23,02,25,116,,29,19,206,*7E
$GPGSV,3,3,12,31,05,308,27,32,04,341,19,17,03,042,15,20,01,007,*7B
$GPRMC,083247.000,A,5229.6292,N,01319.4663,E,1.17,182.94,120912,,,A*62
$GPGGA,083248.000,5229.6287,N,01319.4662,E,1,04,3.3,51.0,M,44.8,M,,0000*6A
$GPGSA,A,3,12,14,25,09,,,,,,,,,3.5,3.3,1.0*3D
$GPRMC,083248.000,A,5229.6287,N,01319.4662,E,0.86,188.22,120912,,,A*66
$GPGGA,083249.000,5229.6284,N,01319.4662,E,1,04,3.3,50.9,M,44.8,M,,0000*60
$GPGSA,A,3,12,14,25,09,,,,,,,,,3.5,3.3,1.0*3D
$GPRMC,083259.000,A,5229.6255,N,01319.4668,E,0.94,359.03,120912,,,A*6D
$GPGGA,083300.000,5229.6255,N,01319.4670,E,1,04,3.3,48.8,M,44.8,M,,0000*6B
$GPGSA,A,3,12,14,25,09,,,,,,,,,3.5,3.3,1.0*3D
$GPRMC,083309.000,A,5229.6268,N,01319.4675,E,0.97,0.89,120912,,,A*65
$GPGGA,083310.000,5229.6273,N,01319.4675,E,1,04,3.3,47.8,M,44.8,M,,0000*64
$GPGSA,A,3,12,14,25,09,,,,,,,,,3.4,3.3,1.0*3C
$GPRMC,083310.000,A,5229.6273,N,01319.4675,E,1.30,358.06,120912,,,A*62
$GPGGA,083311.000,5229.6278,N,01319.4674,E,1,04,3.3,47.9,M,44.8,M,,0000*6E
$GPGSA,A,3,12,14,25,09,,,,,,,,,3.4,3.3,1.0*3C
$GPRMC,083311.000,A,5229.6278,N,01319.4674,E,1.10,2.93,120912,,,A*6B
$GPGGA,083312.000,5229.6281,N,01319.4674,E,1,04,3.3,48.0,M,44.8,M,,0000*6D
$GPGSA,A,3,12,14,25,09,,,,,,,,,3.4,3.3,1.0*3C
$GPGSV,3,1,12,12,85,011,31,25,48,269,29,14,40,280,31,09,40,142,23*7B
$GPGSV,3,2,12,27,32,142,,04,26,070,20,02,25,116,,29,19,206,*79
$GPGSV,3,3,12,31,05,308,28,32,04,341,16,17,03,042,16,20,01,007,*78
$GPRMC,083314.000,A,5229.6292,N,01319.4673,E,1.21,1.53,120912,,,A*60
$GPGGA,083315.000,5229.6299,N,01319.4672,E,1,04,3.3,48.7,M,44.8,M,,0000*62
$GPGSA,A,3,12,14,25,09,,,,,,,,,3.4,3.3,1.0*3C
$GPRMC,083315.000,A,5229.6299,N,01319.4672,E,1.25,4.28,120912,,,A*66
$GPGGA,083316.000,5229.6305,N,01319.4669,E,1,04,3.3,49.2,M,44.8,M,,0000*6B
$GPGSA,A,3,12,14,25,09,,,,,,,,,3.4,3.3,1.0*3C
$GPRMC,083316.000,A,5229.6305,N,01319.4669,E,0.91,355.42,120912,,,A*6E
$GPGGA,083317.000,5229.6313,N,01319.4665,E,1,04,3.3,49.8,M,44.8,M,,0000*6B
$GPGSA,A,3,12,14,25,09,,,,,,,,,3.4,3.3,1.0*3C
$GPGSV,3,1,12,12,85,011,30,25,48,269,28,14,40,280,31,09,40,142,23*7B
$GPGSV,3,2,12,27,32,142,,04,26,070,20,02,25,116,,29,19,206,*79
$GPGSV,3,3,12,31,05,308,28,32,04,341,17,17,03,042,16,20,01,007,*79
$GPRMC,083317.000,A,5229.6313,N,01319.4665,E,1.38,354.21,120912,,,A*62
$GPGGA,083318.000,5229.6319,N,01319.4661,E,1,04,3.3,50.6,M,44.8,M,,0000*6C
$GPGSA,A,3,12,14,25,09,,,,,,,,,3.4,3.3,1.0*3C
$GPRMC,083318.000,A,5229.6319,N,01319.4661,E,1.13,347.37,120912,,,A*6F
$GPGGA,083319.000,5229.6323,N,01319.4656,E,1,04,3.3,51.5,M,44.8,M,,0000*62
$GPGSA,A,3,12,14,25,09,,,,,,,,,3.4,3.3,1.0*3C
$GPRMC,083329.000,A,5229.6330,N,01319.4594,E,0.99,340.58,120912,,,A*62
$GPGGA,083330.000,5229.6333,N,01319.4588,E,1,04,3.3,64.5,M,44.8,M,,0000*6E
$GPGSA,A,3,12,14,25,09,,,,,,,,,3.4,3.3,1.0*3C
$GPRMC,083330.000,A,5229.6333,N,01319.4588,E,1.07,344.84,120912,,,A*67
$GPGGA,083331.000,5229.6333,N,01319.4584,E,1,04,3.3,65.7,M,44.8,M,,0000*60
$GPGSA,A,3,12,14,25,09,,,,,,,,,3.4,3.3,1.0*3C
$GPRMC,083340.000,A,5229.6316,N,01319.4545,E,0.89,179.97,120912,,,A*6F
$GPGGA,083341.000,5229.6312,N,01319.4542,E,1,04,3.3,76.2,M,44.8,M,,0000*69
$GPGSA,A,3,12,14,25,09,,,,,,,,,3.4,3.3,1.0*3C
$GPRMC,083341.000,A,5229.6312,N,01319.4542,E,1.23,181.74,120912,,,A*66
$GPGGA,083342.000,5229.6307,N,01319.4539,E,1,04,3.3,77.2,M,44.8,M,,0000*63
$GPGSA,A,3,12,14,25,09,,,,,,,,,3.4,3.3,1.0*3C
$GPGSV,3,1,12,12,85,015,30,25,48,269,27,14,40,279,31,09,39,142,20*7B
$GPGSV,3,2,12,27,32,142,,04,26,069,20,02,25,116,20,29,19,206,*73
$GPGSV,3,3,12,31,05,308,29,32,04,340,18,17,03,042,15,20,01,007,*75
$GPRMC,083342.000,A,5229.6307,N,01319.4539,E,1.80,180.24,120912,,,A*60
$GPGGA,083343.000,5229.6303,N,01319.4535,E,1,04,3.3,78.1,M,44.8,M,,0000*66
$GPGSA,A,3,12,14,25,09,,,,,,,,,3.4,3.3,1.0*3C
$GPRMC,083343.000,A,5229.6303,N,01319.4535,E,1.25,188.09,120912,,,A*61
$GPGGA,083344.000,5229.6298,N,01319.4532,E,1,04,3.3,78.9,M,44.8,M,,0000*6D
$GPGSA,A,3,12,14,25,09,,,,,,,,,3.4,3.3,1.0*3C
$GPRMC,083344.000,A,5229.6298,N,01319.4532,E,1.56,184.00,120912,,,A*63
$GPGGA,083345.000,5229.6294,N,01319.4529,E,1,04,3.3,79.7,M,44.8,M,,0000*65
$GPGSA,A,3,12,14,25,09,,,,,,,,,3.4,3.3,1.0*3C
$GPRMC,083345.000,A,5229.6294,N,01319.4529,E,1.24,186.88,120912,,,A*63
$GPGGA,083346.000,5229.6293,N,01319.4525,E,1,04,3.3,80.5,M,44.8,M,,0000*69
$GPGSA,A,3,12,14,25,09,,,,,,,,,3.4,3.3,1.0*3C
$GPRMC,083348.000,A,5229.6296,N,01319.4518,E,0.97,342.20,120912,,,A*6F
$GPGGA,083349.000,5229.6297,N,01319.4516,E,1,04,3.3,82.6,M,44.8,M,,0000*63
$GPGSA,A,3,12,14,25,09,,,,,,,,,3.4,3.3,1.0*3C
$GPRMC,083352.000,A,5229.6300,N,01319.4509,E,0.95,346.54,120912,,,A*6F
$GPGGA,083353.000,5229.6303,N,01319.4507,E,1,04,3.3,85.2,M,44.8,M,,0000*67
$GPGSA,A,3,12,14,25,09,,,,,,,,,3.4,3.3,1.0*3C
$GPRMC,083353.000,A,5229.6303,N,01319.4507,E,1.37,349.55,120912,,,A*64
$GPGGA,083354.000,5229.6306,N,01319.4505,E,1,04,3.3,85.8,M,44.8,M,,0000*6D
$GPGSA,A,3,12,14,25,09,,,,,,,,,3.4,3.3,1.0*3C
$GPRMC,083354.000,A,5229.6306,N,01319.4505,E,1.08,356.20,120912,,,A*64
$GPGGA,083355.000,5229.6307,N,01319.4503,E,1,04,3.3,86.3,M,44.8,M,,0000*63
$GPGSA,A,3,12,14,25,09,,,,,,,,,3.4,3.3,1.0*3C
$GPRMC,083411.000,A,5229.6310,N,01319.4473,E,1.21,173.28,120912,,,A*63
$GPGGA,083412.000,5229.6310,N,01319.4471,E,1,04,3.3,95.7,M,44.8,M,,0000*63
$GPGSA,A,3,12,14,25,09,,,,,,,,,3.4,3.3,1.0*3C
$GPGSV,3,1,12,12,85,015,30,25,48,269,25,14,40,279,31,09,39,142,21*78
$GPGSV,3,2,12,27,32,142,26,04,26,069,19,02,25,116,24,29,19,206,*79
$GPGSV,3,3,12,31,05,308,31,32,04,340,20,17,03,042,15,20,01,007,*77
$GPRMC,083422.000,A,5229.6304,N,01319.4448,E,1.13,174.07,120912,,,A*65
$GPGGA,083423.000,5229.6303,N,01319.4445,E,1,04,3.3,101.8,M,44.8,M,,0000*57
$GPGSA,A,3,12,14,25,09,,,,,,,,,3.4,3.3,1.0*3C
$GPRMC,083432.000,A,5229.6339,N,01319.4444,E,0.88,13.31,120912,,,A*50
$GPGGA,083433.000,5229.6348,N,01319.4445,E,1,04,3.2,104.8,M,44.8,M,,0000*5D
$GPGSA,A,3,12,14,25,09,,,,,,,,,3.4,3.2,1.0*3D
$GPRMC,083433.000,A,5229.6348,N,01319.4445,E,1.34,11.63,120912,,,A*55
$GPGGA,083434.000,5229.6358,N,01319.4447,E,1,04,3.2,104.8,M,44.8,M,,0000*59
$GPGSA,A,3,12,14,25,09,,,,,,,,,3.4,3.2,1.0*3D
$GPRMC,083434.000,A,5229.6358,N,01319.4447,E,1.31,13.90,120912,,,A*5A
$GPGGA,083435.000,5229.6367,N,01319.4449,E,1,04,3.2,104.8,M,44.8,M,,0000*5A
$GPGSA,A,3,12,14,25,09,,,,,,,,,3.4,3.2,1.0*3D
$GPRMC,083435.000,A,5229.6367,N,01319.4449,E,1.10,16.48,120912,,,A*5A
$GPGGA,083436.000,5229.6375,N,01319.4451,E,1,04,3.2,104.7,M,44.8,M,,0000*5C
$GPGSA,A,3,12,14,25,09,,,,,,,,,3.4,3.2,1.0*3D
$GPRMC,083436.000,A,5229.6375,N,01319.4451,E,0.88,22.02,120912,,,A*5A
$GPGGA,083437.000,5229.6383,N,01319.4453,E,1,04,3.2,104.6,M,44.8,M,,0000*57
$GPGSA,A,3,12,14,25,09,,,,,,,,,3.4,3.2,1.0*3D
$GPGSV,3,1,12,12,84,019,30,25,49,270,26,14,40,279,30,09,39,142,25*7A
$GPGSV,3,2,12,27,31,142,23,04,26,069,,02,25,115,22,29,19,206,*72
$GPGSV,3,3,12,31,05,309,30,32,04,340,19,17,03,042,16,20,01,007,*7E
$GPRMC,083458.000,A,5229.6464,N,01319.4411,E,1.15,331.02,120912,,,A*65
$GPGGA,083459.000,5229.6460,N,01319.4402,E,0,03,,110.6,M,44.8,M,,0000*7D
$GPGSA,A,1,12,14,25,,,,,,,,,,,,*1F
$GPRMC,083502.000,A,5229.6439,N,01319.4381,E,1.44,201.74,120912,,,A*6A
$GPGGA,083503.000,5229.6430,N,01319.4374,E,1,04,3.2,115.5,M,44.8,M,,0000*5F
$GPGSA,A,3,12,14,25,09,,,,,,,,,3.4,3.2,1.0*3D
$GPRMC,083503.000,A,5229.6430,N,01319.4374,E,1.23,204.91,120912,,,A*67
$GPGGA,083504.000,5229.6421,N,01319.4368,E,1,04,3.2,116.8,M,44.8,M,,0000*5B
$GPGSA,A,3,12,14,25,09,,,,,,,,,3.4,3.2,1.0*3D
$GPRMC,083504.000,A,5229.6421,N,01319.4368,E,0.98,201.24,120912,,,A*67
$GPGGA,083505.000,5229.6413,N,01319.4363,E,1,04,3.2,117.9,M,44.8,M,,0000*50
$GPGSA,A,3,12,14,25,09,,,,,,,,,3.4,3.2,1.0*3D
$GPRMC,083506.000,A,5229.6404,N,01319.4359,E,0.95,175.88,120912,,,A*6B
$GPGGA,083507.000,5229.6398,N,01319.4358,E,1,04,3.2,119.8,M,44.8,M,,0000*51
$GPGSA,A,3,12,14,25,09,,,,,,,,,3.4,3.2,1.0*3D
$GPGSV,3,1,12,12,84,019,28,25,49,270,21,14,40,279,29,09,39,142,24*7D
$GPGSV,3,2,12,27,31,142,28,04,26,069,,02,25,115,18,29,19,206,*70
$GPGSV,3,3,12,31,05,309,29,32,04,340,16,17,03,042,17,20,01,007,*78
$GPRMC,083511.000,A,5229.6370,N,01319.4346,E,0.97,211.45,120912,,,A*65
$GPGGA,083512.000,5229.6361,N,01319.4343,E,1,04,3.2,122.9,M,44.8,M,,0000*50
$GPGSA,A,3,12,14,25,09,,,,,,,,,3.4,3.2,1.0*3D
$GPGSV,3,1,12,12,84,019,28,25,49,270,21,14,40,279,29,09,39,142,25*7C
$GPGSV,3,2,12,27,31,142,29,04,26,069,,02,25,115,18,29,19,206,*71
$GPGSV,3,3,12,31,05,309,28,32,04,340,15,17,03,042,17,20,01,007,*7A
$GPRMC,083512.000,A,5229.6361,N,01319.4343,E,0.92,206.24,120912,,,A*67
$GPGGA,083513.000,5229.6354,N,01319.4342,E,1,04,3.2,123.2,M,44.8,M,,0000*5C
$GPGSA,A,3,12,14,25,09,,,,,,,,,3.4,3.2,1.0*3D
$GPRMC,083535.000,A,5229.6336,N,01319.4459,E,1.18,178.16,120912,,,A*64
$GPGGA,083536.000,5229.6338,N,01319.4464,E,1,04,3.2,103.6,M,44.8,M,,0000*54
$GPGSA,A,3,12,14,25,09,,,,,,,,,3.4,3.2,1.0*3D
$GPRMC,083540.000,A,5229.6362,N,01319.4490,E,0.86,23.63,120912,,,A*59
$GPGGA,083541.000,5229.6371,N,01319.4500,E,1,04,3.2,95.8,M,44.8,M,,0000*6A
$GPGSA,A,3,12,14,25,09,,,,,,,,,3.4,3.2,1.0*3D
$GPRMC,083541.000,A,5229.6371,N,01319.4500,E,1.17,35.20,120912,,,A*5B
$GPGGA,083542.000,5229.6380,N,01319.4510,E,1,04,3.2,94.0,M,44.8,M,,0000*6F
$GPGSA,A,3,12,14,25,09,,,,,,,,,3.3,3.2,1.0*3A
$GPGSV,3,1,12,12,84,019,27,25,49,270,24,14,40,279,29,09,39,142,25*76
$GPGSV,3,2,12,27,31,142,26,04,26,069,,02,25,115,13,29,19,206,*75
$GPGSV,3,3,12,31,05,309,28,32,04,340,16,17,03,042,14,20,01,007,*7A
$GPRMC,083542.000,A,5229.6380,N,01319.4510,E,1.19,34.43,120912,,,A*5D
$GPGGA,083543.000,5229.6389,N,01319.4521,E,1,04,3.2,92.2,M,44.8,M,,0000*61
$GPGSA,A,3,12,14,25,09,,,,,,,,,3.3,3.2,1.0*3A
$GPRMC,083543.000,A,5229.6389,N,01319.4521,E,1.31,35.23,120912,,,A*5A
$GPGGA,083544.000,5229.6401,N,01319.4534,E,1,04,3.2,90.2,M,44.8,M,,0000*67
$GPGSA,A,3,12,14,25,09,,,,,,,,,3.3,3.2,1.0*3A
$GPRMC,083544.000,A,5229.6401,N,01319.4534,E,1.96,33.47,120912,,,A*57
$GPGGA,083545.000,5229.6413,N,01319.4546,E,1,04,3.2,88.3,M,44.8,M,,0000*68
$GPGSA,A,3,12,14,25,09,,,,,,,,,3.3,3.2,1.0*3A
$GPRMC,083545.000,A,5229.6413,N,01319.4546,E,1.88,30.28,120912,,,A*55
$GPGGA,083546.000,5229.6427,N,01319.4561,E,1,04,3.2,86.2,M,44.8,M,,0000*66
$GPGSA,A,3,12,14,25,09,,,,,,,,,3.3,3.2,1.0*3A
$GPRMC,083546.000,A,5229.6427,N,01319.4561,E,2.16,32.36,120912,,,A*5D
$GPGGA,083547.000,5229.6441,N,01319.4577,E,1,04,3.2,84.0,M,44.8,M,,0000*60
$GPGSA,A,3,12,14,25,09,,,,,,,,,3.3,3.2,1.0*3A
$GPGSV,3,1,12,12,84,026,26,25,49,270,23,14,40,278,29,09,38,143,27*7F
$GPGSV,3,2,12,27,31,142,26,04,26,068,,02,26,115,14,29,20,206,*7A
$GPGSV,3,3,12,31,06,309,28,32,04,339,14,17,02,042,,20,01,006,*70
$GPRMC,083547.000,A,5229.6441,N,01319.4577,E,2.44,33.70,120912,,,A*5F
$GPGGA,083548.000,5229.6454,N,01319.4590,E,1,04,3.2,81.9,M,44.8,M,,0000*6E
$GPGSA,A,3,12,14,25,09,,,,,,,,,3.3,3.2,1.0*3A
$GPRMC,083548.000,A,5229.6454,N,01319.4590,E,1.80,29.81,120912,,,A*53
$GPGGA,083549.000,5229.6469,N,01319.4606,E,1,04,3.2,79.7,M,44.8,M,,0000*64
$GPGSA,A,3,12,14,25,09,,,,,,,,,3.3,3.2,1.0*3A
$GPRMC,083549.000,A,5229.6469,N,01319.4606,E,2.33,33.54,120912,,,A*58
$GPGGA,083550.000,5229.6484,N,01319.4623,E,1,04,3.2,77.5,M,44.8,M,,0000*64
$GPGSA,A,3,12,14,25,09,,,,,,,,,3.3,3.2,1.0*3A
$GPRMC,083550.000,A,5229.6484,N,01319.4623,E,2.39,34.68,120912,,,A*56
$GPGGA,083551.000,5229.6498,N,01319.4639,E,1,04,3.2,75.3,M,44.8,M,,0000*67
$GPGSA,A,3,12,14,25,09,,,,,,,,,3.3,3.2,1.0*3A
$GPRMC,083551.000,A,5229.6498,N,01319.4639,E,2.32,34.35,120912,,,A*52
$GPGGA,083552.000,5229.6513,N,01319.4654,E,1,04,3.2,73.1,M,44.8,M,,0000*69
$GPGSA,A,3,12,14,25,09,,,,,,,,,3.3,3.2,1.0*3A
$GPGSV,3,1,12,12,84,026,26,25,49,270,23,14,40,278,29,09,38,143,29*71
$GPGSV,3,2,12,27,31,142,27,04,26,068,,02,26,115,15,29,20,206,*7A
$GPGSV,3,3,12,31,06,309,28,32,04,339,13,17,02,042,,20,01,006,*77
$GPRMC,083552.000,A,5229.6513,N,01319.4654,E,1.94,30.52,120912,,,A*52
$GPGGA,083553.000,5229.6526,N,01319.4668,E,1,04,3.2,70.8,M,44.8,M,,0000*6B
$GPGSA,A,3,12,14,25,09,,,,,,,,,3.3,3.2,1.0*3A
$GPRMC,083553.000,A,5229.6526,N,01319.4668,E,1.77,29.58,120912,,,A*55
$GPGGA,083554.000,5229.6539,N,01319.4682,E,1,04,3.2,68.7,M,44.8,M,,0000*60
$GPGSA,A,3,12,14,25,09,,,,,,,,,3.3,3.2,1.0*3A
$GPRMC,083554.000,A,5229.6539,N,01319.4682,E,1.62,33.31,120912,,,A*58
$GPGGA,083555.000,5229.6552,N,01319.4696,E,1,04,3.2,66.5,M,44.8,M,,0000*65
$GPGSA,A,3,12,14,25,09,,,,,,,,,3.3,3.2,1.0*3A
$GPRMC,083555.000,A,5229.6552,N,01319.4696,E,1.70,33.75,120912,,,A*52
$GPGGA,083556.000,5229.6565,N,01319.4709,E,1,04,3.2,64.4,M,44.8,M,,0000*66
$GPGSA,A,3,12,14,25,09,,,,,,,,,3.3,3.2,1.0*3A
$GPRMC,083556.000,A,5229.6565,N,01319.4709,E,1.51,28.98,120912,,,A*58
$GPGGA,083557.000,5229.6576,N,01319.4721,E,1,04,3.2,62.6,M,44.8,M,,0000*6B
$GPGSA,A,3,12,14,25,09,,,,,,,,,3.3,3.2,1.0*3A
$GPGSV,3,1,12,12,84,026,25,25,49,270,23,14,40,278,28,09,38,143,29*73
$GPGSV,3,2,12,27,31,142,27,04,26,068,,02,26,115,16,29,20,206,*79
$GPGSV,3,3,12,31,06,309,28,32,04,339,12,17,02,042,,20,01,006,*76
$GPRMC,083557.000,A,5229.6576,N,01319.4721,E,1.36,29.77,120912,,,A*50
$GPGGA,083558.000,5229.6588,N,01319.4734,E,1,04,3.2,60.8,M,44.8,M,,0000*6D
$GPGSA,A,3,12,14,25,09,,,,,,,,,3.3,3.2,1.0*3A
$GPRMC,083558.000,A,5229.6588,N,01319.4734,E,1.54,35.19,120912,,,A*5B
$GPGGA,083559.000,5229.6597,N,01319.4743,E,1,04,3.2,59.1,M,44.8,M,,0000*61
$GPGSA,A,3,12,14,25,09,,,,,,,,,3.3,3.2,1.0*3A
$GPRMC,083559.000,A,5229.6597,N,01319.4743,E,0.88,26.20,120912,,,A*5C
$GPGGA,083600.000,5229.6605,N,01319.4751,E,1,04,3.2,57.6,M,44.8,M,,0000*6C
$GPGSA,A,3,12,14,25,09,,,,,,,,,3.3,3.2,1.0*3A
$GPRMC,083603.000,A,5229.6619,N,01319.4761,E,0.85,233.31,120912,,,A*6E
$GPGGA,083604.000,5229.6619,N,01319.4760,E,1,04,3.2,52.9,M,44.8,M,,0000*6D
$GPGSA,A,3,12,14,25,09,,,,,,,,,3.3,3.2,1.0*3A
$GPRMC,083604.000,A,5229.6619,N,01319.4760,E,1.15,228.67,120912,,,A*69
$GPGGA,083605.000,5229.6619,N,01319.4759,E,1,03,3.5,52.1,M,44.8,M,,0000*6E
$GPGSA,A,2,12,14,09,,,,,,,,,,3.6,3.5,1.0*3E
$GPRMC,083605.000,A,5229.6619,N,01319.4759,E,1.26,223.72,120912,,,A*6D
$GPGGA,083606.000,5229.6618,N,01319.4756,E,1,03,3.5,51.4,M,44.8,M,,0000*65
$GPGSA,A,2,12,14,09,,,,,,,,,,3.6,3.5,1.0*3E
$GPRMC,083606.000,A,5229.6618,N,01319.4756,E,1.27,226.25,120912,,,A*66
$GPGGA,083607.000,5229.6618,N,01319.4753,E,1,03,3.5,50.7,M,44.8,M,,0000*63
$GPGSA,A,2,12,14,09,,,,,,,,,,3.6,3.5,1.0*3E
$GPGSV,3,1,12,12,84,026,26,25,49,270,14,14,40,278,28,09,38,143,23*7E
$GPGSV,3,2,12,27,31,142,28,04,26,068,,02,26,115,19,29,20,206,*79
$GPGSV,3,3,12,31,06,309,29,32,04,339,,17,02,042,,20,01,006,*74
$GPRMC,083607.000,A,5229.6618,N,01319.4753,E,1.07,254.63,120912,,,A*67
$GPGGA,083608.000,5229.6618,N,01319.4749,E,1,04,3.2,50.3,M,44.8,M,,0000*63
$GPGSA,A,3,12,14,25,09,,,,,,,,,3.3,3.2,1.0*3A
$GPRMC,083608.000,A,5229.6618,N,01319.4749,E,1.03,264.57,120912,,,A*63
$GPGGA,083609.000,5229.6616,N,01319.4747,E,1,03,3.5,49.9,M,44.8,M,,0000*60
$GPGSA,A,2,12,14,09,,,,,,,,,,3.6,3.5,1.0*3E
$GPRMC,083609.000,A,5229.6616,N,01319.4747,E,1.05,223.04,120912,,,A*61
$GPGGA,083610.000,5229.6613,N,01319.4744,E,1,03,3.5,49.6,M,44.8,M,,0000*61
$GPGSA,A,2,12,14,09,,,,,,,,,,3.6,3.5,1.0*3E
$GPRMC,083610.000,A,5229.6613,N,01319.4744,E,1.19,219.49,120912,,,A*62
$GPGGA,083611.000,5229.6612,N,01319.4740,E,1,03,3.5,49.3,M,44.8,M,,0000*60
$GPGSA,A,2,12,14,09,,,,,,,,,,3.6,3.5,1.0*3E
$GPRMC,083611.000,A,5229.6612,N,01319.4740,E,1.04,243.46,120912,,,A*6A
$GPGGA,083612.000,5229.6612,N,01319.4736,E,1,03,3.5,49.1,M,44.8,M,,0000*60
$GPGSA,A,2,12,14,09,,,,,,,,,,3.6,3.5,1.0*3E
$GPGSV,3,1,12,12,84,026,25,25,49,270,14,14,40,278,28,09,38,143,21*7F
$GPGSV,3,2,12,27,31,142,28,04,26,068,,02,26,115,20,29,20,206,*73
$GPGSV,3,3,12,31,06,309,29,32,04,339,,17,02,042,,20,01,006,*74
$GPRMC,083612.000,A,5229.6612,N,01319.4736,E,1.06,281.26,120912,,,A*62
$GPGGA,083613.000,5229.6615,N,01319.4732,E,1,03,3.5,48.8,M,44.8,M,,0000*6A
$GPGSA,A,2,12,14,09,,,,,,,,,,3.6,3.5,1.0*3E
$GPRMC,083613.000,A,5229.6615,N,01319.4732,E,1.49,327.20,120912,,,A*60
$GPGGA,083614.000,5229.6617,N,01319.4727,E,1,04,3.2,48.9,M,44.8,M,,0000*6A
$GPGSA,A,3,12,14,25,09,,,,,,,,,3.3,3.2,1.0*3A
$GPRMC,083614.000,A,5229.6617,N,01319.4727,E,1.87,338.15,120912,,,A*6B
$GPGGA,083615.000,5229.6619,N,01319.4724,E,1,04,3.2,48.9,M,44.8,M,,0000*66
$GPGSA,A,3,12,14,25,09,,,,,,,,,3.3,3.2,1.0*3A
$GPRMC,083615.000,A,5229.6619,N,01319.4724,E,1.73,350.67,120912,,,A*67
$GPGGA,083616.000,5229.6620,N,01319.4723,E,1,04,3.2,49.0,M,44.8,M,,0000*60
$GPGSA,A,3,12,14,25,09,,,,,,,,,3.3,3.2,1.0*3A
$GPRMC,083616.000,A,5229.6620,N,01319.4723,E,1.48,9.86,120912,,,A*61
$GPGGA,083617.000,5229.6615,N,01319.4719,E,1,04,3.2,49.2,M,44.8,M,,0000*6C
$GPGSA,A,3,12,14,25,09,,,,,,,,,3.3,3.2,1.0*3A
$GPGSV,3,1,12,12,84,028,25,25,49,270,17,14,40,278,28,09,38,143,20*73
$GPGSV,3,2,12,27,31,143,28,04,26,068,,02,26,115,21,29,20,206,*73
$GPGSV,3,3,12,31,06,309,28,32,04,339,,17,02,042,,20,01,006,*75
$GPRMC,083620.000,A,5229.6606,N,01319.4713,E,1.02,12.69,120912,,,A*56
$GPGGA,083621.000,5229.6609,N,01319.4718,E,1,04,3.2,49.2,M,44.8,M,,0000*65
$GPGSA,A,3,12,14,25,09,,,,,,,,,3.3,3.2,1.0*3A
$GPRMC,083621.000,A,5229.6609,N,01319.4718,E,1.88,34.12,120912,,,A*59
$GPGGA,083622.000,5229.6612,N,01319.4723,E,1,04,3.2,48.8,M,44.8,M,,0000*6F
$GPGSA,A,3,12,14,25,09,,,,,,,,,3.3,3.2,1.0*3A
$GPGSV,3,1,12,12,84,028,24,25,49,270,19,14,40,278,29,09,38,143,24*79
$GPGSV,3,2,12,27,31,143,28,04,26,068,,02,26,115,20,29,20,206,*72
$GPGSV,3,3,12,31,06,309,28,32,04,339,,17,02,042,,20,01,006,*75
$GPRMC,083622.000,A,5229.6612,N,01319.4723,E,1.89,34.25,120912,,,A*5D
$GPGGA,083623.000,5229.6611,N,01319.4729,E,1,04,3.2,48.2,M,44.8,M,,0000*6D
$GPGSA,A,3,12,14,25,09,,,,,,,,,3.3,3.2,1.0*3A
$GPRMC,083623.000,A,5229.6611,N,01319.4729,E,1.19,42.93,120912,,,A*50
$GPGGA,083624.000,5229.6608,N,01319.4734,E,1,04,3.2,47.7,M,44.8,M,,0000*64
$GPGSA,A,3,12,14,25,09,,,,,,,,,3.3,3.2,1.0*3A
$GPRMC,083624.000,A,5229.6608,N,01319.4734,E,0.92,42.96,120912,,,A*54
$GPGGA,083625.000,5229.6604,N,01319.4738,E,1,04,3.2,47.1,M,44.8,M,,0000*63
$GPGSA,A,3,12,14,25,09,,,,,,,,,3.3,3.2,1.0*3A
$GPRMC,083630.000,A,5229.6576,N,01319.4759,E,0.81,200.65,120912,,,A*6A
$GPGGA,083631.000,5229.6569,N,01319.4762,E,1,05,3.0,40.4,M,44.8,M,,0000*60
$GPGSA,A,3,12,14,25,09,27,,,,,,,,3.1,3.0,1.0*3F
$GPRMC,083645.000,A,5229.6552,N,01319.4794,E,1.48,30.86,120912,,,A*57
$GPGGA,083646.000,5229.6555,N,01319.4797,E,1,04,3.2,20.7,M,44.8,M,,0000*63
$GPGSA,A,3,12,14,25,09,,,,,,,,,3.3,3.2,1.0*3A
$GPRMC,083648.000,A,5229.6564,N,01319.4806,E,0.89,43.57,120912,,,A*5F
$GPGGA,083649.000,5229.6568,N,01319.4808,E,1,04,3.2,17.7,M,44.8,M,,0000*6F
$GPGSA,A,3,12,14,25,09,,,,,,,,,3.3,3.2,1.0*3A
$GPRMC,083650.000,A,5229.6575,N,01319.4810,E,1.27,352.07,120912,,,A*62
$GPGGA,083651.000,5229.6584,N,01319.4814,E,1,04,3.1,16.0,M,44.8,M,,0000*6C
$GPGSA,A,3,12,14,25,09,,,,,,,,,3.3,3.1,1.0*39
$GPRMC,083651.000,A,5229.6584,N,01319.4814,E,1.78,1.32,120912,,,A*60
$GPGGA,083652.000,5229.6593,N,01319.4815,E,1,04,3.1,15.3,M,44.8,M,,0000*68
$GPGSA,A,3,12,14,25,09,,,,,,,,,3.3,3.1,1.0*39
$GPGSV,3,1,12,12,84,028,25,25,50,270,22,14,40,277,28,09,38,143,22*70
$GPGSV,3,2,12,27,30,143,18,04,26,068,,02,26,115,20,29,20,206,*70
$GPGSV,3,3,12,31,06,309,29,32,04,339,,17,02,042,,20,01,006,*74
$GPRMC,083652.000,A,5229.6593,N,01319.4815,E,2.24,349.81,120912,,,A*69
$GPGGA,083653.000,5229.6601,N,01319.4817,E,1,04,3.1,14.6,M,44.8,M,,0000*67
$GPGSA,A,3,12,14,25,09,,,,,,,,,3.3,3.1,1.0*39
$GPRMC,083653.000,A,5229.6601,N,01319.4817,E,1.62,3.16,120912,,,A*60
$GPGGA,083654.000,5229.6608,N,01319.4819,E,1,04,3.1,14.0,M,44.8,M,,0000*61
$GPGSA,A,3,12,14,25,09,,,,,,,,,3.3,3.1,1.0*39
$GPRMC,083654.000,A,5229.6608,N,01319.4819,E,1.26,358.86,120912,,,A*64
$GPGGA,083655.000,5229.6612,N,01319.4819,E,1,04,3.1,13.6,M,44.8,M,,0000*6A
$GPGSA,A,3,12,14,25,09,,,,,,,,,3.3,3.1,1.0*39
$GPRMC,083659.000,A,5229.6626,N,01319.4837,E,1.27,32.93,120912,,,A*53
$GPGGA,083700.000,5229.6631,N,01319.4844,E,1,05,3.0,10.5,M,44.8,M,,0000*62
$GPGSA,A,3,12,14,25,09,27,,,,,,,,3.1,3.0,1.0*3F
$GPRMC,083700.000,A,5229.6631,N,01319.4844,E,1.20,44.46,120912,,,A*52
$GPGGA,083701.000,5229.6638,N,01319.4850,E,1,05,3.0,10.0,M,44.8,M,,0000*6A
$GPGSA,A,3,12,14,25,09,27,,,,,,,,3.1,3.0,1.0*3F
$GPRMC,083701.000,A,5229.6638,N,01319.4850,E,1.14,28.08,120912,,,A*58
$GPGGA,083702.000,5229.6644,N,01319.4857,E,1,05,3.0,9.4,M,44.8,M,,0000*59
$GPGSA,A,3,12,14,25,09,27,,,,,,,,3.1,3.0,1.0*3F
$GPGSV,3,1,12,12,84,028,24,25,50,270,22,14,40,277,27,09,38,143,20*7C
$GPGSV,3,2,12,27,30,143,20,04,26,068,17,02,26,115,18,29,20,206,*76
$GPGSV,3,3,12,31,06,309,29,32,04,339,,17,02,042,,20,01,006,*74
$GPRMC,083702.000,A,5229.6644,N,01319.4857,E,1.08,25.75,120912,,,A*5D
$GPGGA,083703.000,5229.6653,N,01319.4864,E,1,05,3.0,8.6,M,44.8,M,,0000*5D
$GPGSA,A,3,12,14,25,09,27,,,,,,,,3.1,3.0,1.0*3F
$GPRMC,083703.000,A,5229.6653,N,01319.4864,E,1.37,12.89,120912,,,A*51
$GPGGA,083704.000,5229.6662,N,01319.4871,E,1,05,3.0,7.9,M,44.8,M,,0000*5C
$GPGSA,A,3,12,14,25,09,27,,,,,,,,3.1,3.0,1.0*3F
$GPRMC,083704.000,A,5229.6662,N,01319.4871,E,1.41,15.13,120912,,,A*55
$GPGGA,083705.000,5229.6668,N,01319.4878,E,1,05,3.0,7.1,M,44.8,M,,0000*56
$GPGSA,A,3,12,14,25,09,27,,,,,,,,3.1,3.0,1.0*3F
$GPRMC,083723.000,A,5229.6732,N,01319.4905,E,0.88,34.10,120912,,,A*52
$GPGGA,083724.000,5229.6735,N,01319.4907,E,1,05,3.0,-8.0,M,44.8,M,,0000*76
$GPGSA,A,3,12,14,25,09,27,,,,,,,,3.1,3.0,1.0*3F
$GPRMC,083746.000,A,5229.6815,N,01319.4918,E,0.95,340.01,120912,,,A*6B
$GPGGA,083747.000,5229.6821,N,01319.4915,E,1,03,3.3,-27.2,M,44.8,M,,0000*40
$GPGSA,A,2,12,14,09,,,,,,,,,,3.5,3.3,1.0*3B
$GPGSV,3,1,12,12,83,033,26,25,50,271,,14,39,277,29,09,37,143,21*7C
$GPGSV,3,2,12,27,30,143,15,02,26,114,,04,26,067,13,29,21,207,*73
$GPGSV,3,3,12,31,07,309,25,32,04,339,17,17,02,042,,20,01,006,*7F
$GPRMC,083747.000,A,5229.6821,N,01319.4915,E,1.83,346.28,120912,,,A*6B
$GPGGA,083748.000,5229.6828,N,01319.4912,E,1,03,3.3,-27.3,M,44.8,M,,0000*40
$GPGSA,A,2,12,14,09,,,,,,,,,,3.5,3.3,1.0*3B
$GPRMC,083748.000,A,5229.6828,N,01319.4912,E,2.27,351.98,120912,,,A*6A
$GPGGA,083749.000,5229.6834,N,01319.4910,E,1,03,3.3,-27.5,M,44.8,M,,0000*48
$GPGSA,A,2,12,14,09,,,,,,,,,,3.5,3.3,1.0*3B
$GPRMC,083749.000,A,5229.6834,N,01319.4910,E,1.85,357.13,120912,,,A*6A
$GPGGA,083750.000,5229.6838,N,01319.4909,E,1,03,3.3,-27.6,M,44.8,M,,0000*47
$GPGSA,A,2,12,14,09,,,,,,,,,,3.5,3.3,1.0*3B
$GPRMC,083750.000,A,5229.6838,N,01319.4909,E,1.25,2.13,120912,,,A*6F
$GPGGA,083751.000,5229.6840,N,01319.4907,E,1,03,3.3,-27.6,M,44.8,M,,0000*47
$GPGSA,A,2,12,14,09,,,,,,,,,,3.5,3.3,1.0*3B
$GPRMC,083756.000,A,5229.6850,N,01319.4900,E,0.86,16.77,120912,,,A*51
$GPGGA,083757.000,5229.6856,N,01319.4902,E,1,04,3.1,-28.4,M,44.8,M,,0000*4B
$GPGSA,A,3,12,14,25,09,,,,,,,,,3.3,3.1,1.0*39
$GPGSV,3,1,12,12,83,033,26,25,50,271,19,14,39,277,29,09,37,143,21*74
$GPGSV,3,2,12,27,30,143,15,02,26,114,,04,26,067,17,29,21,207,*77
$GPGSV,3,3,12,31,07,309,25,32,04,339,16,17,02,042,,20,01,006,*7E
$GPRMC,083757.000,A,5229.6856,N,01319.4902,E,1.14,20.95,120912,,,A*57
$GPGGA,083758.000,5229.6863,N,01319.4904,E,1,04,3.1,-29.1,M,44.8,M,,0000*40
$GPGSA,A,3,12,14,25,09,,,,,,,,,3.3,3.1,1.0*39
$GPRMC,083758.000,A,5229.6863,N,01319.4904,E,1.28,17.95,120912,,,A*53
$GPGGA,083759.000,5229.6870,N,01319.4907,E,1,04,3.1,-29.8,M,44.8,M,,0000*49
$GPGSA,A,3,12,14,25,09,,,,,,,,,3.3,3.1,1.0*39
$GPRMC,083759.000,A,5229.6870,N,01319.4907,E,1.24,16.00,120912,,,A*52
$GPGGA,083800.000,5229.6880,N,01319.4911,E,1,04,3.1,-30.9,M,44.8,M,,0000*4B
$GPGSA,A,3,12,14,25,09,,,,,,,,,3.3,3.1,1.0*39
$GPRMC,083800.000,A,5229.6880,N,01319.4911,E,1.29,17.90,120912,,,A*5C
$GPGGA,083801.000,5229.6892,N,01319.4914,E,1,04,3.1,-32.0,M,44.8,M,,0000*47
$GPGSA,A,3,12,14,25,09,,,,,,,,,3.3,3.1,1.0*39
$GPRMC,083801.000,A,5229.6892,N,01319.4914,E,1.48,10.54,120912,,,A*53
$GPGGA,083802.000,5229.6905,N,01319.4917,E,1,04,3.1,-33.3,M,44.8,M,,0000*4A
$GPGSA,A,3,12,14,25,09,,,,,,,,,3.3,3.1,1.0*39
$GPGSV,3,1,12,12,83,033,26,25,50,271,20,14,39,277,30,09,37,143,26*71
$GPGSV,3,2,12,27,30,143,15,02,26,114,,04,26,067,18,29,21,207,*78
$GPGSV,3,3,12,31,07,309,25,32,04,339,16,17,02,042,,20,01,006,*7E
$GPRMC,083802.000,A,5229.6905,N,01319.4917,E,1.55,2.97,120912,,,A*6C
$GPGGA,083803.000,5229.6919,N,01319.4919,E,1,04,3.1,-34.4,M,44.8,M,,0000*48
$GPGSA,A,3,12,14,25,09,,,,,,,,,3.3,3.1,1.0*39
$GPRMC,083803.000,A,5229.6919,N,01319.4919,E,1.61,5.16,120912,,,A*67
$GPGGA,083804.000,5229.6932,N,01319.4921,E,1,04,3.1,-35.6,M,44.8,M,,0000*4E
$GPGSA,A,3,12,14,25,09,,,,,,,,,3.3,3.1,1.0*39
$GPRMC,083804.000,A,5229.6932,N,01319.4921,E,1.63,4.17,120912,,,A*60
$GPGGA,083805.000,5229.6942,N,01319.4922,E,1,04,3.1,-36.6,M,44.8,M,,0000*48
$GPGSA,A,3,12,14,25,09,,,,,,,,,3.3,3.1,1.0*39
$GPRMC,083805.000,A,5229.6942,N,01319.4922,E,1.28,357.04,120912,,,A*6D
$GPGGA,083806.000,5229.6948,N,01319.4921,E,1,04,3.1,-37.3,M,44.8,M,,0000*46
$GPGSA,A,3,12,14,25,09,,,,,,,,,3.3,3.1,1.0*39
$GPRMC,083810.000,A,5229.6959,N,01319.4916,E,0.85,192.40,120912,,,A*69
$GPGGA,083811.000,5229.6959,N,01319.4915,E,1,05,2.9,-40.7,M,44.8,M,,0000*4B
$GPGSA,A,3,12,14,25,09,27,,,,,,,,3.1,2.9,1.0*37
$GPRMC,083811.000,A,5229.6959,N,01319.4915,E,0.99,195.27,120912,,,A*60
$GPGGA,083812.000,5229.6961,N,01319.4914,E,1,04,3.1,-41.6,M,44.8,M,,0000*4A
$GPGSA,A,3,12,14,25,09,,,,,,,,,3.2,3.1,1.0*38
$GPGSV,3,1,12,12,83,033,27,25,50,271,21,14,39,277,30,09,37,143,28*7F
$GPGSV,3,2,12,27,30,143,17,02,26,114,,04,26,067,16,29,21,207,*74
$GPGSV,3,3,12,31,07,309,26,32,04,339,16,17,02,042,,20,01,006,*7D
$GPRMC,083815.000,A,5229.6976,N,01319.4922,E,0.94,21.73,120912,,,A*5F
$GPGGA,083816.000,5229.6981,N,01319.4924,E,1,05,2.9,-46.0,M,44.8,M,,0000*4A
$GPGSA,A,3,12,14,25,09,27,,,,,,,,3.1,2.9,1.0*37
$GPRMC,083831.000,A,5229.7011,N,01319.4962,E,1.11,16.81,120912,,,A*51
$GPGGA,083832.000,5229.7016,N,01319.4965,E,1,04,3.1,-58.6,M,44.8,M,,0000*4E
$GPGSA,A,3,12,14,25,09,,,,,,,,,3.2,3.1,1.0*38
$GPGSV,3,1,12,12,83,033,26,25,50,271,21,14,39,277,31,09,37,143,21*76
$GPGSV,3,2,12,27,30,143,14,02,26,114,,04,26,067,20,29,21,207,*72
$GPGSV,3,3,12,31,07,309,26,32,04,339,16,17,02,042,,20,01,006,*7D
$GPRMC,083832.000,A,5229.7016,N,01319.4965,E,1.19,16.83,120912,,,A*58
$GPGGA,083833.000,5229.7020,N,01319.4967,E,1,04,3.1,-58.5,M,44.8,M,,0000*4B
$GPGSA,A,3,12,14,25,09,,,,,,,,,3.2,3.1,1.0*38
$GPRMC,083833.000,A,5229.7020,N,01319.4967,E,1.05,2.09,120912,,,A*64
$GPGGA,083834.000,5229.7023,N,01319.4970,E,1,04,3.1,-58.3,M,44.8,M,,0000*4F
$GPGSA,A,3,12,14,25,09,,,,,,,,,3.2,3.1,1.0*38
$GPRMC,083836.000,A,5229.7030,N,01319.4978,E,1.58,26.64,120912,,,A*5B
$GPGGA,083837.000,5229.7036,N,01319.4983,E,1,04,3.1,-57.5,M,44.8,M,,0000*4D
$GPGSA,A,3,12,14,25,09,,,,,,,,,3.2,3.1,1.0*38
$GPGSV,3,1,12,12,83,033,25,25,50,271,22,14,39,277,32,09,37,143,21*75
$GPGSV,3,2,12,27,30,143,,02,26,114,,04,26,067,20,29,21,207,*77
$GPGSV,3,3,12,31,07,309,26,32,04,339,15,17,02,042,,20,01,006,*7E
$GPRMC,083837.000,A,5229.7036,N,01319.4983,E,1.28,29.34,120912,,,A*55
$GPGGA,083838.000,5229.7041,N,01319.4986,E,1,04,3.1,-57.4,M,44.8,M,,0000*46
$GPGSA,A,3,12,14,25,09,,,,,,,,,3.2,3.1,1.0*38
$GPRMC,083838.000,A,5229.7041,N,01319.4986,E,1.20,7.11,120912,,,A*6C
$GPGGA,083839.000,5229.7047,N,01319.4987,E,1,04,3.1,-57.2,M,44.8,M,,0000*46
$GPGSA,A,3,12,14,25,09,,,,,,,,,3.2,3.1,1.0*38
$GPRMC,083839.000,A,5229.7047,N,01319.4987,E,1.44,350.83,120912,,,A*62
$GPGGA,083840.000,5229.7051,N,01319.4989,E,1,04,3.1,-57.1,M,44.8,M,,0000*42
$GPGSA,A,3,12,14,25,09,,,,,,,,,3.2,3.1,1.0*38
$GPRMC,083841.000,A,5229.7058,N,01319.4992,E,1.31,5.88,120912,,,A*6D
$GPGGA,083842.000,5229.7063,N,01319.4996,E,1,04,3.1,-56.9,M,44.8,M,,0000*46
$GPGSA,A,3,12,14,25,09,,,,,,,,,3.2,3.1,1.0*38
$GPGSV,3,1,12,12,83,033,25,25,50,271,22,14,39,277,32,09,37,143,22*76
$GPGSV,3,2,12,27,30,143,,02,26,114,,04,26,067,20,29,21,207,*77
$GPGSV,3,3,12,31,07,309,25,32,04,339,15,17,02,042,,20,01,006,*7D
$GPRMC,083847.000,A,5229.7073,N,01319.5000,E,0.82,220.19,120912,,,A*65
$GPGGA,083848.000,5229.7069,N,01319.4996,E,1,04,3.1,-53.7,M,44.8,M,,0000*4D
$GPGSA,A,3,12,14,25,09,,,,,,,,,3.2,3.1,1.0*38
$GPRMC,083848.000,A,5229.7069,N,01319.4996,E,1.33,214.31,120912,,,A*60
$GPGGA,083849.000,5229.7067,N,01319.4993,E,1,04,3.1,-52.9,M,44.8,M,,0000*48
$GPGSA,A,3,12,14,25,09,,,,,,,,,3.2,3.1,1.0*38
$GPRMC,083850.000,A,5229.7063,N,01319.4990,E,0.90,205.00,120912,,,A*6F
$GPGGA,083851.000,5229.7061,N,01319.4983,E,1,04,3.1,-50.9,M,44.8,M,,0000*44
$GPGSA,A,3,12,14,25,09,,,,,,,,,3.2,3.1,1.0*38
$GPRMC,083851.000,A,5229.7061,N,01319.4983,E,1.09,224.80,120912,,,A*64
$GPGGA,083852.000,5229.7059,N,01319.4976,E,1,04,3.1,-49.8,M,44.8,M,,0000*4F
$GPGSA,A,3,12,14,25,09,,,,,,,,,3.2,3.1,1.0*38
$GPGSV,3,1,12,12,83,033,25,25,50,271,22,14,39,277,32,09,37,143,30*75
$GPGSV,3,2,12,27,30,143,,02,26,114,,04,26,067,20,29,21,207,*77
$GPGSV,3,3,12,31,07,309,25,32,04,339,18,17,02,042,,20,01,006,*70
$GPRMC,083852.000,A,5229.7059,N,01319.4976,E,1.15,220.04,120912,,,A*63
$GPGGA,083853.000,5229.7056,N,01319.4968,E,1,04,3.1,-48.8,M,44.8,M,,0000*4F
$GPGSA,A,3,12,14,25,09,,,,,,,,,3.2,3.1,1.0*38
$GPRMC,083853.000,A,5229.7056,N,01319.4968,E,1.28,213.72,120912,,,A*6D
$GPGGA,083854.000,5229.7053,N,01319.4962,E,1,04,3.1,-47.8,M,44.8,M,,0000*48
$GPGSA,A,3,12,14,25,09,,,,,,,,,3.2,3.1,1.0*38
$GPRMC,083854.000,A,5229.7053,N,01319.4962,E,1.13,207.02,120912,,,A*6F
$GPGGA,083855.000,5229.7048,N,01319.4953,E,1,04,3.1,-46.7,M,44.8,M,,0000*4F
$GPGSA,A,3,12,14,25,09,,,,,,,,,3.2,3.1,1.0*38
$GPRMC,083855.000,A,5229.7048,N,01319.4953,E,1.44,214.00,120912,,,A*64
$GPGGA,083856.000,5229.7045,N,01319.4948,E,1,04,3.1,-45.5,M,44.8,M,,0000*4A
$GPGSA,A,3,12,14,25,09,,,,,,,,,3.2,3.1,1.0*38
$GPRMC,083859.000,A,5229.7036,N,01319.4937,E,1.00,209.94,120912,,,A*62
$GPGGA,083900.000,5229.7032,N,01319.4933,E,1,04,3.1,-40.7,M,44.8,M,,0000*43
$GPGSA,A,3,12,14,25,09,,,,,,,,,3.2,3.1,1.0*38
$GPRMC,083905.000,A,5229.7009,N,01319.4910,E,0.90,215.59,120912,,,A*67
$GPGGA,083906.000,5229.6999,N,01319.4900,E,1,04,3.1,-32.2,M,44.8,M,,0000*4C
$GPGSA,A,3,12,14,25,09,,,,,,,,,3.2,3.1,1.0*38
$GPRMC,083906.000,A,5229.6999,N,01319.4900,E,2.14,208.98,120912,,,A*6B
$GPGGA,083907.000,5229.6991,N,01319.4893,E,1,04,3.0,-30.3,M,44.8,M,,0000*4C
$GPGSA,A,3,12,14,25,09,,,,,,,,,3.2,3.0,1.0*39
$GPGSV,3,1,12,12,83,033,23,25,50,271,19,14,39,277,32,09,37,143,30*7B
$GPGSV,3,2,12,27,30,143,18,02,26,114,,04,26,067,21,29,21,207,*7F
$GPGSV,3,3,12,31,07,309,25,32,04,339,18,17,02,042,,20,01,006,*70
$GPRMC,083907.000,A,5229.6991,N,01319.4893,E,1.21,204.30,120912,,,A*62
$GPGGA,083908.000,5229.6988,N,01319.4890,E,1,04,3.0,-28.4,M,44.8,M,,0000*46
$GPGSA,A,3,12,14,25,09,,,,,,,,,3.2,3.0,1.0*39
$GPRMC,083909.000,A,5229.6987,N,01319.4889,E,0.82,17.42,120912,,,A*5D
$GPGGA,083910.000,5229.6982,N,01319.4886,E,1,04,3.0,-24.4,M,44.8,M,,0000*4E
$GPGSA,A,3,12,14,25,09,,,,,,,,,3.2,3.0,1.0*39
$GPRMC,083911.000,A,5229.6973,N,01319.4878,E,1.60,207.87,120912,,,A*66
$GPGGA,083912.000,5229.6966,N,01319.4873,E,1,04,3.0,-20.4,M,44.8,M,,0000*48
$GPGSA,A,3,12,14,25,09,,,,,,,,,3.2,3.0,1.0*39
$GPGSV,3,1,12,12,83,033,23,25,50,271,19,14,39,277,32,09,37,143,30*7B
$GPGSV,3,2,12,27,30,143,18,02,26,114,,04,26,067,21,29,21,207,*7F
$GPGSV,3,3,12,31,07,309,24,32,04,339,17,17,02,042,,20,01,006,*7E
$GPRMC,083912.000,A,5229.6966,N,01319.4873,E,0.95,205.33,120912,,,A*6C
$GPGGA,083913.000,5229.6959,N,01319.4866,E,1,04,3.0,-18.2,M,44.8,M,,0000*4C
$GPGSA,A,3,12,14,25,09,,,,,,,,,3.2,3.0,1.0*39
$GPRMC,083913.000,A,5229.6959,N,01319.4866,E,0.89,218.70,120912,,,A*63
$GPGGA,083914.000,5229.6950,N,01319.4857,E,1,04,3.0,-16.1,M,44.8,M,,0000*4D
$GPGSA,A,3,12,14,25,09,,,,,,,,,3.2,3.0,1.0*39
$GPRMC,083914.000,A,5229.6950,N,01319.4857,E,1.35,217.66,120912,,,A*61
$GPGGA,083915.000,5229.6941,N,01319.4848,E,1,04,3.0,-14.0,M,44.8,M,,0000*41
$GPGSA,A,3,12,14,25,09,,,,,,,,,3.2,3.0,1.0*39
$GPRMC,083915.000,A,5229.6941,N,01319.4848,E,1.36,220.71,120912,,,A*6F
$GPGGA,083916.000,5229.6933,N,01319.4840,E,1,04,3.0,-11.9,M,44.8,M,,0000*43
$GPGSA,A,3,12,14,25,09,,,,,,,,,3.2,3.0,1.0*39
$GPRMC,083917.000,A,5229.6923,N,01319.4829,E,1.24,228.31,120912,,,A*61
$GPGGA,083918.000,5229.6916,N,01319.4822,E,1,04,3.0,-7.8,M,44.8,M,,0000*78
$GPGSA,A,3,12,14,25,09,,,,,,,,,3.2,3.0,1.0*39
$GPRMC,083925.000,A,5229.6886,N,01319.4796,E,1.51,190.41,120912,,,A*60
$GPGGA,083926.000,5229.6879,N,01319.4793,E,1,05,2.9,5.2,M,44.8,M,,0000*54
$GPGSA,A,3,12,14,25,27,09,,,,,,,,3.0,2.9,1.0*36
$GPRMC,083926.000,A,5229.6879,N,01319.4793,E,1.64,183.39,120912,,,A*6D
$GPGGA,083927.000,5229.6875,N,01319.4790,E,1,05,2.9,6.5,M,44.8,M,,0000*5E
$GPGSA,A,3,12,14,25,27,09,,,,,,,,3.0,2.9,1.0*36
$GPGSV,3,1,12,12,83,033,22,25,50,271,23,14,39,277,32,09,37,143,22*70
$GPGSV,3,2,12,27,30,143,20,02,26,114,,04,26,067,18,29,21,207,*7E
$GPGSV,3,3,12,31,07,309,24,32,04,339,18,17,02,042,,20,01,006,*71
$GPRMC,083928.000,A,5229.6870,N,01319.4785,E,1.09,208.12,120912,,,A*6F
$GPGGA,083929.000,5229.6860,N,01319.4780,E,1,05,2.9,9.0,M,44.8,M,,0000*5F
$GPGSA,A,3,12,14,25,27,09,,,,,,,,3.0,2.9,1.0*36
$GPRMC,083929.000,A,5229.6860,N,01319.4780,E,2.19,193.31,120912,,,A*68
$GPGGA,083930.000,5229.6850,N,01319.4771,E,1,05,2.9,9.9,M,44.8,M,,0000*53
$GPGSA,A,3,12,14,25,27,09,,,,,,,,3.0,2.9,1.0*36
$GPRMC,083930.000,A,5229.6850,N,01319.4771,E,2.74,207.64,120912,,,A*68
$GPGGA,083931.000,5229.6841,N,01319.4766,E,1,05,2.9,10.8,M,44.8,M,,0000*6D
$GPGSA,A,3,12,14,25,27,09,,,,,,,,3.0,2.9,1.0*36
$GPRMC,083931.000,A,5229.6841,N,01319.4766,E,1.95,196.78,120912,,,A*65
$GPGGA,083932.000,5229.6835,N,01319.4762,E,1,05,2.9,11.7,M,44.8,M,,0000*67
$GPGSA,A,3,12,14,25,27,09,,,,,,,,3.0,2.9,1.0*36
$GPGSV,3,1,12,12,83,033,22,25,50,271,24,14,39,277,32,09,37,143,22*77
$GPGSV,3,2,12,27,30,143,21,02,26,114,,04,26,067,19,29,21,207,*7E
$GPGSV,3,3,12,31,07,309,24,32,04,339,19,17,02,042,,20,01,006,*70
$GPRMC,083932.000,A,5229.6835,N,01319.4762,E,1.27,195.41,120912,,,A*61
$GPGGA,083933.000,5229.6831,N,01319.4761,E,1,05,2.9,12.4,M,44.8,M,,0000*61
$GPGSA,A,3,12,14,25,27,09,,,,,,,,3.0,2.9,1.0*36
$GPRMC,083934.000,A,5229.6825,N,01319.4756,E,1.21,204.03,120912,,,A*6A
$GPGGA,083935.000,5229.6820,N,01319.4755,E,1,05,2.9,13.8,M,44.8,M,,0000*6D
$GPGSA,A,3,12,14,25,27,09,,,,,,,,3.0,2.9,1.0*36
$GPRMC,083940.000,A,5229.6808,N,01319.4749,E,1.17,205.15,120912,,,A*6B
$GPGGA,083941.000,5229.6804,N,01319.4747,E,1,05,2.9,15.4,M,44.8,M,,0000*61
$GPGSA,A,3,12,14,25,27,09,,,,,,,,3.0,2.9,1.0*36
$GPRMC,083943.000,A,5229.6794,N,01319.4742,E,1.04,193.89,120912,,,A*62
$GPGGA,083944.000,5229.6787,N,01319.4740,E,1,05,2.9,15.4,M,44.8,M,,0000*67
$GPGSA,A,3,12,14,25,27,09,,,,,,,,3.0,2.9,1.0*36
$GPRMC,083944.000,A,5229.6787,N,01319.4740,E,0.98,194.52,120912,,,A*60
$GPGGA,083945.000,5229.6779,N,01319.4737,E,1,05,2.8,15.2,M,44.8,M,,0000*60
$GPGSA,A,3,12,14,25,27,09,,,,,,,,3.0,2.8,1.0*37
$GPRMC,083945.000,A,5229.6779,N,01319.4737,E,1.02,201.34,120912,,,A*6D
$GPGGA,083946.000,5229.6772,N,01319.4737,E,1,05,2.8,15.0,M,44.8,M,,0000*6A
$GPGSA,A,3,12,14,25,27,09,,,,,,,,3.0,2.8,1.0*37
$GPRMC,083948.000,A,5229.6753,N,01319.4733,E,1.36,190.23,120912,,,A*66
$GPGGA,083949.000,5229.6740,N,01319.4728,E,1,05,2.8,14.5,M,44.8,M,,0000*6E
$GPGSA,A,3,12,14,25,27,09,,,,,,,,3.0,2.8,1.0*37
$GPRMC,083949.000,A,5229.6740,N,01319.4728,E,2.17,200.46,120912,,,A*66
$GPGGA,083950.000,5229.6728,N,01319.4722,E,1,05,2.8,14.3,M,44.8,M,,0000*64
$GPGSA,A,3,12,14,25,27,09,,,,,,,,3.0,2.8,1.0*37
$GPRMC,083950.000,A,5229.6728,N,01319.4722,E,2.04,207.49,120912,,,A*60
$GPGGA,083951.000,5229.6719,N,01319.4721,E,1,05,2.8,14.2,M,44.8,M,,0000*65
$GPGSA,A,3,12,14,25,27,09,,,,,,,,3.0,2.8,1.0*37
$GPRMC,083951.000,A,5229.6719,N,01319.4721,E,1.13,192.17,120912,,,A*61
$GPGGA,083952.000,5229.6713,N,01319.4721,E,1,04,3.0,14.1,M,44.8,M,,0000*67
$GPGSA,A,3,12,14,25,09,,,,,,,,,3.2,3.0,1.0*39
$GPGSV,3,1,12,12,83,040,23,25,51,271,25,14,39,276,32,09,36,143,26*76
$GPGSV,3,2,12,27,29,143,19,02,27,113,,04,26,066,21,29,22,207,*72
$GPGSV,3,3,12,31,07,309,24,32,04,338,15,20,01,005,,17,01,042,*7D
$GPRMC,083957.000,A,5229.6681,N,01319.4717,E,0.96,196.74,120912,,,A*6F
$GPGGA,083958.000,5229.6673,N,01319.4715,E,1,04,3.0,14.3,M,44.8,M,,0000*6F
$GPGSA,A,3,12,14,25,09,,,,,,,,,3.2,3.0,1.0*39
$GPRMC,084000.000,A,5229.6666,N,01319.4709,E,1.04,308.82,120912,,,A*63
$GPGGA,084001.000,5229.6665,N,01319.4706,E,1,04,3.0,14.6,M,44.8,M,,0000*6D
$GPGSA,A,3,12,14,25,09,,,,,,,,,3.2,3.0,1.0*39
$GPRMC,084001.000,A,5229.6665,N,01319.4706,E,0.87,307.74,120912,,,A*62
$GPGGA,084002.000,5229.6666,N,01319.4709,E,1,04,3.0,14.6,M,44.8,M,,0000*62
$GPGSA,A,3,12,14,25,09,,,,,,,,,3.2,3.0,1.0*39
$GPGSV,3,1,12,12,83,040,22,25,51,271,24,14,39,276,32,09,36,143,19*7A
$GPGSV,3,2,12,27,29,143,,02,27,113,,04,26,066,,29,22,207,*79
$GPGSV,3,3,12,31,07,309,24,32,04,338,,20,01,005,,17,01,042,*79
$GPRMC,084002.000,A,5229.6666,N,01319.4709,E,1.12,14.59,120912,,,A*5E
$GPGGA,084003.000,5229.6663,N,01319.4708,E,0,03,,14.9,M,44.8,M,,0000*43
$GPGSA,A,1,12,14,25,,,,,,,,,,,,*1F
$GPRMC,084021.000,A,5229.6559,N,01319.4615,E,1.08,35.17,120912,,,A*5E
$GPGGA,084022.000,5229.6559,N,01319.4617,E,1,04,3.0,29.8,M,44.8,M,,0000*61
$GPGSA,A,3,12,14,25,09,,,,,,,,,3.2,3.0,1.0*39
$GPGSV,3,1,12,12,83,041,24,25,51,271,23,14,39,275,32,09,36,143,26*75
$GPGSV,3,2,12,27,29,143,18,02,27,113,,04,26,066,20,29,22,207,*72
$GPGSV,3,3,12,31,08,309,25,32,04,338,,20,01,005,,17,01,042,*77
$GPRMC,084022.000,A,5229.6559,N,01319.4617,E,0.97,36.67,120912,,,A*5C
$GPGGA,084023.000,5229.6564,N,01319.4621,E,1,04,3.0,30.5,M,44.8,M,,0000*6E
$GPGSA,A,3,12,14,25,09,,,,,,,,,3.2,3.0,1.0*39
$GPRMC,084023.000,A,5229.6564,N,01319.4621,E,1.61,26.81,120912,,,A*57
$GPGGA,084024.000,5229.6572,N,01319.4624,E,1,04,3.0,31.1,M,44.8,M,,0000*6E
$GPGSA,A,3,12,14,25,09,,,,,,,,,3.2,3.0,1.0*39
$GPRMC,084024.000,A,5229.6572,N,01319.4624,E,1.90,15.97,120912,,,A*5B
$GPGGA,084025.000,5229.6579,N,01319.4625,E,1,05,2.8,31.7,M,44.8,M,,0000*6B
$GPGSA,A,3,12,14,25,27,09,,,,,,,,3.0,2.8,1.0*37
$GPRMC,084025.000,A,5229.6579,N,01319.4625,E,1.11,9.47,120912,,,A*69
$GPGGA,084026.000,5229.6587,N,01319.4626,E,1,05,2.8,32.1,M,44.8,M,,0000*6F
$GPGSA,A,3,12,14,25,27,09,,,,,,,,3.0,2.8,1.0*37
$GPRMC,084030.000,A,5229.6599,N,01319.4617,E,0.99,218.22,120912,,,A*62
$GPGGA,084031.000,5229.6601,N,01319.4616,E,1,05,2.8,33.8,M,44.8,M,,0000*6F
$GPGSA,A,3,12,14,25,27,09,,,,,,,,3.0,2.8,1.0*37
$GPRMC,084032.000,A,5229.6599,N,01319.4610,E,1.79,210.99,120912,,,A*60
$GPGGA,084033.000,5229.6599,N,01319.4607,E,1,05,2.8,34.0,M,44.8,M,,0000*60
$GPGSA,A,3,12,14,25,27,09,,,,,,,,3.0,2.8,1.0*37
$GPRMC,084033.000,A,5229.6599,N,01319.4607,E,0.94,205.64,120912,,,A*63
$GPGGA,084034.000,5229.6600,N,01319.4605,E,1,05,2.8,34.1,M,44.8,M,,0000*67
$GPGSA,A,3,12,14,25,27,09,,,,,,,,3.0,2.8,1.0*37
$GPRMC,084038.000,A,5229.6605,N,01319.4604,E,0.87,31.58,120912,,,A*55
$GPGGA,084039.000,5229.6608,N,01319.4607,E,1,05,2.8,33.6,M,44.8,M,,0000*60
$GPGSA,A,3,12,14,25,27,09,,,,,,,,3.0,2.8,1.0*37
$GPRMC,084040.000,A,5229.6613,N,01319.4611,E,1.12,30.63,120912,,,A*5D
$GPGGA,084041.000,5229.6620,N,01319.4617,E,1,05,2.8,32.8,M,44.8,M,,0000*6B
$GPGSA,A,3,12,14,25,27,09,,,,,,,,3.0,2.8,1.0*37
$GPRMC,084041.000,A,5229.6620,N,01319.4617,E,1.25,31.06,120912,,,A*5C
$GPGGA,084042.000,5229.6627,N,01319.4625,E,1,05,2.8,32.3,M,44.8,M,,0000*65
$GPGSA,A,3,12,14,25,27,09,,,,,,,,3.0,2.8,1.0*37
$GPGSV,3,1,12,12,83,041,22,25,51,271,25,14,39,275,31,09,36,143,28*78
$GPGSV,3,2,12,27,29,143,24,02,27,113,20,04,26,066,23,29,22,207,*7C
$GPGSV,3,3,12,31,08,309,25,32,04,338,,20,01,005,,17,01,042,*77
$GPRMC,084042.000,A,5229.6627,N,01319.4625,E,1.91,35.62,120912,,,A*50
$GPGGA,084043.000,5229.6636,N,01319.4634,E,1,05,2.8,31.8,M,44.8,M,,0000*6C
$GPGSA,A,3,12,14,25,27,09,,,,,,,,3.0,2.8,1.0*37
$GPRMC,084043.000,A,5229.6636,N,01319.4634,E,2.53,32.23,120912,,,A*5E
$GPGGA,084044.000,5229.6642,N,01319.4641,E,1,05,2.8,31.3,M,44.8,M,,0000*61
$GPGSA,A,3,12,14,25,27,09,,,,,,,,3.0,2.8,1.0*37
$GPRMC,084044.000,A,5229.6642,N,01319.4641,E,1.76,32.00,120912,,,A*5D
$GPGGA,084045.000,5229.6650,N,01319.4649,E,1,05,2.8,30.6,M,44.8,M,,0000*6F
$GPGSA,A,3,12,14,25,27,09,,,,,,,,3.0,2.8,1.0*37
$GPRMC,084045.000,A,5229.6650,N,01319.4649,E,1.96,32.85,120912,,,A*54
$GPGGA,084046.000,5229.6658,N,01319.4658,E,1,05,2.8,29.9,M,44.8,M,,0000*63
$GPGSA,A,3,12,14,25,27,09,,,,,,,,3.0,2.8,1.0*37
$GPRMC,084046.000,A,5229.6658,N,01319.4658,E,2.08,33.08,120912,,,A*5F
$GPGGA,084047.000,5229.6666,N,01319.4667,E,1,05,2.8,29.2,M,44.8,M,,0000*68
$GPGSA,A,3,12,14,25,27,09,,,,,,,,3.0,2.8,1.0*37
$GPGSV,3,1,12,12,83,041,22,25,51,271,25,14,39,275,30,09,36,143,28*79
$GPGSV,3,2,12,27,29,143,25,02,27,113,19,04,26,066,22,29,22,207,*76
$GPGSV,3,3,12,31,08,309,26,32,04,338,,20,01,005,,17,01,042,*74
$GPRMC,084047.000,A,5229.6666,N,01319.4667,E,1.97,33.09,120912,,,A*5B
$GPGGA,084048.000,5229.6671,N,01319.4674,E,1,05,2.8,28.3,M,44.8,M,,0000*63
$GPGSA,A,3,12,14,25,27,09,,,,,,,,3.0,2.8,1.0*37
$GPRMC,084048.000,A,5229.6671,N,01319.4674,E,1.28,34.87,120912,,,A*55
$GPGGA,084049.000,5229.6671,N,01319.4676,E,1,05,2.8,27.5,M,44.8,M,,0000*69
$GPGSA,A,3,12,14,25,27,09,,,,,,,,3.0,2.8,1.0*37
$GPRMC,084050.000,A,5229.6668,N,01319.4678,E,0.96,199.00,120912,,,A*65
$GPGGA,084051.000,5229.6663,N,01319.4677,E,1,05,2.8,25.4,M,44.8,M,,0000*61
$GPGSA,A,3,12,14,25,27,09,,,,,,,,3.0,2.8,1.0*37
$GPRMC,084051.000,A,5229.6663,N,01319.4677,E,1.75,202.65,120912,,,A*6E
$GPGGA,084052.000,5229.6656,N,01319.4676,E,1,05,2.8,24.3,M,44.8,M,,0000*63
$GPGSA,A,3,12,14,25,27,09,,,,,,,,3.0,2.8,1.0*37
$GPGSV,3,1,12,12,83,041,22,25,51,271,25,14,39,275,30,09,36,143,25*74
$GPGSV,3,2,12,27,29,143,26,02,27,113,20,04,26,066,21,29,22,207,*7C
$GPGSV,3,3,12,31,08,309,26,32,04,338,,20,01,005,,17,01,042,*74
$GPRMC,084052.000,A,5229.6656,N,01319.4676,E,2.05,205.20,120912,,,A*68
$GPGGA,084053.000,5229.6653,N,01319.4679,E,1,05,2.8,23.2,M,44.8,M,,0000*6E
$GPGSA,A,3,12,14,25,27,09,,,,,,,,3.0,2.8,1.0*37
$GPRMC,084053.000,A,5229.6653,N,01319.4679,E,0.87,184.31,120912,,,A*61
$GPGGA,084054.000,5229.6652,N,01319.4683,E,1,05,2.8,22.0,M,44.8,M,,0000*6E
$GPGSA,A,3,12,14,25,27,09,,,,,,,,3.0,2.8,1.0*37
$GPRMC,084056.000,A,5229.6647,N,01319.4686,E,1.83,215.66,120912,,,A*6D
$GPGGA,084057.000,5229.6640,N,01319.4682,E,1,05,2.8,19.0,M,44.8,M,,0000*67
$GPGSA,A,3,12,14,25,27,09,,,,,,,,3.0,2.8,1.0*37
$GPGSV,3,1,12,12,83,041,22,25,51,271,25,14,39,275,30,09,36,143,20*71
$GPGSV,3,2,12,27,29,143,27,02,27,113,21,04,26,066,22,29,22,207,*7F
$GPGSV,3,3,12,31,08,309,26,32,04,338,,20,01,005,,17,01,042,*74
$GPRMC,084057.000,A,5229.6640,N,01319.4682,E,2.55,216.62,120912,,,A*60
$GPGGA,084058.000,5229.6634,N,01319.4682,E,1,05,2.8,18.3,M,44.8,M,,0000*69
$GPGSA,A,3,12,14,25,27,09,,,,,,,,3.0,2.8,1.0*37
$GPRMC,084058.000,A,5229.6634,N,01319.4682,E,1.50,205.11,120912,,,A*6C
$GPGGA,084059.000,5229.6633,N,01319.4687,E,1,05,2.8,17.9,M,44.8,M,,0000*6F
$GPGSA,A,3,12,14,25,27,09,,,,,,,,3.0,2.8,1.0*37
$GPRMC,084102.000,A,5229.6628,N,01319.4697,E,2.06,210.53,120912,,,A*69
$GPGGA,084103.000,5229.6621,N,01319.4692,E,1,05,2.8,17.0,M,44.8,M,,0000*6F
$GPGSA,A,3,12,14,25,27,09,,,,,,,,3.0,2.8,1.0*37
$GPRMC,084103.000,A,5229.6621,N,01319.4692,E,2.61,216.88,120912,,,A*65
$GPGGA,084104.000,5229.6617,N,01319.4691,E,1,05,2.8,17.1,M,44.8,M,,0000*6F
$GPGSA,A,3,12,14,25,27,09,,,,,,,,3.0,2.8,1.0*37
$GPRMC,084104.000,A,5229.6617,N,01319.4691,E,1.42,223.73,120912,,,A*64
$GPGGA,084105.000,5229.6618,N,01319.4697,E,1,05,2.8,17.3,M,44.8,M,,0000*65
$GPGSA,A,3,12,14,25,27,09,,,,,,,,3.0,2.8,1.0*37
$GPRMC,084106.000,A,5229.6627,N,01319.4710,E,3.15,33.95,120912,,,A*56
$GPGGA,084107.000,5229.6637,N,01319.4724,E,1,05,2.8,18.1,M,44.8,M,,0000*6E
$GPGSA,A,3,12,14,25,27,09,,,,,,,,3.0,2.8,1.0*37
$GPGSV,3,1,12,12,83,041,19,25,51,271,23,14,39,275,31,09,36,143,19*74
$GPGSV,3,2,12,27,29,143,27,02,27,113,22,04,26,066,24,29,22,207,*7A
$GPGSV,3,3,12,31,08,309,25,32,04,338,,20,01,005,,17,01,042,*77
$GPRMC,084107.000,A,5229.6637,N,01319.4724,E,3.98,33.72,120912,,,A*5D
$GPGGA,084108.000,5229.6645,N,01319.4735,E,1,05,2.8,18.6,M,44.8,M,,0000*63
$GPGSA,A,3,12,14,25,27,09,,,,,,,,3.0,2.8,1.0*37
$GPRMC,084108.000,A,5229.6645,N,01319.4735,E,3.31,31.42,120912,,,A*55
$GPGGA,084109.000,5229.6648,N,01319.4742,E,1,05,2.8,19.2,M,44.8,M,,0000*6A
$GPGSA,A,3,12,14,25,27,09,,,,,,,,3.0,2.8,1.0*37
$GPRMC,084109.000,A,5229.6648,N,01319.4742,E,1.78,29.14,120912,,,A*5C
$GPGGA,084110.000,5229.6650,N,01319.4746,E,1,05,2.8,19.9,M,44.8,M,,0000*64
$GPGSA,A,3,12,14,25,27,09,,,,,,,,3.0,2.8,1.0*37
$GPRMC,084110.000,A,5229.6650,N,01319.4746,E,1.25,27.55,120912,,,A*5A
$GPGGA,084111.000,5229.6645,N,01319.4745,E,1,05,2.8,20.7,M,44.8,M,,0000*66
$GPGSA,A,3,12,14,25,27,09,,,,,,,,3.0,2.8,1.0*37
$GPRMC,084112.000,A,5229.6635,N,01319.4740,E,1.79,200.26,120912,,,A*67
$GPGGA,084113.000,5229.6621,N,01319.4729,E,1,05,2.8,22.8,M,44.8,M,,0000*61
$GPGSA,A,3,12,14,25,27,09,,,,,,,,3.0,2.8,1.0*37
$GPRMC,084113.000,A,5229.6621,N,01319.4729,E,3.32,210.42,120912,,,A*62
$GPGGA,084114.000,5229.6604,N,01319.4715,E,1,05,2.8,24.0,M,44.8,M,,0000*60
$GPGSA,A,3,12,14,25,27,09,,,,,,,,3.0,2.8,1.0*37
$GPRMC,084114.000,A,5229.6604,N,01319.4715,E,3.95,210.92,120912,,,A*6D
$GPGGA,084115.000,5229.6586,N,01319.4700,E,1,05,2.8,25.3,M,44.8,M,,0000*6E
$GPGSA,A,3,12,14,25,27,09,,,,,,,,3.0,2.8,1.0*37
$GPRMC,084115.000,A,5229.6586,N,01319.4700,E,3.92,211.62,120912,,,A*68
$GPGGA,084116.000,5229.6568,N,01319.4685,E,1,05,2.8,26.6,M,44.8,M,,0000*67
$GPGSA,A,3,12,14,25,27,09,,,,,,,,3.0,2.8,1.0*37
$GPRMC,084116.000,A,5229.6568,N,01319.4685,E,3.98,210.41,120912,,,A*6D
$GPGGA,084117.000,5229.6552,N,01319.4672,E,1,05,2.8,28.0,M,44.8,M,,0000*6F
$GPGSA,A,3,12,14,25,27,09,,,,,,,,3.0,2.8,1.0*37
$GPGSV,3,1,12,12,82,044,20,25,52,272,21,14,39,275,31,09,36,144,22*77
$GPGSV,3,2,12,27,28,143,27,02,27,113,21,04,26,066,24,29,23,207,*79
$GPGSV,3,3,12,31,08,309,25,32,04,337,,20,01,004,,17,00,042,*78
$GPRMC,084117.000,A,5229.6552,N,01319.4672,E,3.07,208.68,120912,,,A*69
$GPGGA,084118.000,5229.6538,N,01319.4662,E,1,05,2.8,29.5,M,44.8,M,,0000*69
$GPGSA,A,3,12,14,25,27,09,,,,,,,,3.0,2.8,1.0*37
$GPRMC,084118.000,A,5229.6538,N,01319.4662,E,2.13,204.08,120912,,,A*65
$GPGGA,084119.000,5229.6527,N,01319.4655,E,1,05,2.8,30.9,M,44.8,M,,0000*66
$GPGSA,A,3,12,14,25,27,09,,,,,,,,3.0,2.8,1.0*37
$GPRMC,084119.000,A,5229.6527,N,01319.4655,E,1.09,198.95,120912,,,A*64
$GPGGA,084120.000,5229.6517,N,01319.4650,E,1,05,2.8,32.1,M,44.8,M,,0000*60
$GPGSA,A,3,12,14,25,27,09,,,,,,,,3.0,2.8,1.0*37
$GPRMC,084120.000,A,5229.6517,N,01319.4650,E,1.26,197.17,120912,,,A*60
$GPGGA,084121.000,5229.6505,N,01319.4641,E,1,05,2.8,33.3,M,44.8,M,,0000*61
$GPGSA,A,3,12,14,25,27,09,,,,,,,,3.0,2.8,1.0*37
$GPRMC,084121.000,A,5229.6505,N,01319.4641,E,1.50,204.09,120912,,,A*65
$GPGGA,084122.000,5229.6491,N,01319.4632,E,1,05,2.8,34.5,M,44.8,M,,0000*6B
$GPGSA,A,3,12,14,25,27,09,,,,,,,,3.0,2.8,1.0*37
$GPGSV,3,1,12,12,82,044,20,25,52,272,21,14,39,275,30,09,36,144,22*76
$GPGSV,3,2,12,27,28,143,26,02,27,113,22,04,26,066,24,29,23,207,*7B
$GPGSV,3,3,12,31,08,309,23,32,04,337,,20,01,004,,17,00,042,*7E
$GPRMC,084122.000,A,5229.6491,N,01319.4632,E,2.11,206.62,120912,,,A*67
$GPGGA,084123.000,5229.6474,N,01319.4620,E,1,05,2.8,35.7,M,44.8,M,,0000*61
$GPGSA,A,3,12,14,25,27,09,,,,,,,,3.0,2.8,1.0*37
$GPRMC,084123.000,A,5229.6474,N,01319.4620,E,3.18,206.88,120912,,,A*62
$GPGGA,084124.000,5229.6455,N,01319.4607,E,1,05,2.8,36.9,M,44.8,M,,0000*6D
$GPGSA,A,3,12,14,25,27,09,,,,,,,,3.0,2.8,1.0*37
$GPRMC,084124.000,A,5229.6455,N,01319.4607,E,3.58,203.97,120912,,,A*6C
$GPGGA,084125.000,5229.6436,N,01319.4593,E,1,05,2.8,38.2,M,44.8,M,,0000*62
$GPGSA,A,3,12,14,25,27,09,,,,,,,,3.0,2.8,1.0*37
$GPRMC,084125.000,A,5229.6436,N,01319.4593,E,3.50,210.64,120912,,,A*60
$GPGGA,084126.000,5229.6421,N,01319.4581,E,1,05,2.8,39.5,M,44.8,M,,0000*62
$GPGSA,A,3,12,14,25,27,09,,,,,,,,3.0,2.8,1.0*37
$GPRMC,084126.000,A,5229.6421,N,01319.4581,E,2.50,213.90,120912,,,A*6F
$GPGGA,084127.000,5229.6410,N,01319.4572,E,1,05,2.8,40.5,M,44.8,M,,0000*63
$GPGSA,A,3,12,14,25,27,09,,,,,,,,2.9,2.8,1.0*3F
$GPGSV,3,1,12,12,82,044,20,25,52,272,21,14,39,275,30,09,36,144,22*76
$GPGSV,3,2,12,27,28,143,25,02,27,113,22,04,26,066,24,29,23,207,*78
$GPGSV,3,3,12,31,08,309,23,32,04,337,,20,01,004,,17,00,042,*7E
$GPRMC,084127.000,A,5229.6410,N,01319.4572,E,1.64,215.23,120912,,,A*6A
$GPGGA,084128.000,5229.6401,N,01319.4566,E,1,05,2.8,41.4,M,44.8,M,,0000*69
$GPGSA,A,3,12,14,25,27,09,,,,,,,,2.9,2.8,1.0*3F
