$GPGGA,151238.000,5231.2639,N,01323.8230,E,1,07,1.3,21.9,M,44.8,M,,0000*66
$GPGSA,A,3,16,19,18,06,03,22,21,,,,,,3.0,1.3,2.7*36
$GPRMC,151246.000,A,5231.2645,N,01323.8238,E,1.25,169.17,120912,,,A*6E
$GPGGA,151247.000,5231.2644,N,01323.8241,E,1,07,1.3,19.2,M,44.8,M,,0000*62
$GPGSA,A,3,16,19,18,06,03,22,21,,,,,,3.0,1.3,2.7*36
$GPGSV,3,1,11,06,83,241,19,03,67,281,22,18,53,092,25,16,48,210,25*7C
$GPGSV,3,2,11,22,45,160,19,19,37,291,22,21,34,070,22,15,14,051,23*77
$GPGSV,3,3,11,07,13,303,,08,09,340,,26,07,016,*4E
$GPRMC,151247.000,A,5231.2644,N,01323.8241,E,1.07,164.01,120912,,,A*6A
$GPGGA,151248.000,5231.2646,N,01323.8244,E,1,06,1.3,19.6,M,44.8,M,,0000*6F
$GPGSA,A,3,16,19,18,03,22,21,,,,,,,3.9,1.3,3.7*38
$GPRMC,151253.000,A,5231.2676,N,01323.8254,E,1.22,353.60,120912,,,A*6C
$GPGGA,151254.000,5231.2683,N,01323.8253,E,1,06,1.3,28.1,M,44.8,M,,0000*68
$GPGSA,A,3,16,19,18,03,22,21,,,,,,,3.9,1.3,3.7*38
$GPRMC,151254.000,A,5231.2683,N,01323.8253,E,0.84,338.49,120912,,,A*6D
$GPGGA,151255.000,5231.2691,N,01323.8254,E,1,06,1.3,30.6,M,44.8,M,,0000*63
$GPGSA,A,3,16,19,18,03,22,21,,,,,,,3.9,1.3,3.7*38
$GPRMC,151303.000,A,5231.2739,N,01323.8271,E,0.94,73.77,120912,,,A*5E
$GPGGA,151304.000,5231.2744,N,01323.8274,E,1,05,1.7,49.2,M,44.8,M,,0000*60
$GPGSA,A,3,16,19,18,03,21,,,,,,,,4.2,1.7,3.8*3F
$GPRMC,151312.000,A,5231.2767,N,01323.8282,E,1.15,350.71,120912,,,A*65
$GPGGA,151313.000,5231.2774,N,01323.8281,E,1,07,1.6,62.6,M,44.8,M,,0000*61
$GPGSA,A,3,16,19,18,06,03,07,21,,,,,,2.7,1.6,2.1*34
$GPRMC,151313.000,A,5231.2774,N,01323.8281,E,1.62,340.24,120912,,,A*64
$GPGGA,151314.000,5231.2780,N,01323.8282,E,1,07,1.6,64.8,M,44.8,M,,0000*66
$GPGSA,A,3,16,19,18,06,03,07,21,,,,,,2.7,1.6,2.1*34
$GPRMC,151314.000,A,5231.2780,N,01323.8282,E,1.55,352.33,120912,,,A*6A
$GPGGA,151315.000,5231.2788,N,01323.8284,E,1,07,1.6,66.8,M,44.8,M,,0000*6B
$GPGSA,A,3,16,19,18,06,03,07,21,,,,,,2.7,1.6,2.1*34
$GPRMC,151315.000,A,5231.2788,N,01323.8284,E,2.02,0.86,120912,,,A*6E
$GPGGA,151316.000,5231.2796,N,01323.8285,E,1,07,1.6,68.6,M,44.8,M,,0000*66
$GPGSA,A,3,16,19,18,06,03,07,21,,,,,,2.7,1.6,2.1*34
$GPRMC,151316.000,A,5231.2796,N,01323.8285,E,1.98,355.30,120912,,,A*6D
$GPGGA,151317.000,5231.2803,N,01323.8287,E,1,07,1.6,70.6,M,44.8,M,,0000*6F
$GPGSA,A,3,16,19,18,06,03,07,21,,,,,,2.6,1.6,2.1*35
$GPGSV,3,1,11,06,83,241,16,03,67,281,19,18,53,092,25,16,48,210,20*7E
$GPGSV,3,2,11,22,45,160,,19,37,291,21,21,34,070,22,15,14,051,21*7E
$GPGSV,3,3,11,07,13,303,18,08,09,340,,26,07,016,23*46
$GPRMC,151317.000,A,5231.2803,N,01323.8287,E,1.62,0.75,120912,,,A*6A
$GPGGA,151318.000,5231.2808,N,01323.8288,E,1,08,1.3,72.5,M,44.8,M,,0000*6F
$GPGSA,A,3,16,19,18,06,03,07,22,21,,,,,2.2,1.3,1.9*3F
$GPRMC,151321.000,A,5231.2815,N,01323.8288,E,1.05,359.83,120912,,,A*60
$GPGGA,151322.000,5231.2820,N,01323.8289,E,1,04,7.1,81.1,M,44.8,M,,0000*6D
$GPGSA,A,3,16,06,03,07,,,,,,,,,8.9,7.1,5.4*31
$GPGSV,3,1,11,06,83,241,15,03,67,281,20,18,53,092,15,16,48,210,18*7F
$GPGSV,3,2,11,22,45,160,18,19,37,291,10,21,34,070,18,15,14,051,08*77
$GPGSV,3,3,11,07,13,303,18,08,09,340,,26,07,016,09*4E
$GPRMC,151322.000,A,5231.2820,N,01323.8289,E,1.55,4.62,120912,,,A*65
$GPGGA,151323.000,5231.2827,N,01323.8288,E,1,04,7.1,83.4,M,44.8,M,,0000*6D
$GPGSA,A,3,16,06,03,07,,,,,,,,,8.9,7.1,5.4*31
$GPRMC,151323.000,A,5231.2827,N,01323.8288,E,1.78,342.10,120912,,,A*69
$GPGGA,151324.000,5231.2831,N,01323.8285,E,1,04,7.1,85.6,M,44.8,M,,0000*64
$GPGSA,A,3,16,06,03,07,,,,,,,,,8.9,7.1,5.4*31
$GPRMC,151324.000,A,5231.2831,N,01323.8285,E,1.38,322.98,120912,,,A*66
$GPGGA,151325.000,5231.2830,N,01323.8281,E,1,05,3.0,87.4,M,44.8,M,,0000*64
$GPGSA,A,3,16,06,03,07,22,,,,,,,,3.7,3.0,2.1*33
$GPRMC,151325.000,A,5231.2830,N,01323.8281,E,1.20,267.49,120912,,,A*67
$GPGGA,151326.000,5231.2827,N,01323.8271,E,1,07,1.6,88.9,M,44.8,M,,0000*6A
$GPGSA,A,3,16,19,18,06,03,07,22,,,,,,2.5,1.6,2.0*34
$GPRMC,151326.000,A,5231.2827,N,01323.8271,E,2.52,245.72,120912,,,A*63
$GPGGA,151327.000,5231.2821,N,01323.8260,E,1,07,1.6,90.0,M,44.8,M,,0000*6D
$GPGSA,A,3,16,19,18,06,03,07,22,,,,,,2.5,1.6,2.0*34
$GPGSV,3,1,11,06,83,241,19,03,67,281,25,18,53,092,15,16,48,210,18*76
$GPGSV,3,2,11,22,45,160,22,19,37,291,13,21,34,070,,15,14,051,12*7F
$GPGSV,3,3,11,07,13,303,18,08,09,340,,26,07,016,*47
$GPRMC,151327.000,A,5231.2821,N,01323.8260,E,2.93,239.88,120912,,,A*67
$GPGGA,151328.000,5231.2818,N,01323.8252,E,1,07,1.6,90.8,M,44.8,M,,0000*61
$GPGSA,A,3,16,19,18,06,03,07,22,,,,,,2.5,1.6,2.0*34
$GPRMC,151328.000,A,5231.2818,N,01323.8252,E,2.03,255.20,120912,,,A*62
$GPGGA,151329.000,5231.2818,N,01323.8244,E,1,07,1.6,91.3,M,44.8,M,,0000*6D
$GPGSA,A,3,16,19,18,06,03,07,22,,,,,,2.5,1.6,2.0*34
$GPRMC,151329.000,A,5231.2818,N,01323.8244,E,2.01,288.21,120912,,,A*67
$GPGGA,151330.000,5231.2824,N,01323.8236,E,1,07,1.6,91.7,M,44.8,M,,0000*6B
$GPGSA,A,3,16,19,18,06,03,07,22,,,,,,2.5,1.6,2.0*34
$GPRMC,151330.000,A,5231.2824,N,01323.8236,E,3.13,325.61,120912,,,A*65
$GPGGA,151331.000,5231.2831,N,01323.8230,E,1,05,1.8,92.1,M,44.8,M,,0000*61
$GPGSA,A,3,16,18,06,07,22,,,,,,,,3.1,1.8,2.5*31
$GPRMC,151331.000,A,5231.2831,N,01323.8230,E,3.11,332.15,120912,,,A*61
$GPGGA,151332.000,5231.2839,N,01323.8227,E,1,07,1.3,92.4,M,44.8,M,,0000*60
$GPGSA,A,3,16,18,21,06,03,07,22,,,,,,2.3,1.3,1.9*36
$GPGSV,3,1,11,06,83,241,20,03,67,281,19,18,53,092,22,16,48,210,18*77
$GPGSV,3,2,11,22,45,160,20,19,37,291,15,21,34,070,18,15,14,051,12*72
$GPGSV,3,3,11,07,13,303,18,08,09,340,,26,07,016,*47
$GPRMC,151332.000,A,5231.2839,N,01323.8227,E,3.11,348.17,120912,,,A*63
$GPGGA,151333.000,5231.2844,N,01323.8226,E,1,08,1.3,92.6,M,44.8,M,,0000*67
$GPGSA,A,3,16,19,18,21,06,03,07,22,,,,,2.2,1.3,1.9*3F
$GPRMC,151333.000,A,5231.2844,N,01323.8226,E,2.33,352.65,120912,,,A*66
$GPGGA,151334.000,5231.2850,N,01323.8226,E,1,06,1.6,92.5,M,44.8,M,,0000*6D
$GPGSA,A,3,18,21,06,03,07,22,,,,,,,2.5,1.6,1.9*32
$GPRMC,151334.000,A,5231.2850,N,01323.8226,E,2.48,359.35,120912,,,A*66
$GPGGA,151335.000,5231.2854,N,01323.8227,E,1,06,1.6,92.5,M,44.8,M,,0000*69
$GPGSA,A,3,18,21,06,03,07,22,,,,,,,2.5,1.6,1.9*32
$GPRMC,151335.000,A,5231.2854,N,01323.8227,E,1.88,9.15,120912,,,A*69
$GPGGA,151336.000,5231.2854,N,01323.8231,E,1,06,1.6,92.5,M,44.8,M,,0000*6D
$GPGSA,A,3,18,21,06,03,07,22,,,,,,,2.5,1.6,1.9*32
$GPRMC,151336.000,A,5231.2854,N,01323.8231,E,0.84,62.74,120912,,,A*5A
$GPGGA,151337.000,5231.2852,N,01323.8235,E,1,06,1.6,92.4,M,44.8,M,,0000*6F
$GPGSA,A,3,18,21,06,03,07,22,,,,,,,2.5,1.6,1.9*32
$GPGSV,3,1,11,06,83,241,21,03,67,281,21,18,53,092,20,16,48,210,18*7F
$GPGSV,3,2,11,22,45,160,20,19,37,291,15,21,34,070,19,15,14,051,*70
$GPGSV,3,3,11,07,13,303,17,08,09,340,,26,07,016,*48
$GPRMC,151339.000,A,5231.2848,N,01323.8232,E,1.07,225.58,120912,,,A*6E
$GPGGA,151340.000,5231.2844,N,01323.8231,E,1,07,1.3,90.9,M,44.8,M,,0000*67
$GPGSA,A,3,16,19,18,21,03,07,22,,,,,,2.6,1.3,2.3*34
$GPRMC,151340.000,A,5231.2844,N,01323.8231,E,0.98,219.94,120912,,,A*67
$GPGGA,151341.000,5231.2842,N,01323.8235,E,1,08,1.3,90.1,M,44.8,M,,0000*63
$GPGSA,A,3,16,19,18,21,06,03,07,22,,,,,2.2,1.3,1.9*3F
$GPRMC,151342.000,A,5231.2838,N,01323.8240,E,0.83,118.46,120912,,,A*6F
$GPGGA,151343.000,5231.2832,N,01323.8247,E,1,07,1.6,88.5,M,44.8,M,,0000*64
$GPGSA,A,3,16,19,18,21,06,03,07,,,,,,2.6,1.6,2.1*35
$GPRMC,151343.000,A,5231.2832,N,01323.8247,E,1.69,140.63,120912,,,A*6C
$GPGGA,151344.000,5231.2826,N,01323.8250,E,1,08,1.3,87.6,M,44.8,M,,0000*66
$GPGSA,A,3,16,19,18,21,06,03,07,22,,,,,2.2,1.3,1.9*3F
$GPRMC,151344.000,A,5231.2826,N,01323.8250,E,1.34,174.86,120912,,,A*6C
$GPGGA,151345.000,5231.2821,N,01323.8252,E,1,08,1.3,86.2,M,44.8,M,,0000*67
$GPGSA,A,3,16,19,18,21,06,03,07,22,,,,,2.2,1.3,1.9*3F
$GPRMC,151354.000,A,5231.2805,N,01323.8249,E,0.94,341.91,120912,,,A*6D
$GPGGA,151355.000,5231.2807,N,01323.8244,E,1,08,1.3,83.7,M,44.8,M,,0000*65
$GPGSA,A,3,16,19,18,21,06,03,07,22,,,,,2.2,1.3,1.9*3F
$GPRMC,151355.000,A,5231.2807,N,01323.8244,E,1.15,315.92,120912,,,A*69
$GPGGA,151356.000,5231.2810,N,01323.8241,E,1,08,1.3,84.9,M,44.8,M,,0000*6C
$GPGSA,A,3,16,19,18,21,06,03,07,22,,,,,2.2,1.3,1.9*3F
$GPRMC,151400.000,A,5231.2819,N,01323.8227,E,0.97,328.18,120912,,,A*63
$GPGGA,151401.000,5231.2822,N,01323.8224,E,1,08,1.3,91.2,M,44.8,M,,0000*64
$GPGSA,A,3,16,19,18,21,06,03,07,22,,,,,2.2,1.3,1.9*3F
$GPRMC,151406.000,A,5231.2830,N,01323.8218,E,0.84,100.40,120912,,,A*65
$GPGGA,151407.000,5231.2832,N,01323.8216,E,1,07,1.5,94.6,M,44.8,M,,0000*6A
$GPGSA,A,3,19,18,21,06,03,07,22,,,,,,2.5,1.5,1.9*39
$GPGSV,3,1,11,06,83,241,24,03,67,281,30,18,53,092,24,16,48,210,17*71
$GPGSV,3,2,11,22,45,160,28,19,37,291,17,21,34,070,26,15,14,051,24*70
$GPGSV,3,3,11,07,13,303,14,08,09,340,19,26,07,016,19*4B
$GPRMC,151423.000,A,5231.2852,N,01323.8174,E,1.28,40.50,120912,,,A*5C
$GPGGA,151424.000,5231.2856,N,01323.8175,E,1,05,2.5,104.2,M,44.8,M,,0000*52
$GPGSA,A,3,16,21,06,03,22,,,,,,,,5.6,2.5,5.0*32
$GPRMC,151424.000,A,5231.2856,N,01323.8175,E,1.13,43.41,120912,,,A*55
$GPGGA,151425.000,5231.2858,N,01323.8176,E,1,03,2.0,104.5,M,44.8,M,,0000*5A
$GPGSA,A,2,21,03,22,,,,,,,,,,2.2,2.0,1.0*30
$GPRMC,151437.000,A,5231.2871,N,01323.8172,E,1.38,156.97,120912,,,A*62
$GPGGA,151438.000,5231.2868,N,01323.8173,E,1,06,2.1,114.6,M,44.8,M,,0000*56
$GPGSA,A,3,16,18,21,06,03,22,,,,,,,4.7,2.1,4.2*3C
$GPRMC,151438.000,A,5231.2868,N,01323.8173,E,1.29,147.73,120912,,,A*6E
$GPGGA,151439.000,5231.2863,N,01323.8171,E,1,06,2.1,114.3,M,44.8,M,,0000*5B
$GPGSA,A,3,16,18,21,06,03,22,,,,,,,4.7,2.1,4.2*3C
$GPRMC,151439.000,A,5231.2863,N,01323.8171,E,1.14,181.96,120912,,,A*69
$GPGGA,151440.000,5231.2860,N,01323.8172,E,1,08,1.3,113.9,M,44.8,M,,0000*57
$GPGSA,A,3,16,19,18,21,06,03,07,22,,,,,2.2,1.3,1.9*3F
$GPRMC,151442.000,A,5231.2853,N,01323.8178,E,1.14,131.74,120912,,,A*68
$GPGGA,151443.000,5231.2849,N,01323.8181,E,1,08,1.3,111.6,M,44.8,M,,0000*5E
$GPGSA,A,3,16,19,18,21,06,03,07,22,,,,,2.2,1.3,1.9*3F
$GPRMC,151446.000,A,5231.2837,N,01323.8194,E,1.14,148.07,120912,,,A*66
$GPGGA,151447.000,5231.2832,N,01323.8199,E,1,08,1.3,108.4,M,44.8,M,,0000*55
$GPGSA,A,3,16,19,18,21,06,03,07,22,,,,,2.2,1.3,1.9*3F
$GPGSV,3,1,11,06,83,241,23,03,67,281,26,18,53,092,24,16,48,210,21*74
$GPGSV,3,2,11,22,45,160,23,19,37,291,21,21,34,070,21,15,14,051,22*7F
$GPGSV,3,3,11,07,13,303,17,08,09,340,15,26,07,016,17*4A
$GPRMC,151447.000,A,5231.2832,N,01323.8199,E,1.05,154.97,120912,,,A*6B
$GPGGA,151448.000,5231.2826,N,01323.8200,E,1,08,1.3,107.2,M,44.8,M,,0000*55
$GPGSA,A,3,16,19,18,21,06,03,07,22,,,,,2.2,1.3,1.9*3F
$GPRMC,151448.000,A,5231.2826,N,01323.8200,E,1.39,196.30,120912,,,A*6E
$GPGGA,151449.000,5231.2821,N,01323.8203,E,1,08,1.3,106.2,M,44.8,M,,0000*51
$GPGSA,A,3,16,19,18,21,06,03,07,22,,,,,2.2,1.3,1.9*3F
$GPRMC,151450.000,A,5231.2812,N,01323.8206,E,1.88,187.26,120912,,,A*6B
$GPGGA,151451.000,5231.2806,N,01323.8210,E,1,08,1.3,104.4,M,44.8,M,,0000*5B
$GPGSA,A,3,16,19,18,21,06,03,07,22,,,,,2.2,1.3,1.9*3F
$GPRMC,151451.000,A,5231.2806,N,01323.8210,E,1.37,169.08,120912,,,A*60
$GPGGA,151452.000,5231.2803,N,01323.8216,E,1,08,1.3,103.3,M,44.8,M,,0000*5B
$GPGSA,A,3,16,19,18,21,06,03,07,22,,,,,2.2,1.3,1.9*3F
$GPGSV,3,1,11,06,83,241,24,03,67,281,25,18,53,092,23,16,48,210,21*77
$GPGSV,3,2,11,22,45,160,22,19,37,291,21,21,34,070,21,15,14,051,20*7C
$GPGSV,3,3,11,07,13,303,16,08,09,340,16,26,07,016,17*48
$GPRMC,151454.000,A,5231.2793,N,01323.8220,E,1.07,219.70,120912,,,A*6D
$GPGGA,151455.000,5231.2787,N,01323.8223,E,1,08,1.3,100.7,M,44.8,M,,0000*5E
$GPGSA,A,3,16,19,18,21,06,03,07,22,,,,,2.2,1.3,1.9*3F
$GPRMC,151455.000,A,5231.2787,N,01323.8223,E,1.26,181.94,120912,,,A*61
$GPGGA,151456.000,5231.2783,N,01323.8226,E,1,08,1.3,99.7,M,44.8,M,,0000*6D
$GPGSA,A,3,16,19,18,21,06,03,07,22,,,,,2.2,1.3,1.9*3F
$GPRMC,151502.000,A,5231.2768,N,01323.8246,E,1.10,65.14,120912,,,A*56
$GPGGA,151503.000,5231.2767,N,01323.8253,E,1,08,1.3,90.5,M,44.8,M,,0000*6F
$GPGSA,A,3,16,19,18,21,06,03,07,22,,,,,2.2,1.3,1.9*3F
$GPRMC,151503.000,A,5231.2767,N,01323.8253,E,1.42,67.29,120912,,,A*57
$GPGGA,151504.000,5231.2766,N,01323.8260,E,1,06,1.6,89.0,M,44.8,M,,0000*6F
$GPGSA,A,3,19,21,06,03,07,22,,,,,,,2.5,1.6,1.9*33
$GPRMC,151504.000,A,5231.2766,N,01323.8260,E,1.41,67.48,120912,,,A*55
$GPGGA,151505.000,5231.2766,N,01323.8265,E,0,04,,87.9,M,44.8,M,,0000*46
$GPGSA,A,1,19,03,07,22,,,,,,,,,,,*12
$GPRMC,151511.000,A,5231.2751,N,01323.8258,E,2.37,192.83,120912,,,A*60
$GPGGA,151512.000,5231.2740,N,01323.8256,E,0,00,,82.4,M,44.8,M,,0000*48
$GPGSA,A,1,,,,,,,,,,,,,,,*1E
$GPGSV,3,1,12,06,83,230,14,03,68,280,18,18,52,090,,16,46,209,28*7C
$GPGSV,3,2,12,22,46,160,18,19,39,292,15,21,33,071,,15,14,050,*79
$GPGSV,3,3,12,07,12,302,,08,09,339,,26,06,015,,11,00,262,*77
$GPRMC,151514.000,A,5231.2714,N,01323.8244,E,4.14,203.47,120912,,,A*6D
$GPGGA,151515.000,5231.2698,N,01323.8241,E,1,03,3.3,80.7,M,44.8,M,,0000*60
$GPGSA,A,2,16,19,06,,,,,,,,,,3.4,3.3,1.0*3C
$GPRMC,151515.000,A,5231.2698,N,01323.8241,E,3.56,188.30,120912,,,A*6D
$GPGGA,151516.000,5231.2681,N,01323.8241,E,1,03,3.3,80.4,M,44.8,M,,0000*68
$GPGSA,A,2,16,19,06,,,,,,,,,,3.4,3.3,1.0*3C
$GPRMC,151516.000,A,5231.2681,N,01323.8241,E,3.84,176.30,120912,,,A*68
$GPGGA,151517.000,5231.2664,N,01323.8243,E,0,00,,80.1,M,44.8,M,,0000*49
$GPGSA,A,1,,,,,,,,,,,,,,,*1E
$GPGSV,3,1,12,06,83,230,,03,68,280,16,18,52,090,,16,46,209,17*7B
$GPGSV,3,2,12,22,46,160,,19,39,292,14,21,33,071,,15,14,050,*71
$GPGSV,3,3,12,07,12,302,,08,09,339,,26,06,015,,11,00,262,*77
$GPRMC,151521.000,A,5231.2590,N,01323.8240,E,6.16,182.82,120912,,,A*62
$GPGGA,151522.000,5231.2579,N,01323.8241,E,1,03,5.5,78.4,M,44.8,M,,0000*6C
$GPGSA,A,2,16,19,03,,,,,,,,,,5.5,5.5,1.0*3E
$GPGSV,3,1,12,06,83,230,,03,68,280,22,18,52,090,,16,46,209,16*7D
$GPGSV,3,2,12,22,46,160,,19,39,292,13,21,33,071,,15,14,050,*76
$GPGSV,3,3,12,07,12,302,,08,09,339,,26,06,015,,11,00,262,*77
$GPRMC,151522.000,A,5231.2579,N,01323.8241,E,2.59,162.92,120912,,,A*67
$GPGGA,151523.000,5231.2576,N,01323.8233,E,1,04,3.4,78.4,M,44.8,M,,0000*67
$GPGSA,A,3,16,19,22,03,,,,,,,,,5.9,3.4,4.8*39
$GPRMC,151524.000,A,5231.2569,N,01323.8203,E,2.26,240.47,120912,,,A*65
$GPGGA,151525.000,5231.2559,N,01323.8168,E,1,04,3.4,79.6,M,44.8,M,,0000*62
$GPGSA,A,3,16,19,22,03,,,,,,,,,5.9,3.4,4.8*39
$GPRMC,151525.000,A,5231.2559,N,01323.8168,E,2.95,231.12,120912,,,A*67
$GPGGA,151526.000,5231.2553,N,01323.8139,E,1,06,1.4,80.7,M,44.8,M,,0000*68
$GPGSA,A,3,06,16,19,22,21,03,,,,,,,3.2,1.4,2.8*35
$GPRMC,151526.000,A,5231.2553,N,01323.8139,E,1.59,242.84,120912,,,A*62
$GPGGA,151527.000,5231.2549,N,01323.8105,E,1,07,1.3,81.7,M,44.8,M,,0000*6A
$GPGSA,A,3,06,16,19,22,21,18,03,,,,,,3.0,1.3,2.7*36
$GPGSV,3,1,12,06,83,230,17,03,68,280,22,18,52,090,17,16,46,209,22*7A
$GPGSV,3,2,12,22,46,160,20,19,39,292,26,21,33,071,18,15,14,050,*7B
$GPGSV,3,3,12,07,12,302,,08,09,339,,26,06,015,,11,00,262,*77
$GPRMC,151527.000,A,5231.2549,N,01323.8105,E,2.20,277.72,120912,,,A*65
$GPGGA,151528.000,5231.2545,N,01323.8075,E,1,07,1.3,82.3,M,44.8,M,,0000*68
$GPGSA,A,3,06,16,19,22,21,18,03,,,,,,3.0,1.3,2.7*36
$GPRMC,151528.000,A,5231.2545,N,01323.8075,E,1.79,279.78,120912,,,A*6B
$GPGGA,151529.000,5231.2540,N,01323.8056,E,1,07,1.3,82.9,M,44.8,M,,0000*67
$GPGSA,A,3,06,16,19,22,21,18,03,,,,,,3.0,1.3,2.7*36
$GPRMC,151538.000,A,5231.2513,N,01323.7952,E,1.73,297.62,120912,,,A*6B
$GPGGA,151539.000,5231.2514,N,01323.7937,E,1,08,1.3,75.1,M,44.8,M,,0000*69
$GPGSA,A,3,06,16,19,22,21,18,03,07,,,,,2.2,1.3,1.8*3E
$GPRMC,151539.000,A,5231.2514,N,01323.7937,E,1.86,303.28,120912,,,A*66
$GPGGA,151540.000,5231.2512,N,01323.7926,E,1,07,1.3,74.0,M,44.8,M,,0000*6E
$GPGSA,A,3,16,19,22,21,18,03,07,,,,,,2.6,1.3,2.2*35
$GPRMC,151540.000,A,5231.2512,N,01323.7926,E,0.87,275.51,120912,,,A*60
$GPGGA,151541.000,5231.2508,N,01323.7920,E,1,07,1.3,73.1,M,44.8,M,,0000*64
$GPGSA,A,3,16,19,22,21,18,03,07,,,,,,2.6,1.3,2.2*35
$GPRMC,151543.000,A,5231.2496,N,01323.7912,E,0.85,157.77,120912,,,A*6C
$GPGGA,151544.000,5231.2492,N,01323.7913,E,1,07,1.3,69.9,M,44.8,M,,0000*60
$GPGSA,A,3,06,16,19,22,21,18,07,,,,,,2.6,1.3,2.2*30
$GPRMC,151544.000,A,5231.2492,N,01323.7913,E,1.64,107.42,120912,,,A*63
$GPGGA,151545.000,5231.2486,N,01323.7917,E,1,08,1.3,68.3,M,44.8,M,,0000*64
$GPGSA,A,3,06,16,19,22,21,18,03,07,,,,,2.2,1.3,1.8*3E
$GPRMC,151545.000,A,5231.2486,N,01323.7917,E,1.97,115.53,120912,,,A*6C
$GPGGA,151546.000,5231.2482,N,01323.7917,E,1,07,1.3,67.0,M,44.8,M,,0000*60
$GPGSA,A,3,16,19,22,21,18,03,07,,,,,,2.6,1.3,2.2*35
$GPRMC,151546.000,A,5231.2482,N,01323.7917,E,1.06,94.80,120912,,,A*55
$GPGGA,151547.000,5231.2481,N,01323.7913,E,1,06,1.4,65.4,M,44.8,M,,0000*66
$GPGSA,A,3,06,16,19,22,21,07,,,,,,,2.7,1.4,2.3*3E
$GPGSV,3,1,12,06,83,230,15,03,68,280,13,18,52,090,18,16,46,209,22*75
$GPGSV,3,2,12,22,46,160,19,19,39,292,11,21,33,071,13,15,14,050,*7E
$GPGSV,3,3,12,07,12,302,15,08,09,339,,26,06,015,,11,00,262,*73
$GPRMC,151547.000,A,5231.2481,N,01323.7913,E,0.92,351.40,120912,,,A*69
$GPGGA,151548.000,5231.2483,N,01323.7907,E,1,06,1.5,63.9,M,44.8,M,,0000*64
$GPGSA,A,3,16,19,22,21,18,07,,,,,,,3.8,1.5,3.5*39
$GPRMC,151548.000,A,5231.2483,N,01323.7907,E,2.05,344.30,120912,,,A*6E
$GPGGA,151549.000,5231.2486,N,01323.7899,E,1,06,1.5,62.5,M,44.8,M,,0000*6B
$GPGSA,A,3,16,19,22,21,18,07,,,,,,,3.8,1.5,3.5*39
$GPRMC,151549.000,A,5231.2486,N,01323.7899,E,2.37,332.83,120912,,,A*64
$GPGGA,151550.000,5231.2487,N,01323.7889,E,1,06,1.5,61.3,M,44.8,M,,0000*66
$GPGSA,A,3,16,19,22,21,18,07,,,,,,,3.8,1.5,3.5*39
$GPRMC,151550.000,A,5231.2487,N,01323.7889,E,2.38,311.84,120912,,,A*65
$GPGGA,151551.000,5231.2486,N,01323.7875,E,1,07,1.3,60.2,M,44.8,M,,0000*62
$GPGSA,A,3,06,16,19,22,21,18,07,,,,,,2.6,1.3,2.2*30
$GPRMC,151551.000,A,5231.2486,N,01323.7875,E,2.66,293.30,120912,,,A*69
$GPGGA,151552.000,5231.2483,N,01323.7863,E,1,06,1.5,59.0,M,44.8,M,,0000*6C
$GPGSA,A,3,16,19,22,21,18,07,,,,,,,3.8,1.5,3.5*39
$GPGSV,3,1,12,06,83,230,14,03,68,280,,18,52,090,17,16,46,209,22*79
$GPGSV,3,2,12,22,46,160,21,19,39,292,20,21,33,071,12,15,14,050,*76
$GPGSV,3,3,12,07,12,302,14,08,09,339,,26,06,015,,11,00,262,*72
$GPRMC,151552.000,A,5231.2483,N,01323.7863,E,2.39,283.04,120912,,,A*64
$GPGGA,151553.000,5231.2480,N,01323.7852,E,1,06,1.5,57.9,M,44.8,M,,0000*6B
$GPGSA,A,3,16,19,22,21,18,07,,,,,,,3.8,1.5,3.5*39
$GPRMC,151553.000,A,5231.2480,N,01323.7852,E,2.00,286.80,120912,,,A*67
$GPGGA,151554.000,5231.2477,N,01323.7847,E,1,06,1.5,56.9,M,44.8,M,,0000*61
$GPGSA,A,3,16,19,22,21,18,07,,,,,,,3.8,1.5,3.5*39
$GPRMC,151554.000,A,5231.2477,N,01323.7847,E,1.06,302.21,120912,,,A*6F
$GPGGA,151555.000,5231.2474,N,01323.7848,E,1,05,1.8,55.9,M,44.8,M,,0000*61
$GPGSA,A,3,16,19,22,18,07,,,,,,,,4.2,1.8,3.8*37
$GPRMC,151558.000,A,5231.2466,N,01323.7841,E,1.15,295.54,120912,,,A*6A
$GPGGA,151559.000,5231.2464,N,01323.7835,E,0,00,,51.2,M,44.8,M,,0000*4A
$GPGSA,A,1,,,,,,,,,,,,,,,*1E
$GPRMC,151616.000,A,5231.2467,N,01323.7753,E,0.93,65.67,120912,,,A*5C
$GPGGA,151617.000,5231.2475,N,01323.7760,E,1,04,1.9,34.1,M,44.8,M,,0000*6F
$GPGSA,A,3,18,03,19,16,,,,,,,,,5.2,1.9,4.9*35
$GPGSV,3,1,12,06,83,230,22,03,68,280,21,18,52,090,26,16,46,209,37*79
$GPGSV,3,2,12,22,46,160,,19,39,292,28,21,33,071,,15,14,050,*7E
$GPGSV,3,3,12,07,12,302,,08,09,339,,26,06,015,,11,00,262,*77
$GPRMC,151629.000,A,5231.2525,N,01323.7876,E,0.91,49.72,120912,,,A*57
$GPGGA,151630.000,5231.2530,N,01323.7883,E,1,08,1.3,26.2,M,44.8,M,,0000*6E
$GPGSA,A,3,18,03,22,19,16,06,21,07,,,,,2.2,1.3,1.8*3E
$GPRMC,151633.000,A,5231.2543,N,01323.7891,E,1.37,349.30,120912,,,A*6D
$GPGGA,151634.000,5231.2547,N,01323.7891,E,1,08,1.3,29.4,M,44.8,M,,0000*60
$GPGSA,A,3,18,03,22,19,16,06,21,07,,,,,2.2,1.3,1.8*3E
$GPRMC,151637.000,A,5231.2552,N,01323.7897,E,0.81,146.21,120912,,,A*6E
$GPGGA,151638.000,5231.2552,N,01323.7898,E,1,07,1.3,32.4,M,44.8,M,,0000*64
$GPGSA,A,3,18,03,22,19,16,06,21,,,,,,3.0,1.3,2.7*36
$GPRMC,151646.000,A,5231.2567,N,01323.7894,E,1.62,334.96,120912,,,A*6A
$GPGGA,151647.000,5231.2568,N,01323.7893,E,1,07,1.3,40.1,M,44.8,M,,0000*6E
$GPGSA,A,3,18,03,22,19,16,06,21,,,,,,3.0,1.3,2.7*36
$GPGSV,3,1,12,06,83,230,33,03,68,280,38,18,52,090,35,16,46,209,25*70
$GPGSV,3,2,12,22,46,160,28,19,39,292,31,21,33,071,24,15,14,050,*7A
$GPGSV,3,3,12,07,12,302,,08,09,339,,26,06,015,,11,00,262,*77
$GPRMC,151649.000,A,5231.2574,N,01323.7897,E,1.24,59.43,120912,,,A*56
$GPGGA,151650.000,5231.2578,N,01323.7895,E,1,07,1.3,42.4,M,44.8,M,,0000*68
$GPGSA,A,3,18,03,22,19,16,06,21,,,,,,3.0,1.3,2.7*36
$GPRMC,151651.000,A,5231.2582,N,01323.7894,E,0.83,349.14,120912,,,A*69
$GPGGA,151652.000,5231.2582,N,01323.7891,E,1,07,1.3,44.1,M,44.8,M,,0000*68
$GPGSA,A,3,18,03,22,19,16,06,21,,,,,,3.0,1.3,2.7*36
$GPGSV,3,1,12,06,83,230,32,03,68,280,37,18,52,090,31,16,46,209,25*7A
$GPGSV,3,2,12,22,46,160,34,19,39,292,27,21,33,071,24,15,14,050,*70
$GPGSV,3,3,12,07,12,302,,08,09,339,,26,06,015,,11,00,262,*77
$GPRMC,151707.000,A,5231.2568,N,01323.7837,E,0.95,356.45,120912,,,A*6B
$GPGGA,151708.000,5231.2570,N,01323.7830,E,1,07,1.3,64.8,M,44.8,M,,0000*6B
$GPGSA,A,3,18,03,22,19,16,06,21,,,,,,3.0,1.3,2.7*36
$GPRMC,151708.000,A,5231.2570,N,01323.7830,E,0.89,328.13,120912,,,A*6D
$GPGGA,151709.000,5231.2572,N,01323.7824,E,1,07,1.3,65.5,M,44.8,M,,0000*61
$GPGSA,A,3,18,03,22,19,16,06,21,,,,,,3.0,1.3,2.7*36
$GPRMC,151709.000,A,5231.2572,N,01323.7824,E,1.00,334.37,120912,,,A*60
$GPGGA,151710.000,5231.2575,N,01323.7817,E,1,07,1.3,66.4,M,44.8,M,,0000*6C
$GPGSA,A,3,18,03,22,19,16,06,21,,,,,,3.0,1.3,2.7*36
$GPRMC,151710.000,A,5231.2575,N,01323.7817,E,1.18,340.39,120912,,,A*6B
$GPGGA,151711.000,5231.2577,N,01323.7812,E,1,07,1.3,67.1,M,44.8,M,,0000*6E
$GPGSA,A,3,18,03,22,19,16,06,21,,,,,,3.0,1.3,2.7*36
$GPRMC,151713.000,A,5231.2575,N,01323.7805,E,0.81,137.16,120912,,,A*65
$GPGGA,151714.000,5231.2573,N,01323.7808,E,1,05,2.6,67.7,M,44.8,M,,0000*66
$GPGSA,A,3,18,03,22,06,21,,,,,,,,6.0,2.6,5.4*3E
$GPRMC,151714.000,A,5231.2573,N,01323.7808,E,1.66,121.89,120912,,,A*60
$GPGGA,151715.000,5231.2569,N,01323.7809,E,1,07,1.3,67.2,M,44.8,M,,0000*6C
$GPGSA,A,3,18,03,22,19,16,06,21,,,,,,3.0,1.3,2.7*36
$GPRMC,151715.000,A,5231.2569,N,01323.7809,E,1.54,153.98,120912,,,A*6F
$GPGGA,151716.000,5231.2567,N,01323.7807,E,1,06,1.6,66.4,M,44.8,M,,0000*6C
$GPGSA,A,3,18,03,22,19,16,06,,,,,,,3.8,1.6,3.4*3A
$GPRMC,151717.000,A,5231.2567,N,01323.7810,E,1.05,101.59,120912,,,A*65
$GPGGA,151718.000,5231.2567,N,01323.7812,E,1,06,1.3,64.5,M,44.8,M,,0000*60
$GPGSA,A,3,18,03,22,19,16,21,,,,,,,3.8,1.3,3.6*38
$GPRMC,151721.000,A,5231.2560,N,01323.7812,E,1.00,228.37,120912,,,A*60
$GPGGA,151722.000,5231.2554,N,01323.7811,E,1,06,1.3,61.2,M,44.8,M,,0000*68
$GPGSA,A,3,18,03,22,19,16,21,,,,,,,3.8,1.3,3.6*38
$GPGSV,3,1,12,06,83,230,,03,68,280,23,18,52,090,15,16,46,209,16*78
$GPGSV,3,2,12,22,46,160,23,19,39,292,23,21,33,071,19,15,14,050,*7C
$GPGSV,3,3,12,07,12,302,,08,09,339,,26,06,015,,11,00,262,*77
$GPRMC,151722.000,A,5231.2554,N,01323.7811,E,2.20,198.12,120912,,,A*69
$GPGGA,151723.000,5231.2544,N,01323.7809,E,1,06,1.3,60.8,M,44.8,M,,0000*6A
$GPGSA,A,3,18,03,22,19,16,21,,,,,,,3.8,1.3,3.6*38
$GPRMC,151723.000,A,5231.2544,N,01323.7809,E,3.32,196.60,120912,,,A*69
$GPGGA,151724.000,5231.2541,N,01323.7804,E,1,06,1.3,60.0,M,44.8,M,,0000*6D
$GPGSA,A,3,18,03,22,19,16,21,,,,,,,3.8,1.3,3.6*38
$GPRMC,151724.000,A,5231.2541,N,01323.7804,E,1.86,232.82,120912,,,A*6A
$GPGGA,151725.000,5231.2544,N,01323.7800,E,1,06,1.3,58.9,M,44.8,M,,0000*6F
$GPGSA,A,3,18,03,22,19,16,21,,,,,,,3.8,1.3,3.6*38
$GPRMC,151725.000,A,5231.2544,N,01323.7800,E,1.53,320.75,120912,,,A*68
$GPGGA,151726.000,5231.2550,N,01323.7801,E,1,05,1.5,57.4,M,44.8,M,,0000*6F
$GPGSA,A,3,03,22,19,16,21,,,,,,,,4.3,1.5,4.1*3B
$GPRMC,151726.000,A,5231.2550,N,01323.7801,E,2.12,355.25,120912,,,A*6E
$GPGGA,151727.000,5231.2555,N,01323.7804,E,1,05,1.5,55.7,M,44.8,M,,0000*6F
$GPGSA,A,3,03,22,19,16,21,,,,,,,,4.3,1.5,4.1*3B
$GPGSV,3,1,12,06,83,230,,03,68,280,23,18,52,090,17,16,46,209,15*79
$GPGSV,3,2,12,22,46,160,23,19,39,292,23,21,33,071,20,15,14,050,*76
$GPGSV,3,3,12,07,12,302,,08,09,339,,26,06,015,,11,00,262,*77
$GPRMC,151727.000,A,5231.2555,N,01323.7804,E,1.65,20.65,120912,,,A*59
$GPGGA,151728.000,5231.2561,N,01323.7807,E,1,04,1.9,54.0,M,44.8,M,,0000*6F
$GPGSA,A,3,03,22,19,21,,,,,,,,,4.7,1.9,4.4*31
$GPRMC,151728.000,A,5231.2561,N,01323.7807,E,1.71,12.13,120912,,,A*57
$GPGGA,151729.000,5231.2568,N,01323.7810,E,1,04,1.9,52.1,M,44.8,M,,0000*66
$GPGSA,A,3,03,22,19,21,,,,,,,,,4.7,1.9,4.4*31
$GPRMC,151729.000,A,5231.2568,N,01323.7810,E,2.34,7.61,120912,,,A*6A
$GPGGA,151730.000,5231.2575,N,01323.7813,E,1,04,1.9,50.2,M,44.8,M,,0000*60
$GPGSA,A,3,03,22,19,21,,,,,,,,,4.7,1.9,4.4*31
$GPRMC,151730.000,A,5231.2575,N,01323.7813,E,1.99,17.55,120912,,,A*5F
$GPGGA,151731.000,5231.2580,N,01323.7819,E,1,03,2.0,48.5,M,44.8,M,,0000*62
$GPGSA,A,2,03,22,21,,,,,,,,,,2.2,2.0,1.0*30
$GPRMC,151731.000,A,5231.2580,N,01323.7819,E,1.79,41.26,120912,,,A*57
$GPGGA,151732.000,5231.2584,N,01323.7826,E,1,03,2.0,47.0,M,44.8,M,,0000*63
$GPGSA,A,2,03,22,21,,,,,,,,,,2.2,2.0,1.0*30
$GPGSV,3,1,12,06,83,230,,03,68,280,22,18,52,090,16,16,46,209,16*7A
$GPGSV,3,2,12,22,46,160,23,19,39,292,18,21,33,071,20,15,14,050,*7E
$GPGSV,3,3,12,07,12,302,,08,09,339,,26,06,015,,11,00,262,*77
$GPRMC,151732.000,A,5231.2584,N,01323.7826,E,1.79,58.47,120912,,,A*53
$GPGGA,151733.000,5231.2588,N,01323.7834,E,0,00,,45.6,M,44.8,M,,0000*47
$GPGSA,A,1,,,,,,,,,,,,,,,*1E
$GPRMC,151739.000,A,5231.2582,N,01323.7840,E,0.83,151.25,120912,,,A*66
$GPGGA,151740.000,5231.2577,N,01323.7840,E,1,04,2.7,39.5,M,44.8,M,,0000*66
$GPGSA,A,3,18,03,22,21,,,,,,,,,7.2,2.7,6.6*3B
$GPRMC,151750.000,A,5231.2538,N,01323.7833,E,0.83,179.23,120912,,,A*60
$GPGGA,151751.000,5231.2534,N,01323.7834,E,1,06,1.3,15.9,M,44.8,M,,0000*65
$GPGSA,A,3,18,03,22,19,16,21,,,,,,,3.8,1.3,3.5*3B
$GPRMC,151803.000,A,5231.2523,N,01323.7846,E,1.14,52.32,120912,,,A*56
$GPGGA,151804.000,5231.2527,N,01323.7851,E,1,04,2.7,-6.3,M,44.8,M,,0000*7B
$GPGSA,A,3,18,03,22,21,,,,,,,,,7.1,2.7,6.6*38
$GPRMC,151804.000,A,5231.2527,N,01323.7851,E,0.84,47.80,120912,,,A*56
$GPGGA,151805.000,5231.2530,N,01323.7853,E,1,04,2.7,-5.5,M,44.8,M,,0000*7B
$GPGSA,A,3,18,03,22,21,,,,,,,,,7.1,2.7,6.6*38
$GPRMC,151817.000,A,5231.2571,N,01323.7828,E,1.03,238.46,120912,,,A*67
$GPGGA,151818.000,5231.2572,N,01323.7821,E,1,07,1.3,4.5,M,44.8,M,,0000*5C
$GPGSA,A,3,18,03,22,19,16,06,21,,,,,,3.0,1.3,2.7*36
$GPRMC,151818.000,A,5231.2572,N,01323.7821,E,0.92,253.38,120912,,,A*6F
$GPGGA,151819.000,5231.2574,N,01323.7815,E,1,07,1.3,4.7,M,44.8,M,,0000*5E
$GPGSA,A,3,18,03,22,19,16,06,21,,,,,,3.0,1.3,2.7*36
$GPRMC,151821.000,A,5231.2576,N,01323.7801,E,1.19,273.02,120912,,,A*6A
$GPGGA,151822.000,5231.2579,N,01323.7790,E,1,05,1.5,5.0,M,44.8,M,,0000*5B
$GPGSA,A,3,03,22,19,16,21,,,,,,,,4.3,1.5,4.0*3A
$GPGSV,3,1,12,06,83,217,16,03,70,278,22,18,52,087,11,22,47,159,28*7A
$GPGSV,3,2,12,16,45,208,20,19,40,292,21,21,32,071,27,15,15,048,*7E
$GPGSV,3,3,12,07,12,301,,08,10,338,,26,06,013,,11,02,262,*79
$GPRMC,151822.000,A,5231.2579,N,01323.7790,E,1.90,289.98,120912,,,A*66
$GPGGA,151823.000,5231.2581,N,01323.7783,E,1,05,1.5,5.2,M,44.8,M,,0000*5D
$GPGSA,A,3,03,22,19,16,21,,,,,,,,4.3,1.5,4.0*3A
$GPRMC,151850.000,A,5231.2616,N,01323.7735,E,0.81,21.66,120912,,,A*56
$GPGGA,151851.000,5231.2621,N,01323.7737,E,1,07,1.3,39.1,M,44.8,M,,0000*66
$GPGSA,A,3,18,03,22,19,16,06,21,,,,,,3.0,1.3,2.7*36
$GPRMC,151853.000,A,5231.2630,N,01323.7743,E,0.96,51.07,120912,,,A*56
$GPGGA,151854.000,5231.2634,N,01323.7745,E,1,07,1.3,44.9,M,44.8,M,,0000*60
$GPGSA,A,3,18,03,22,19,16,06,21,,,,,,3.0,1.3,2.7*36
$GPRMC,151901.000,A,5231.2634,N,01323.7720,E,1.47,221.42,120912,,,A*68
$GPGGA,151902.000,5231.2631,N,01323.7714,E,1,06,1.6,49.8,M,44.8,M,,0000*6B
$GPGSA,A,3,18,03,22,19,16,06,,,,,,,3.8,1.6,3.5*3B
$GPGSV,3,1,12,06,83,217,19,03,70,278,27,18,52,087,19,22,47,159,24*74
$GPGSV,3,2,12,16,45,208,23,19,40,292,23,21,32,071,18,15,15,048,*73
$GPGSV,3,3,12,07,12,301,,08,10,338,,26,06,013,,11,02,262,*79
$GPRMC,151902.000,A,5231.2631,N,01323.7714,E,1.46,216.62,120912,,,A*6E
$GPGGA,151903.000,5231.2631,N,01323.7712,E,1,06,1.6,50.4,M,44.8,M,,0000*68
$GPGSA,A,3,18,03,22,19,16,06,,,,,,,3.8,1.6,3.5*3B
$GPRMC,151904.000,A,5231.2629,N,01323.7707,E,0.98,227.22,120912,,,A*67
$GPGGA,151905.000,5231.2627,N,01323.7701,E,1,06,1.6,51.4,M,44.8,M,,0000*6A
$GPGSA,A,3,18,03,22,19,16,06,,,,,,,3.8,1.6,3.5*3B
$GPRMC,151905.000,A,5231.2627,N,01323.7701,E,1.25,219.87,120912,,,A*6B
$GPGGA,151906.000,5231.2624,N,01323.7698,E,1,06,1.6,51.7,M,44.8,M,,0000*68
$GPGSA,A,3,18,03,22,19,16,06,,,,,,,3.8,1.6,3.5*3B
$GPRMC,151906.000,A,5231.2624,N,01323.7698,E,0.85,200.12,120912,,,A*65
$GPGGA,151907.000,5231.2623,N,01323.7697,E,1,06,1.6,51.8,M,44.8,M,,0000*6E
$GPGSA,A,3,18,03,22,19,16,06,,,,,,,3.8,1.6,3.5*3B
$GPGSV,3,1,12,06,83,217,19,03,70,278,27,18,52,087,19,22,47,159,21*71
$GPGSV,3,2,12,16,45,208,22,19,40,292,24,21,32,071,18,15,15,048,*75
$GPGSV,3,3,12,07,12,301,,08,10,338,,26,06,013,,11,02,262,*79
$GPRMC,151909.000,A,5231.2622,N,01323.7691,E,0.81,273.33,120912,,,A*66
$GPGGA,151910.000,5231.2623,N,01323.7687,E,1,06,1.4,51.3,M,44.8,M,,0000*60
$GPGSA,A,3,03,22,19,16,06,21,,,,,,,3.1,1.4,2.8*36
$GPRMC,151910.000,A,5231.2623,N,01323.7687,E,1.01,284.83,120912,,,A*62
$GPGGA,151911.000,5231.2622,N,01323.7684,E,1,07,1.3,50.9,M,44.8,M,,0000*6E
$GPGSA,A,3,18,03,22,19,16,06,21,,,,,,3.0,1.3,2.7*36
$GPRMC,151911.000,A,5231.2622,N,01323.7684,E,0.82,285.11,120912,,,A*61
$GPGGA,151912.000,5231.2620,N,01323.7685,E,1,07,1.3,51.2,M,44.8,M,,0000*64
$GPGSA,A,3,18,03,22,19,16,06,21,,,,,,3.0,1.3,2.7*36
$GPGSV,3,1,12,06,83,217,19,03,70,278,27,18,52,087,18,22,47,159,21*70
$GPGSV,3,2,12,16,45,208,22,19,40,292,24,21,32,071,19,15,15,048,*74
$GPGSV,3,3,12,07,12,301,,08,10,338,,26,06,013,,11,02,262,*79
$GPRMC,151913.000,A,5231.2616,N,01323.7691,E,1.13,143.73,120912,,,A*64
$GPGGA,151914.000,5231.2613,N,01323.7701,E,1,07,1.3,52.7,M,44.8,M,,0000*69
$GPGSA,A,3,18,03,22,19,16,06,21,,,,,,3.0,1.3,2.7*36
$GPRMC,151914.000,A,5231.2613,N,01323.7701,E,1.36,116.20,120912,,,A*6F
$GPGGA,151915.000,5231.2610,N,01323.7710,E,1,06,1.4,53.8,M,44.8,M,,0000*63
$GPGSA,A,3,18,03,22,19,16,21,,,,,,,3.7,1.4,3.5*33
$GPRMC,151915.000,A,5231.2610,N,01323.7710,E,1.23,125.38,120912,,,A*60
$GPGGA,151916.000,5231.2608,N,01323.7720,E,1,07,1.3,55.0,M,44.8,M,,0000*62
$GPGSA,A,3,18,03,22,19,16,06,21,,,,,,3.0,1.3,2.7*36
$GPRMC,151916.000,A,5231.2608,N,01323.7720,E,1.34,114.99,120912,,,A*66
$GPGGA,151917.000,5231.2604,N,01323.7730,E,1,07,1.3,56.0,M,44.8,M,,0000*6D
$GPGSA,A,3,18,03,22,19,16,06,21,,,,,,3.0,1.3,2.7*36
$GPGSV,3,1,12,06,83,217,18,03,70,278,27,18,52,087,17,22,47,159,20*7F
$GPGSV,3,2,12,16,45,208,22,19,40,292,23,21,32,071,20,15,15,048,*79
$GPGSV,3,3,12,07,12,301,,08,10,338,,26,06,013,,11,02,262,*79
$GPRMC,151917.000,A,5231.2604,N,01323.7730,E,1.51,125.43,120912,,,A*6C
$GPGGA,151918.000,5231.2600,N,01323.7738,E,1,07,1.3,56.8,M,44.8,M,,0000*66
$GPGSA,A,3,18,03,22,19,16,06,21,,,,,,3.0,1.3,2.7*36
$GPRMC,151918.000,A,5231.2600,N,01323.7738,E,1.11,146.27,120912,,,A*6C
$GPGGA,151919.000,5231.2597,N,01323.7741,E,1,07,1.3,57.3,M,44.8,M,,0000*6E
$GPGSA,A,3,18,03,22,19,16,06,21,,,,,,3.0,1.3,2.7*36
$GPRMC,151922.000,A,5231.2600,N,01323.7751,E,0.94,24.87,120912,,,A*59
$GPGGA,151923.000,5231.2599,N,01323.7751,E,1,07,1.3,57.0,M,44.8,M,,0000*6B
$GPGSA,A,3,18,03,22,19,16,06,21,,,,,,3.0,1.3,2.7*36
$GPRMC,151927.000,A,5231.2599,N,01323.7776,E,1.24,121.37,120912,,,A*6F
$GPGGA,151928.000,5231.2600,N,01323.7781,E,1,07,1.3,57.6,M,44.8,M,,0000*68
$GPGSA,A,3,18,03,22,19,16,06,21,,,,,,3.0,1.3,2.7*36
$GPRMC,151930.000,A,5231.2607,N,01323.7786,E,1.21,332.08,120912,,,A*6B
$GPGGA,151931.000,5231.2615,N,01323.7786,E,1,07,1.3,58.6,M,44.8,M,,0000*6C
$GPGSA,A,3,18,03,22,19,16,06,21,,,,,,3.0,1.3,2.7*36
$GPRMC,151931.000,A,5231.2615,N,01323.7786,E,1.97,334.93,120912,,,A*60
$GPGGA,151932.000,5231.2622,N,01323.7784,E,1,07,1.3,59.1,M,44.8,M,,0000*6F
$GPGSA,A,3,18,03,22,19,16,06,21,,,,,,3.0,1.3,2.7*36
$GPGSV,3,1,12,06,83,217,21,03,70,278,20,18,52,087,16,22,47,159,26*75
$GPGSV,3,2,12,16,45,208,24,19,40,292,18,21,32,071,23,15,15,048,*74
$GPGSV,3,3,12,07,12,301,,08,10,338,,26,06,013,,11,02,262,*79
$GPRMC,151932.000,A,5231.2622,N,01323.7784,E,1.47,323.84,120912,,,A*68
$GPGGA,151933.000,5231.2626,N,01323.7789,E,1,07,1.3,59.7,M,44.8,M,,0000*61
$GPGSA,A,3,18,03,22,19,16,06,21,,,,,,3.0,1.3,2.7*36
$GPRMC,151938.000,A,5231.2628,N,01323.7817,E,0.90,189.84,120912,,,A*64
$GPGGA,151939.000,5231.2626,N,01323.7824,E,1,05,1.5,69.1,M,44.8,M,,0000*62
$GPGSA,A,3,22,19,16,06,21,,,,,,,,3.6,1.5,3.2*38
$GPRMC,151950.000,A,5231.2610,N,01323.7897,E,0.84,236.57,120912,,,A*65
$GPGGA,151951.000,5231.2606,N,01323.7901,E,1,07,1.3,103.8,M,44.8,M,,0000*58
$GPGSA,A,3,18,03,22,19,16,06,21,,,,,,3.0,1.3,2.7*36
$GPRMC,151952.000,A,5231.2602,N,01323.7905,E,0.95,207.05,120912,,,A*6B
$GPGGA,151953.000,5231.2598,N,01323.7910,E,1,07,1.3,109.2,M,44.8,M,,0000*5E
$GPGSA,A,3,18,03,22,19,16,06,21,,,,,,3.0,1.3,2.7*36
$GPRMC,151957.000,A,5231.2589,N,01323.7941,E,0.95,103.09,120912,,,A*65
$GPGGA,151958.000,5231.2586,N,01323.7949,E,1,07,1.3,122.5,M,44.8,M,,0000*58
$GPGSA,A,3,18,03,22,19,16,06,21,,,,,,3.0,1.3,2.7*36
$GPRMC,151958.000,A,5231.2586,N,01323.7949,E,0.90,105.10,120912,,,A*66
$GPGGA,151959.000,5231.2584,N,01323.7955,E,1,07,1.3,124.9,M,44.8,M,,0000*5C
$GPGSA,A,3,18,03,22,19,16,06,21,,,,,,3.0,1.3,2.7*36
$GPRMC,152001.000,A,5231.2579,N,01323.7968,E,0.84,112.30,120912,,,A*62
$GPGGA,152002.000,5231.2579,N,01323.7975,E,1,07,1.3,130.8,M,44.8,M,,0000*5C
$GPGSA,A,3,18,03,22,19,16,06,21,,,,,,3.0,1.3,2.7*36
$GPGSV,3,1,12,06,83,217,22,03,70,278,25,18,52,087,18,22,47,159,26*7D
$GPGSV,3,2,12,16,45,208,26,19,40,292,22,21,32,071,24,15,15,048,*78
$GPGSV,3,3,12,07,12,301,,08,10,338,,26,06,013,,11,02,262,*79
$GPRMC,152002.000,A,5231.2579,N,01323.7975,E,1.15,80.47,120912,,,A*5E
$GPGGA,152003.000,5231.2578,N,01323.7980,E,1,07,1.3,132.6,M,44.8,M,,0000*5A
$GPGSA,A,3,18,03,22,19,16,06,21,,,,,,3.0,1.3,2.7*36
$GPRMC,152010.000,A,5231.2577,N,01323.7989,E,0.92,171.89,120912,,,A*63
$GPGGA,152011.000,5231.2573,N,01323.7991,E,1,07,1.3,141.8,M,44.8,M,,0000*58
$GPGSA,A,3,18,03,22,19,16,06,21,,,,,,3.0,1.3,2.7*36
$GPRMC,152011.000,A,5231.2573,N,01323.7991,E,1.08,156.33,120912,,,A*69
$GPGGA,152012.000,5231.2569,N,01323.7994,E,1,05,3.1,142.9,M,44.8,M,,0000*55
$GPGSA,A,3,18,03,16,06,21,,,,,,,,5.0,3.1,4.0*39
$GPGSV,3,1,12,06,83,217,22,03,70,278,20,18,52,087,21,22,47,159,16*71
$GPGSV,3,2,12,16,45,208,25,19,40,292,16,21,32,071,25,15,15,048,*7D
$GPGSV,3,3,12,07,12,301,,08,10,338,,26,06,013,,11,02,262,*79
$GPRMC,152012.000,A,5231.2569,N,01323.7994,E,1.11,148.22,120912,,,A*63
$GPGGA,152013.000,5231.2565,N,01323.7998,E,1,06,1.6,143.8,M,44.8,M,,0000*52
$GPGSA,A,3,18,03,19,16,06,21,,,,,,,3.1,1.6,2.7*32
$GPRMC,152013.000,A,5231.2565,N,01323.7998,E,1.10,150.12,120912,,,A*69
$GPGGA,152014.000,5231.2561,N,01323.8002,E,1,07,1.3,144.8,M,44.8,M,,0000*57
$GPGSA,A,3,18,03,22,19,16,06,21,,,,,,3.0,1.3,2.7*36
$GPRMC,152014.000,A,5231.2561,N,01323.8002,E,1.05,146.19,120912,,,A*67
$GPGGA,152015.000,5231.2559,N,01323.8006,E,1,05,3.1,145.8,M,44.8,M,,0000*5A
$GPGSA,A,3,18,03,16,06,21,,,,,,,,5.0,3.1,4.0*39
$GPRMC,152016.000,A,5231.2558,N,01323.8011,E,0.89,73.79,120912,,,A*59
$GPGGA,152017.000,5231.2558,N,01323.8016,E,1,05,3.1,147.7,M,44.8,M,,0000*55
$GPGSA,A,3,18,03,16,06,21,,,,,,,,5.0,3.1,4.0*39
$GPGSV,3,1,12,06,83,217,22,03,70,278,20,18,52,087,21,22,47,159,16*71
$GPGSV,3,2,12,16,45,208,25,19,40,292,17,21,32,071,25,15,15,048,*7C
$GPGSV,3,3,12,07,12,301,,08,10,338,,26,06,013,,11,02,262,*79
$GPRMC,152017.000,A,5231.2558,N,01323.8016,E,0.90,69.65,120912,,,A*51
$GPGGA,152018.000,5231.2557,N,01323.8021,E,1,06,1.6,148.8,M,44.8,M,,0000*57
$GPGSA,A,3,18,03,19,16,06,21,,,,,,,3.1,1.6,2.7*32
$GPRMC,152018.000,A,5231.2557,N,01323.8021,E,0.93,94.47,120912,,,A*54
$GPGGA,152019.000,5231.2553,N,01323.8024,E,1,05,3.1,150.0,M,44.8,M,,0000*50
$GPGSA,A,3,18,03,16,06,21,,,,,,,,5.0,3.1,4.0*39
$GPRMC,152019.000,A,5231.2553,N,01323.8024,E,0.90,139.68,120912,,,A*6C
$GPGGA,152020.000,5231.2551,N,01323.8025,E,1,06,2.1,151.0,M,44.8,M,,0000*5A
$GPGSA,A,3,18,03,22,16,06,21,,,,,,,4.3,2.1,3.7*3A
$GPRMC,152022.000,A,5231.2545,N,01323.8028,E,1.09,144.49,120912,,,A*67
$GPGGA,152023.000,5231.2539,N,01323.8030,E,1,05,3.1,153.4,M,44.8,M,,0000*57
$GPGSA,A,3,18,03,16,06,21,,,,,,,,5.0,3.1,4.0*39
$GPRMC,152023.000,A,5231.2539,N,01323.8030,E,1.83,154.12,120912,,,A*69
$GPGGA,152024.000,5231.2535,N,01323.8033,E,1,05,3.1,154.1,M,44.8,M,,0000*5D
$GPGSA,A,3,18,03,16,06,21,,,,,,,,5.0,3.1,4.0*39
$GPRMC,152024.000,A,5231.2535,N,01323.8033,E,1.41,144.99,120912,,,A*6D
$GPGGA,152025.000,5231.2533,N,01323.8033,E,1,05,3.1,154.7,M,44.8,M,,0000*5C
$GPGSA,A,3,18,03,16,06,21,,,,,,,,5.0,3.1,4.0*39
$GPRMC,152030.000,A,5231.2525,N,01323.8021,E,1.68,166.77,120912,,,A*61
$GPGGA,152031.000,5231.2521,N,01323.8019,E,1,05,3.1,153.8,M,44.8,M,,0000*5A
$GPGSA,A,3,18,03,16,06,21,,,,,,,,5.0,3.1,4.0*39
$GPRMC,152031.000,A,5231.2521,N,01323.8019,E,1.18,164.01,120912,,,A*6B
$GPGGA,152032.000,5231.2519,N,01323.8016,E,1,05,3.1,152.5,M,44.8,M,,0000*51
$GPGSA,A,3,18,03,16,06,21,,,,,,,,5.0,3.1,4.0*39
$GPGSV,3,1,12,06,83,217,23,03,70,278,22,18,52,087,22,22,47,159,*76
$GPGSV,3,2,12,16,45,208,19,19,40,292,18,21,32,071,28,15,15,048,*71
$GPGSV,3,3,12,07,12,301,15,08,10,338,,26,06,013,,11,02,262,*7D
$GPRMC,152034.000,A,5231.2513,N,01323.8012,E,0.99,170.05,120912,,,A*6D
$GPGGA,152035.000,5231.2505,N,01323.8009,E,1,06,1.6,147.9,M,44.8,M,,0000*5B
$GPGSA,A,3,18,03,19,16,06,21,,,,,,,3.1,1.6,2.7*32
$GPRMC,152035.000,A,5231.2505,N,01323.8009,E,1.97,185.41,120912,,,A*64
$GPGGA,152036.000,5231.2500,N,01323.8008,E,1,05,3.3,146.5,M,44.8,M,,0000*55
$GPGSA,A,3,18,03,19,06,21,,,,,,,,3.5,3.3,1.0*32
$GPRMC,152036.000,A,5231.2500,N,01323.8008,E,1.09,193.97,120912,,,A*68
$GPGGA,152037.000,5231.2496,N,01323.8006,E,1,06,1.6,144.9,M,44.8,M,,0000*5E
$GPGSA,A,3,18,03,19,16,06,21,,,,,,,3.1,1.6,2.7*32
$GPGSV,3,1,12,06,83,217,24,03,70,278,22,18,52,087,23,22,47,159,*70
$GPGSV,3,2,12,16,45,208,12,19,40,292,20,21,32,071,27,15,15,048,*7E
$GPGSV,3,3,12,07,12,301,15,08,10,338,,26,06,013,,11,02,262,*7D
$GPRMC,152039.000,A,5231.2496,N,01323.7999,E,1.38,341.95,120912,,,A*6A
$GPGGA,152040.000,5231.2499,N,01323.7994,E,1,06,1.6,139.5,M,44.8,M,,0000*5A
$GPGSA,A,3,18,03,19,16,06,21,,,,,,,3.1,1.6,2.7*32
$GPRMC,152040.000,A,5231.2499,N,01323.7994,E,1.51,335.45,120912,,,A*67
$GPGGA,152041.000,5231.2499,N,01323.7989,E,1,07,1.3,137.5,M,44.8,M,,0000*5D
$GPGSA,A,3,18,03,22,19,16,06,21,,,,,,3.0,1.3,2.7*36
$GPRMC,152048.000,A,5231.2513,N,01323.7941,E,1.53,331.40,120912,,,A*67
$GPGGA,152049.000,5231.2519,N,01323.7928,E,1,07,1.3,118.9,M,44.8,M,,0000*56
$GPGSA,A,3,18,03,22,19,16,06,21,,,,,,3.0,1.3,2.7*36
$GPRMC,152049.000,A,5231.2519,N,01323.7928,E,2.02,313.99,120912,,,A*60
$GPGGA,152050.000,5231.2526,N,01323.7917,E,1,07,1.3,116.3,M,44.8,M,,0000*5A
$GPGSA,A,3,18,03,22,19,16,06,21,,,,,,3.0,1.3,2.7*36
$GPRMC,152050.000,A,5231.2526,N,01323.7917,E,1.43,321.40,120912,,,A*6B
$GPGGA,152051.000,5231.2530,N,01323.7907,E,1,06,1.7,113.8,M,44.8,M,,0000*56
$GPGSA,A,3,18,03,22,19,06,21,,,,,,,3.5,1.7,3.0*36
$GPRMC,152051.000,A,5231.2530,N,01323.7907,E,1.09,289.00,120912,,,A*65
$GPGGA,152052.000,5231.2532,N,01323.7898,E,1,06,1.7,111.2,M,44.8,M,,0000*58
$GPGSA,A,3,18,03,22,19,06,21,,,,,,,3.5,1.7,3.0*36
$GPGSV,3,1,12,06,83,217,26,03,70,278,24,18,52,087,23,22,47,159,20*76
$GPGSV,3,2,12,16,45,208,,19,40,292,21,21,32,071,28,15,15,048,*73
$GPGSV,3,3,12,07,12,301,,08,10,338,,26,06,013,,11,02,262,*79
$GPRMC,152057.000,A,5231.2530,N,01323.7871,E,1.05,208.57,120912,,,A*64
$GPGGA,152058.000,5231.2524,N,01323.7867,E,1,06,1.7,98.1,M,44.8,M,,0000*66
$GPGSA,A,3,18,03,22,19,06,21,,,,,,,3.5,1.7,3.0*36
$GPRMC,152058.000,A,5231.2524,N,01323.7867,E,1.91,189.34,120912,,,A*6B
$GPGGA,152059.000,5231.2516,N,01323.7864,E,1,06,1.7,96.1,M,44.8,M,,0000*6B
$GPGSA,A,3,18,03,22,19,06,21,,,,,,,3.5,1.7,3.0*36
$GPRMC,152059.000,A,5231.2516,N,01323.7864,E,2.82,185.42,120912,,,A*64
$GPGGA,152100.000,5231.2508,N,01323.7860,E,1,06,1.7,93.9,M,44.8,M,,0000*60
$GPGSA,A,3,18,03,22,19,06,21,,,,,,,3.5,1.7,3.0*36
$GPRMC,152100.000,A,5231.2508,N,01323.7860,E,2.50,188.24,120912,,,A*60
$GPGGA,152101.000,5231.2502,N,01323.7858,E,1,06,1.7,91.6,M,44.8,M,,0000*6D
$GPGSA,A,3,18,03,22,19,06,21,,,,,,,3.5,1.7,3.0*36
$GPRMC,152101.000,A,5231.2502,N,01323.7858,E,1.96,187.11,120912,,,A*60
$GPGGA,152102.000,5231.2495,N,01323.7857,E,1,06,1.7,89.5,M,44.8,M,,0000*64
$GPGSA,A,3,18,03,22,19,06,21,,,,,,,3.5,1.7,3.0*36
$GPGSV,3,1,12,06,83,217,27,03,70,278,24,18,52,087,23,22,47,159,19*7D
$GPGSV,3,2,12,16,45,208,,19,40,292,21,21,32,071,28,15,15,048,*73
$GPGSV,3,3,12,07,12,301,,08,10,338,,26,06,013,,11,02,262,*79
$GPRMC,152102.000,A,5231.2495,N,01323.7857,E,2.02,180.37,120912,,,A*6E
$GPGGA,152103.000,5231.2488,N,01323.7856,E,1,05,3.3,87.5,M,44.8,M,,0000*63
$GPGSA,A,3,18,03,19,06,21,,,,,,,,3.4,3.3,1.0*33
$GPRMC,152103.000,A,5231.2488,N,01323.7856,E,2.46,180.13,120912,,,A*64
$GPGGA,152104.000,5231.2483,N,01323.7851,E,1,05,3.3,85.4,M,44.8,M,,0000*6B
$GPGSA,A,3,18,03,19,06,21,,,,,,,,3.4,3.3,1.0*33
$GPRMC,152104.000,A,5231.2483,N,01323.7851,E,1.77,206.38,120912,,,A*6A
$GPGGA,152105.000,5231.2479,N,01323.7848,E,1,05,3.3,83.7,M,44.8,M,,0000*62
$GPGSA,A,3,18,03,19,06,21,,,,,,,,3.4,3.3,1.0*33
$GPRMC,152105.000,A,5231.2479,N,01323.7848,E,1.61,201.33,120912,,,A*6D
$GPGGA,152106.000,5231.2477,N,01323.7846,E,1,05,3.3,82.2,M,44.8,M,,0000*65
$GPGSA,A,3,18,03,19,06,21,,,,,,,,3.4,3.3,1.0*33
$GPRMC,152108.000,A,5231.2471,N,01323.7843,E,1.66,203.15,120912,,,A*62
$GPGGA,152109.000,5231.2465,N,01323.7839,E,1,05,3.3,77.6,M,44.8,M,,0000*6F
$GPGSA,A,3,18,03,19,06,21,,,,,,,,3.4,3.3,1.0*33
$GPRMC,152109.000,A,5231.2465,N,01323.7839,E,2.04,203.05,120912,,,A*6D
$GPGGA,152110.000,5231.2460,N,01323.7838,E,1,06,1.6,76.2,M,44.8,M,,0000*62
$GPGSA,A,3,18,03,19,06,21,16,,,,,,,3.1,1.6,2.7*32
$GPRMC,152110.000,A,5231.2460,N,01323.7838,E,1.70,191.24,120912,,,A*6A
$GPGGA,152111.000,5231.2458,N,01323.7839,E,1,06,1.6,75.1,M,44.8,M,,0000*69
$GPGSA,A,3,18,03,19,06,21,16,,,,,,,3.1,1.6,2.7*32
$GPRMC,152111.000,A,5231.2458,N,01323.7839,E,1.31,176.17,120912,,,A*6D
$GPGGA,152112.000,5231.2456,N,01323.7841,E,1,05,3.1,74.2,M,44.8,M,,0000*6F
$GPGSA,A,3,18,03,06,21,16,,,,,,,,5.0,3.1,3.9*37
$GPGSV,3,1,12,06,83,205,26,03,71,275,26,18,52,085,21,22,48,158,17*71
$GPGSV,3,2,12,16,44,207,16,19,41,292,,21,31,072,28,15,15,047,*77
$GPGSV,3,3,12,07,12,299,,08,10,337,,26,05,012,,11,03,263,*74
$GPRMC,152112.000,A,5231.2456,N,01323.7841,E,1.51,171.43,120912,,,A*6F
$GPGGA,152113.000,5231.2453,N,01323.7843,E,1,04,5.6,73.3,M,44.8,M,,0000*6F
$GPGSA,A,3,18,03,06,21,,,,,,,,,5.7,5.6,1.0*3D
$GPRMC,152113.000,A,5231.2453,N,01323.7843,E,2.10,169.37,120912,,,A*65
$GPGGA,152114.000,5231.2448,N,01323.7846,E,1,04,5.6,72.7,M,44.8,M,,0000*62
$GPGSA,A,3,18,03,06,21,,,,,,,,,5.7,5.6,1.0*3D
$GPRMC,152114.000,A,5231.2448,N,01323.7846,E,2.40,166.54,120912,,,A*62
$GPGGA,152115.000,5231.2442,N,01323.7848,E,1,05,2.7,72.1,M,44.8,M,,0000*66
$GPGSA,A,3,18,03,22,06,21,,,,,,,,6.1,2.7,5.4*3E
$GPRMC,152115.000,A,5231.2442,N,01323.7848,E,2.74,171.83,120912,,,A*6C
$GPGGA,152116.000,5231.2439,N,01323.7848,E,1,05,2.7,71.5,M,44.8,M,,0000*6E
$GPGSA,A,3,18,03,22,06,21,,,,,,,,6.1,2.7,5.4*3E
$GPRMC,152116.000,A,5231.2439,N,01323.7848,E,1.85,177.54,120912,,,A*62
$GPGGA,152117.000,5231.2440,N,01323.7846,E,1,04,5.6,70.9,M,44.8,M,,0000*65
$GPGSA,A,3,18,03,06,21,,,,,,,,,5.7,5.6,1.0*3D
$GPGSV,3,1,12,06,83,205,26,03,71,275,26,18,52,085,22,22,48,158,17*72
$GPGSV,3,2,12,16,44,207,18,19,41,292,,21,31,072,28,15,15,047,*79
$GPGSV,3,3,12,07,12,299,,08,10,337,,26,05,012,,11,03,263,*74
$GPRMC,152119.000,A,5231.2448,N,01323.7838,E,1.41,319.10,120912,,,A*6E
$GPGGA,152120.000,5231.2452,N,01323.7832,E,1,04,5.6,69.4,M,44.8,M,,0000*64
$GPGSA,A,3,18,03,06,21,,,,,,,,,5.7,5.6,1.0*3D
$GPRMC,152120.000,A,5231.2452,N,01323.7832,E,1.25,304.55,120912,,,A*6A
$GPGGA,152121.000,5231.2454,N,01323.7829,E,1,04,5.6,68.8,M,44.8,M,,0000*64
$GPGSA,A,3,18,03,06,21,,,,,,,,,5.7,5.6,1.0*3D
$GPRMC,152123.000,A,5231.2460,N,01323.7825,E,1.09,335.48,120912,,,A*6E
$GPGGA,152124.000,5231.2463,N,01323.7822,E,1,05,3.3,66.9,M,44.8,M,,0000*63
$GPGSA,A,3,18,03,19,06,21,,,,,,,,3.4,3.3,1.0*33
$GPRMC,152127.000,A,5231.2468,N,01323.7824,E,0.87,171.37,120912,,,A*6E
$GPGGA,152128.000,5231.2467,N,01323.7826,E,1,06,1.8,64.8,M,44.8,M,,0000*66
$GPGSA,A,3,18,03,22,19,06,21,,,,,,,3.5,1.8,3.0*39
$GPRMC,152128.000,A,5231.2467,N,01323.7826,E,1.10,170.12,120912,,,A*65
$GPGGA,152129.000,5231.2467,N,01323.7828,E,1,06,1.8,64.6,M,44.8,M,,0000*67
$GPGSA,A,3,18,03,22,19,06,21,,,,,,,3.5,1.8,3.0*39
$GPRMC,152130.000,A,5231.2466,N,01323.7831,E,0.90,171.03,120912,,,A*63
$GPGGA,152131.000,5231.2464,N,01323.7834,E,1,05,3.3,64.4,M,44.8,M,,0000*68
$GPGSA,A,3,18,03,19,06,21,,,,,,,,3.4,3.3,1.0*33
$GPRMC,152131.000,A,5231.2464,N,01323.7834,E,1.48,172.07,120912,,,A*66
$GPGGA,152132.000,5231.2465,N,01323.7837,E,1,06,1.6,64.6,M,44.8,M,,0000*6F
$GPGSA,A,3,18,03,19,06,21,16,,,,,,,3.1,1.6,2.7*32
$GPGSV,3,1,12,06,83,205,25,03,71,275,24,18,52,085,23,22,48,158,19*7C
$GPGSV,3,2,12,16,44,207,18,19,41,292,21,21,31,072,28,15,15,047,*7A
$GPGSV,3,3,12,07,12,299,,08,10,337,,26,05,012,,11,03,263,*74
$GPRMC,152132.000,A,5231.2465,N,01323.7837,E,1.13,175.16,120912,,,A*6E
$GPGGA,152133.000,5231.2469,N,01323.7840,E,1,06,1.6,65.2,M,44.8,M,,0000*67
$GPGSA,A,3,18,03,19,06,21,16,,,,,,,3.1,1.6,2.7*32
$GPRMC,152145.000,A,5231.2502,N,01323.7888,E,1.57,359.44,120912,,,A*61
$GPGGA,152146.000,5231.2508,N,01323.7892,E,1,06,1.4,74.5,M,44.8,M,,0000*69
$GPGSA,A,3,18,03,22,19,21,16,,,,,,,3.7,1.4,3.4*32
$GPRMC,152146.000,A,5231.2508,N,01323.7892,E,1.88,11.17,120912,,,A*58
$GPGGA,152147.000,5231.2512,N,01323.7898,E,1,05,3.3,75.2,M,44.8,M,,0000*69
$GPGSA,A,3,18,03,19,06,21,,,,,,,,3.4,3.3,1.0*33
$GPGSV,3,1,12,06,83,205,19,03,71,275,24,18,52,085,24,22,48,158,17*7A
$GPGSV,3,2,12,16,44,207,17,19,41,292,19,21,31,072,26,15,15,047,*70
$GPGSV,3,3,12,07,12,299,,08,10,337,,26,05,012,,11,03,263,*74
$GPRMC,152147.000,A,5231.2512,N,01323.7898,E,1.31,30.36,120912,,,A*5A
$GPGGA,152148.000,5231.2514,N,01323.7902,E,1,07,1.3,75.8,M,44.8,M,,0000*68
$GPGSA,A,3,18,03,22,19,06,21,16,,,,,,3.0,1.3,2.6*37
$GPRMC,152155.000,A,5231.2529,N,01323.7907,E,1.11,342.78,120912,,,A*68
$GPGGA,152156.000,5231.2535,N,01323.7905,E,1,07,1.3,69.4,M,44.8,M,,0000*62
$GPGSA,A,3,18,03,22,19,06,21,16,,,,,,3.0,1.3,2.6*37
$GPRMC,152156.000,A,5231.2535,N,01323.7905,E,1.59,348.93,120912,,,A*67
$GPGGA,152157.000,5231.2540,N,01323.7906,E,1,07,1.3,68.7,M,44.8,M,,0000*60
$GPGSA,A,3,18,03,22,19,06,21,16,,,,,,3.0,1.3,2.6*37
$GPGSV,3,1,12,06,83,202,20,03,71,274,23,18,52,085,23,22,49,157,21*7D
$GPGSV,3,2,12,16,43,207,17,19,42,292,19,21,30,072,26,15,15,047,*75
$GPGSV,3,3,12,07,11,299,,08,10,336,,26,05,012,,11,03,263,*76
$GPRMC,152157.000,A,5231.2540,N,01323.7906,E,1.27,8.38,120912,,,A*68
$GPGGA,152158.000,5231.2544,N,01323.7907,E,1,06,1.4,67.9,M,44.8,M,,0000*6D
$GPGSA,A,3,18,22,19,06,21,16,,,,,,,3.3,1.4,3.0*37
$GPRMC,152201.000,A,5231.2557,N,01323.7912,E,0.83,25.77,120912,,,A*50
$GPGGA,152202.000,5231.2560,N,01323.7912,E,1,07,1.3,65.6,M,44.8,M,,0000*68
$GPGSA,A,3,18,03,22,19,06,21,16,,,,,,3.0,1.3,2.6*37
$GPGSV,3,1,12,06,83,202,21,03,71,274,21,18,52,085,27,22,49,157,22*79
$GPGSV,3,2,12,16,43,207,19,19,42,292,23,21,30,072,27,15,15,047,*73
$GPGSV,3,3,12,07,11,299,,08,10,336,,26,05,012,,11,03,263,*76
$GPRMC,152203.000,A,5231.2564,N,01323.7911,E,0.85,358.54,120912,,,A*6F
$GPGGA,152204.000,5231.2567,N,01323.7909,E,1,06,1.8,64.6,M,44.8,M,,0000*68
$GPGSA,A,3,18,03,22,19,06,21,,,,,,,3.5,1.8,3.1*38
$GPRMC,152206.000,A,5231.2574,N,01323.7901,E,1.04,291.63,120912,,,A*62
$GPGGA,152207.000,5231.2576,N,01323.7896,E,1,07,1.3,63.1,M,44.8,M,,0000*66
$GPGSA,A,3,18,03,22,19,06,21,16,,,,,,3.0,1.3,2.6*37
$GPGSV,3,1,12,06,83,202,20,03,71,274,26,18,52,085,24,22,49,157,24*7A
$GPGSV,3,2,12,16,43,207,22,19,42,292,21,21,30,072,15,15,15,047,*78
$GPGSV,3,3,12,07,11,299,,08,10,336,,26,05,012,,11,03,263,*76
$GPRMC,152220.000,A,5231.2579,N,01323.7853,E,0.83,46.59,120912,,,A*52
$GPGGA,152221.000,5231.2579,N,01323.7853,E,1,07,1.3,66.5,M,44.8,M,,0000*65
$GPGSA,A,3,18,03,22,19,06,21,16,,,,,,3.0,1.3,2.6*37
$GPRMC,152225.000,A,5231.2578,N,01323.7839,E,0.93,6.85,120912,,,A*6E
$GPGGA,152226.000,5231.2577,N,01323.7836,E,1,07,1.3,63.7,M,44.8,M,,0000*68
$GPGSA,A,3,18,03,22,19,06,21,16,,,,,,3.0,1.3,2.6*37
$GPRMC,152229.000,A,5231.2574,N,01323.7826,E,0.87,28.62,120912,,,A*50
$GPGGA,152230.000,5231.2574,N,01323.7823,E,1,07,1.3,59.2,M,44.8,M,,0000*64
$GPGSA,A,3,18,03,22,19,06,21,16,,,,,,3.0,1.3,2.6*37
$GPRMC,152231.000,A,5231.2573,N,01323.7821,E,0.81,24.91,120912,,,A*5F
$GPGGA,152232.000,5231.2571,N,01323.7820,E,1,07,1.3,57.3,M,44.8,M,,0000*6F
$GPGSA,A,3,18,03,22,19,06,21,16,,,,,,3.0,1.3,2.6*37
$GPGSV,3,1,12,06,83,202,29,03,71,274,34,18,52,085,34,22,49,157,38*7C
$GPGSV,3,2,12,16,43,207,23,19,42,292,28,21,30,072,24,15,15,047,*72
$GPGSV,3,3,12,07,11,299,,08,10,336,,26,05,012,,11,03,263,*76
$GPRMC,152235.000,A,5231.2557,N,01323.7818,E,1.27,172.46,120912,,,A*62
$GPGGA,152236.000,5231.2551,N,01323.7817,E,1,07,1.3,54.5,M,44.8,M,,0000*68
$GPGSA,A,3,18,03,22,19,06,21,16,,,,,,3.0,1.3,2.6*37
$GPRMC,152236.000,A,5231.2551,N,01323.7817,E,1.44,168.21,120912,,,A*67
$GPGGA,152237.000,5231.2547,N,01323.7817,E,1,07,1.3,53.6,M,44.8,M,,0000*6A
$GPGSA,A,3,18,03,22,19,06,21,16,,,,,,3.0,1.3,2.6*37
$GPGSV,3,1,12,06,83,202,30,03,71,274,34,18,52,085,34,22,49,157,31*7D
$GPGSV,3,2,12,16,43,207,23,19,42,292,29,21,30,072,23,15,15,047,*74
$GPGSV,3,3,12,07,11,299,,08,10,336,,26,05,012,,11,03,263,*76
$GPRMC,152238.000,A,5231.2542,N,01323.7814,E,1.13,196.66,120912,,,A*68
$GPGGA,152239.000,5231.2537,N,01323.7811,E,1,07,1.3,51.7,M,44.8,M,,0000*66
$GPGSA,A,3,18,03,22,19,06,21,16,,,,,,3.0,1.3,2.6*37
$GPRMC,152239.000,A,5231.2537,N,01323.7811,E,1.13,195.94,120912,,,A*60
$GPGGA,152240.000,5231.2534,N,01323.7809,E,1,07,1.3,50.7,M,44.8,M,,0000*63
$GPGSA,A,3,18,03,22,19,06,21,16,,,,,,3.0,1.3,2.6*37
$GPRMC,152243.000,A,5231.2527,N,01323.7813,E,0.95,95.01,120912,,,A*5C
$GPGGA,152244.000,5231.2525,N,01323.7817,E,1,07,1.3,47.6,M,44.8,M,,0000*6F
$GPGSA,A,3,18,03,22,19,06,21,16,,,,,,3.0,1.3,2.6*37
$GPRMC,152248.000,A,5231.2518,N,01323.7826,E,1.12,79.64,120912,,,A*52
$GPGGA,152249.000,5231.2516,N,01323.7829,E,1,07,1.3,47.2,M,44.8,M,,0000*6B
$GPGSA,A,3,18,03,22,19,06,21,16,,,,,,3.0,1.3,2.6*37
$GPRMC,152259.000,A,5231.2513,N,01323.7856,E,1.20,23.21,120912,,,A*51
$GPGGA,152300.000,5231.2517,N,01323.7858,E,1,07,1.4,53.4,M,44.8,M,,0000*64
$GPGSA,A,3,18,03,22,19,06,21,16,,,,,,3.0,1.4,2.6*30
$GPRMC,152300.000,A,5231.2517,N,01323.7858,E,1.11,27.67,120912,,,A*52
$GPGGA,152301.000,5231.2520,N,01323.7858,E,1,07,1.4,54.0,M,44.8,M,,0000*62
$GPGSA,A,3,18,03,22,19,06,21,16,,,,,,3.0,1.4,2.6*30
$GPRMC,152301.000,A,5231.2520,N,01323.7858,E,0.89,12.42,120912,,,A*56
$GPGGA,152302.000,5231.2523,N,01323.7859,E,1,07,1.4,54.7,M,44.8,M,,0000*64
$GPGSA,A,3,18,03,22,19,06,21,16,,,,,,3.0,1.4,2.6*30
$GPGSV,3,1,12,06,83,202,24,03,71,274,25,18,52,085,24,22,49,157,23*7A
$GPGSV,3,2,12,16,43,207,21,19,42,292,24,21,30,072,18,15,15,047,*73
$GPGSV,3,3,12,07,11,299,,08,10,336,,26,05,012,,11,03,263,*76
$GPRMC,152302.000,A,5231.2523,N,01323.7859,E,1.17,19.16,120912,,,A*5B
$GPGGA,152303.000,5231.2529,N,01323.7861,E,1,07,1.4,55.4,M,44.8,M,,0000*66
$GPGSA,A,3,18,03,22,19,06,21,16,,,,,,3.0,1.4,2.6*30
$GPRMC,152303.000,A,5231.2529,N,01323.7861,E,2.14,13.66,120912,,,A*56
$GPGGA,152304.000,5231.2534,N,01323.7863,E,1,07,1.4,56.1,M,44.8,M,,0000*69
$GPGSA,A,3,18,03,22,19,06,21,16,,,,,,3.0,1.4,2.6*30
$GPRMC,152304.000,A,5231.2534,N,01323.7863,E,2.19,23.63,120912,,,A*54
$GPGGA,152305.000,5231.2537,N,01323.7865,E,1,07,1.4,57.0,M,44.8,M,,0000*6D
$GPGSA,A,3,18,03,22,19,06,21,16,,,,,,2.9,1.4,2.6*38
$GPRMC,152305.000,A,5231.2537,N,01323.7865,E,1.42,34.31,120912,,,A*5C
$GPGGA,152306.000,5231.2540,N,01323.7867,E,0,00,,58.0,M,44.8,M,,0000*4E
$GPGSA,A,1,,,,,,,,,,,,,,,*1E
$GPRMC,152308.000,A,5231.2540,N,01323.7873,E,1.18,110.70,120912,,,A*6B
$GPGGA,152309.000,5231.2537,N,01323.7875,E,1,07,1.4,59.6,M,44.8,M,,0000*68
$GPGSA,A,3,18,03,22,19,21,06,16,,,,,,2.9,1.4,2.6*38
$GPRMC,152309.000,A,5231.2537,N,01323.7875,E,1.25,144.41,120912,,,A*61
$GPGGA,152310.000,5231.2531,N,01323.7876,E,1,06,1.6,60.0,M,44.8,M,,0000*6A
$GPGSA,A,3,18,03,22,19,06,16,,,,,,,3.9,1.6,3.5*3A
$GPRMC,152310.000,A,5231.2531,N,01323.7876,E,1.25,167.83,120912,,,A*63
$GPGGA,152311.000,5231.2523,N,01323.7874,E,1,06,1.6,60.7,M,44.8,M,,0000*6D
$GPGSA,A,3,18,03,22,19,06,16,,,,,,,3.9,1.6,3.5*3A
$GPRMC,152311.000,A,5231.2523,N,01323.7874,E,1.48,202.81,120912,,,A*6A
$GPGGA,152312.000,5231.2516,N,01323.7873,E,1,07,1.4,61.6,M,44.8,M,,0000*6C
$GPGSA,A,3,18,03,22,19,21,06,16,,,,,,2.9,1.4,2.6*38
$GPGSV,3,1,12,06,83,202,40,03,71,274,36,18,52,085,28,22,49,157,26*73
$GPGSV,3,2,12,16,43,207,26,19,42,292,23,21,30,072,32,15,15,047,*7B
$GPGSV,3,3,12,07,11,299,,08,10,336,,26,05,012,,11,03,263,*76
$GPRMC,152312.000,A,5231.2516,N,01323.7873,E,1.31,190.62,120912,,,A*63
$GPGGA,152313.000,5231.2512,N,01323.7875,E,1,07,1.4,62.4,M,44.8,M,,0000*6E
$GPGSA,A,3,18,03,22,19,21,06,16,,,,,,2.9,1.4,2.6*38
$GPRMC,152320.000,A,5231.2497,N,01323.7884,E,0.98,175.96,120912,,,A*60
$GPGGA,152321.000,5231.2495,N,01323.7885,E,1,06,1.8,64.8,M,44.8,M,,0000*69
$GPGSA,A,3,18,03,22,19,21,06,,,,,,,3.6,1.8,3.1*3B
$GPRMC,152329.000,A,5231.2509,N,01323.7887,E,0.89,314.50,120912,,,A*63
$GPGGA,152330.000,5231.2512,N,01323.7883,E,1,07,1.4,68.5,M,44.8,M,,0000*6D
$GPGSA,A,3,18,03,22,19,21,06,16,,,,,,2.9,1.4,2.6*38
$GPRMC,152330.000,A,5231.2512,N,01323.7883,E,0.92,317.07,120912,,,A*6E
$GPGGA,152331.000,5231.2514,N,01323.7879,E,1,07,1.4,68.2,M,44.8,M,,0000*68
$GPGSA,A,3,18,03,22,19,21,06,16,,,,,,2.9,1.4,2.6*38
$GPRMC,152339.000,A,5231.2510,N,01323.7853,E,1.20,198.91,120912,,,A*6A
$GPGGA,152340.000,5231.2509,N,01323.7847,E,1,06,1.4,65.5,M,44.8,M,,0000*64
$GPGSA,A,3,18,22,19,21,06,16,,,,,,,3.3,1.4,3.0*37
$GPRMC,152343.000,A,5231.2501,N,01323.7837,E,1.97,164.13,120912,,,A*60
$GPGGA,152344.000,5231.2494,N,01323.7837,E,1,05,1.9,64.1,M,44.8,M,,0000*69
$GPGSA,A,3,18,22,19,21,06,,,,,,,,3.9,1.9,3.5*32
$GPRMC,152344.000,A,5231.2494,N,01323.7837,E,1.83,172.20,120912,,,A*68
$GPGGA,152345.000,5231.2488,N,01323.7838,E,1,05,1.9,64.2,M,44.8,M,,0000*69
$GPGSA,A,3,18,22,19,21,06,,,,,,,,3.9,1.9,3.5*32
$GPRMC,152345.000,A,5231.2488,N,01323.7838,E,1.25,165.32,120912,,,A*62
$GPGGA,152346.000,5231.2483,N,01323.7840,E,1,05,1.9,64.6,M,44.8,M,,0000*6A
$GPGSA,A,3,18,22,19,21,06,,,,,,,,3.9,1.9,3.5*32
$GPRMC,152354.000,A,5231.2448,N,01323.7846,E,0.88,149.50,120912,,,A*6B
$GPGGA,152355.000,5231.2445,N,01323.7848,E,1,06,1.4,68.1,M,44.8,M,,0000*6F
$GPGSA,A,3,18,22,19,21,06,16,,,,,,,3.3,1.4,3.0*37
$GPRMC,152401.000,A,5231.2440,N,01323.7861,E,1.05,133.26,120912,,,A*69
$GPGGA,152402.000,5231.2436,N,01323.7870,E,1,05,1.7,75.3,M,44.8,M,,0000*6B
$GPGSA,A,3,18,22,19,06,16,,,,,,,,4.6,1.7,4.3*31
$GPGSV,3,1,12,06,82,195,39,03,72,273,,18,52,083,35,22,50,157,28*7C
$GPGSV,3,2,12,16,43,206,26,19,43,293,22,21,29,072,,15,15,046,*73
$GPGSV,3,3,12,07,11,298,,08,10,336,17,26,05,011,,11,04,263,*75
$GPRMC,152402.000,A,5231.2436,N,01323.7870,E,1.63,126.41,120912,,,A*6E
$GPGGA,152403.000,5231.2433,N,01323.7878,E,1,06,1.6,76.7,M,44.8,M,,0000*62
$GPGSA,A,3,18,22,19,03,06,16,,,,,,,3.9,1.6,3.5*3A
$GPRMC,152403.000,A,5231.2433,N,01323.7878,E,1.44,112.04,120912,,,A*61
$GPGGA,152404.000,5231.2432,N,01323.7880,E,1,06,1.6,77.8,M,44.8,M,,0000*6D
$GPGSA,A,3,18,22,19,03,06,16,,,,,,,3.9,1.6,3.5*3A
$GPRMC,152406.000,A,5231.2426,N,01323.7881,E,1.05,203.07,120912,,,A*63
$GPGGA,152407.000,5231.2421,N,01323.7884,E,1,07,1.4,80.0,M,44.8,M,,0000*6B
$GPGSA,A,3,18,22,19,03,06,21,16,,,,,,2.9,1.4,2.6*38
$GPGSV,3,1,12,06,82,195,39,03,72,273,27,18,52,083,32,22,50,157,28*7E
$GPGSV,3,2,12,16,43,206,26,19,43,293,22,21,29,072,23,15,15,046,18*7B
$GPGSV,3,3,12,07,11,298,,08,10,336,17,26,05,011,,11,04,263,*75
$GPRMC,152407.000,A,5231.2421,N,01323.7884,E,1.73,173.14,120912,,,A*67
$GPGGA,152408.000,5231.2417,N,01323.7886,E,1,07,1.4,80.7,M,44.8,M,,0000*64
$GPGSA,A,3,18,22,19,03,06,21,16,,,,,,2.9,1.4,2.6*38
$GPRMC,152408.000,A,5231.2417,N,01323.7886,E,1.33,172.63,120912,,,A*6A
$GPGGA,152409.000,5231.2417,N,01323.7888,E,1,07,1.4,81.0,M,44.8,M,,0000*6D
$GPGSA,A,3,18,22,19,03,06,21,16,,,,,,2.9,1.4,2.6*38
$GPRMC,152412.000,A,5231.2419,N,01323.7882,E,1.42,295.29,120912,,,A*69
$GPGGA,152413.000,5231.2418,N,01323.7878,E,1,06,1.8,81.0,M,44.8,M,,0000*6B
$GPGSA,A,3,18,22,19,03,06,21,,,,,,,3.6,1.8,3.1*3B
$GPRMC,152413.000,A,5231.2418,N,01323.7878,E,1.23,271.97,120912,,,A*64
$GPGGA,152414.000,5231.2417,N,01323.7873,E,1,06,1.8,80.8,M,44.8,M,,0000*61
$GPGSA,A,3,18,22,19,03,06,21,,,,,,,3.6,1.8,3.1*3B
$GPRMC,152414.000,A,5231.2417,N,01323.7873,E,1.18,268.57,120912,,,A*6B
$GPGGA,152415.000,5231.2414,N,01323.7869,E,1,06,1.8,80.5,M,44.8,M,,0000*65
$GPGSA,A,3,18,22,19,03,06,21,,,,,,,3.6,1.8,3.1*3B
$GPRMC,152415.000,A,5231.2414,N,01323.7869,E,1.12,237.03,120912,,,A*63
$GPGGA,152416.000,5231.2410,N,01323.7863,E,1,06,1.8,80.0,M,44.8,M,,0000*6D
$GPGSA,A,3,18,22,19,03,06,21,,,,,,,3.6,1.8,3.1*3B
$GPRMC,152416.000,A,5231.2410,N,01323.7863,E,1.54,225.16,120912,,,A*6B
$GPGGA,152417.000,5231.2406,N,01323.7857,E,1,06,1.4,79.4,M,44.8,M,,0000*62
$GPGSA,A,3,16,22,19,03,06,21,,,,,,,3.1,1.4,2.7*39
$GPGSV,3,1,12,06,82,195,40,03,72,273,29,18,52,083,,22,50,157,28*7F
$GPGSV,3,2,12,16,43,206,31,19,43,293,31,21,29,072,23,15,15,046,23*77
$GPGSV,3,3,12,07,11,298,,08,10,336,,26,05,011,,11,04,263,*73
$GPRMC,152417.000,A,5231.2406,N,01323.7857,E,1.46,236.84,120912,,,A*60
$GPGGA,152418.000,5231.2403,N,01323.7851,E,1,06,1.4,78.4,M,44.8,M,,0000*6F
$GPGSA,A,3,16,22,19,03,06,21,,,,,,,3.1,1.4,2.7*39
$GPRMC,152418.000,A,5231.2403,N,01323.7851,E,1.19,240.30,120912,,,A*68
$GPGGA,152419.000,5231.2402,N,01323.7848,E,1,07,1.3,77.1,M,44.8,M,,0000*6B
$GPGSA,A,3,16,22,19,03,06,07,21,,,,,,2.2,1.3,1.8*37
$GPRMC,152424.000,A,5231.2407,N,01323.7833,E,1.00,353.82,120912,,,A*65
$GPGGA,152425.000,5231.2411,N,01323.7830,E,1,07,1.3,68.9,M,44.8,M,,0000*6F
$GPGSA,A,3,16,22,19,03,06,07,21,,,,,,2.2,1.3,1.8*37
$GPRMC,152425.000,A,5231.2411,N,01323.7830,E,1.27,1.45,120912,,,A*6A
$GPGGA,152426.000,5231.2416,N,01323.7832,E,1,07,1.3,67.6,M,44.8,M,,0000*69
$GPGSA,A,3,16,22,19,03,06,07,21,,,,,,2.2,1.3,1.8*37
$GPRMC,152426.000,A,5231.2416,N,01323.7832,E,2.09,35.19,120912,,,A*5D
$GPGGA,152427.000,5231.2420,N,01323.7834,E,1,07,1.3,66.3,M,44.8,M,,0000*6F
$GPGSA,A,3,16,22,19,03,06,07,21,,,,,,2.2,1.3,1.8*37
$GPGSV,3,1,12,06,82,195,36,03,72,273,35,18,52,083,,22,50,157,32*78
$GPGSV,3,2,12,16,43,206,37,19,43,293,37,21,29,072,17,15,15,046,30*72
$GPGSV,3,3,12,07,11,298,27,08,10,336,,26,05,011,16,11,04,263,*71
$GPRMC,152427.000,A,5231.2420,N,01323.7834,E,1.77,37.40,120912,,,A*5B
$GPGGA,152428.000,5231.2424,N,01323.7834,E,1,07,1.3,65.0,M,44.8,M,,0000*64
$GPGSA,A,3,16,22,19,03,06,07,21,,,,,,2.2,1.3,1.8*37
$GPRMC,152428.000,A,5231.2424,N,01323.7834,E,1.64,29.57,120912,,,A*5B
$GPGGA,152429.000,5231.2428,N,01323.7833,E,1,07,1.3,63.9,M,44.8,M,,0000*61
$GPGSA,A,3,16,22,19,03,06,07,21,,,,,,2.2,1.3,1.8*37
$GPRMC,152429.000,A,5231.2428,N,01323.7833,E,1.61,28.46,120912,,,A*55
$GPGGA,152430.000,5231.2429,N,01323.7828,E,1,07,1.3,62.9,M,44.8,M,,0000*63
$GPGSA,A,3,16,22,19,03,06,07,21,,,,,,2.2,1.3,1.8*37
$GPRMC,152432.000,A,5231.2428,N,01323.7812,E,0.91,260.99,120912,,,A*6E
$GPGGA,152433.000,5231.2428,N,01323.7802,E,1,07,1.3,60.2,M,44.8,M,,0000*60
$GPGSA,A,3,16,22,19,03,06,07,21,,,,,,2.2,1.3,1.8*37
$GPRMC,152433.000,A,5231.2428,N,01323.7802,E,1.11,283.75,120912,,,A*68
$GPGGA,152434.000,5231.2425,N,01323.7793,E,1,07,1.3,59.3,M,44.8,M,,0000*66
$GPGSA,A,3,16,22,19,03,06,07,21,,,,,,2.2,1.3,1.8*37
$GPRMC,152434.000,A,5231.2425,N,01323.7793,E,0.99,214.08,120912,,,A*60
$GPGGA,152435.000,5231.2423,N,01323.7785,E,1,07,1.3,58.2,M,44.8,M,,0000*66
$GPGSA,A,3,16,22,19,03,06,07,21,,,,,,2.2,1.3,1.8*37
