$GPGGA,111247.000,6409.2985,N,01931.5821,W,1,09,0.9,304.6,M,60.4,M,,0000*44
$GPGSA,A,3,25,29,30,23,02,14,31,12,04,,,,1.6,0.9,1.3*32
$GPGSV,3,1,12,31,69,240,40,29,56,139,20,25,56,099,27,02,26,051,31*77
$GPGSV,3,2,12,30,26,257,26,12,18,084,28,23,18,328,27,14,11,195,30*7B
$GPGSV,3,3,12,04,09,010,32,20,08,303,20,10,05,030,26,32,04,277,32*7A
$GPRMC,111247.000,A,6409.2985,N,01931.5821,W,25.94,281.05,310812,,,A*48
$GPGGA,111248.000,6409.3000,N,01931.5987,W,1,09,0.9,304.8,M,60.4,M,,0000*4D
$GPGSA,A,3,25,29,30,23,02,14,31,12,04,,,,1.6,0.9,1.3*32
$GPRMC,111248.000,A,6409.3000,N,01931.5987,W,26.67,281.42,310812,,,A*43
$GPGGA,111249.000,6409.3016,N,01931.6159,W,1,09,0.9,304.9,M,60.4,M,,0000*42
$GPGSA,A,3,25,29,30,23,02,14,31,12,04,,,,1.6,0.9,1.3*32
$GPRMC,111249.000,A,6409.3016,N,01931.6159,W,27.56,281.31,310812,,,A*4A
$GPGGA,111250.000,6409.3031,N,01931.6332,W,1,09,0.9,305.1,M,60.4,M,,0000*49
$GPGSA,A,3,25,29,30,23,02,14,31,12,04,,,,1.6,0.9,1.3*32
$GPRMC,111250.000,A,6409.3031,N,01931.6332,W,27.84,281.61,310812,,,A*42
$GPGGA,111251.000,6409.3047,N,01931.6507,W,1,09,0.9,305.2,M,60.4,M,,0000*4A
$GPGSA,A,3,25,29,30,23,02,14,31,12,04,,,,1.6,0.9,1.3*32
$GPRMC,111251.000,A,6409.3047,N,01931.6507,W,28.31,281.65,310812,,,A*47
$GPGGA,111252.000,6409.3063,N,01931.6690,W,1,09,0.9,305.2,M,60.4,M,,0000*42
$GPGSA,A,3,25,29,30,23,02,14,31,12,04,,,,1.6,0.9,1.3*32
$GPGSV,3,1,12,31,69,240,40,29,56,139,29,25,56,099,29,02,26,051,30*71
$GPGSV,3,2,12,30,26,257,27,12,18,084,28,23,18,328,21,14,11,195,23*7E
$GPGSV,3,3,12,04,09,010,22,20,08,303,22,10,05,030,30,32,04,277,35*79
$GPRMC,111252.000,A,6409.3063,N,01931.6690,W,29.22,280.83,310812,,,A*45
$GPGGA,111253.000,6409.3078,N,01931.6879,W,1,09,0.9,305.1,M,60.4,M,,0000*43
$GPGSA,A,3,25,29,30,23,02,14,31,12,04,,,,1.6,0.9,1.3*32
$GPRMC,111253.000,A,6409.3078,N,01931.6879,W,30.24,280.55,310812,,,A*42
$GPGGA,111254.000,6409.3094,N,01931.7073,W,1,09,0.9,305.2,M,60.4,M,,0000*46
$GPGSA,A,3,25,29,30,23,02,14,31,12,04,,,,1.6,0.9,1.3*32
$GPRMC,111254.000,A,6409.3094,N,01931.7073,W,31.10,280.40,310812,,,A*46
$GPGGA,111255.000,6409.3111,N,01931.7274,W,1,09,0.9,305.2,M,60.4,M,,0000*4E
$GPGSA,A,3,25,29,30,23,02,14,31,12,04,,,,1.6,0.9,1.3*32
$GPRMC,111255.000,A,6409.3111,N,01931.7274,W,32.04,280.85,310812,,,A*41
$GPGGA,111256.000,6409.3127,N,01931.7479,W,1,09,0.9,305.0,M,60.4,M,,0000*41
$GPGSA,A,3,25,29,30,23,02,14,31,12,04,,,,1.6,0.9,1.3*32
$GPRMC,111256.000,A,6409.3127,N,01931.7479,W,32.68,280.43,310812,,,A*4C
$GPGGA,111257.000,6409.3145,N,01931.7689,W,1,09,0.9,304.9,M,60.4,M,,0000*41
$GPGSA,A,3,25,29,30,23,02,14,31,12,04,,,,1.6,0.9,1.3*32
$GPGSV,3,1,12,31,69,240,40,29,56,139,26,25,56,099,29,02,26,051,27*78
$GPGSV,3,2,12,30,26,257,27,12,18,084,29,23,18,328,22,14,11,195,24*7B
$GPGSV,3,3,12,04,09,010,27,20,08,303,22,10,05,030,27,32,04,277,35*7A
$GPRMC,111257.000,A,6409.3145,N,01931.7689,W,33.38,280.66,310812,,,A*47
$GPGGA,111258.000,6409.3164,N,01931.7902,W,1,09,0.9,304.7,M,60.4,M,,0000*4F
$GPGSA,A,3,25,29,30,23,02,14,31,12,04,,,,1.6,0.9,1.3*32
$GPRMC,111258.000,A,6409.3164,N,01931.7902,W,34.01,281.50,310812,,,A*4E
$GPGGA,111259.000,6409.3183,N,01931.8119,W,1,09,0.9,304.5,M,60.4,M,,0000*48
$GPGSA,A,3,25,29,30,23,02,14,31,12,04,,,,1.6,0.9,1.3*32
$GPRMC,111259.000,A,6409.3183,N,01931.8119,W,34.74,281.56,310812,,,A*4F
$GPGGA,111300.000,6409.3204,N,01931.8342,W,1,09,0.9,304.3,M,60.4,M,,0000*43
$GPGSA,A,3,25,29,30,23,02,14,31,12,04,,,,1.6,0.9,1.3*32
$GPRMC,111300.000,A,6409.3204,N,01931.8342,W,35.53,281.70,310812,,,A*42
$GPGGA,111301.000,6409.3224,N,01931.8564,W,1,08,0.9,304.0,M,60.4,M,,0000*40
$GPGSA,A,3,25,29,30,23,02,14,31,12,,,,,1.6,0.9,1.4*31
$GPRMC,111301.000,A,6409.3224,N,01931.8564,W,35.48,281.53,310812,,,A*48
$GPGGA,111302.000,6409.3243,N,01931.8787,W,1,08,0.9,303.7,M,60.4,M,,0000*4D
$GPGSA,A,3,25,29,30,23,02,14,31,12,,,,,1.6,0.9,1.4*31
$GPGSV,3,1,12,31,69,240,40,29,56,139,25,25,56,099,28,02,26,051,33*7F
$GPGSV,3,2,12,30,26,257,27,12,18,084,29,23,18,328,27,14,11,195,23*79
$GPGSV,3,3,12,04,09,010,31,20,08,303,22,10,05,030,22,32,04,277,32*7F
$GPRMC,111302.000,A,6409.3243,N,01931.8787,W,35.47,281.14,310812,,,A*49
$GPGGA,111303.000,6409.3263,N,01931.9013,W,1,08,0.9,303.5,M,60.4,M,,0000*47
$GPGSA,A,3,25,29,30,23,02,14,31,12,,,,,1.6,0.9,1.4*31
$GPRMC,111303.000,A,6409.3263,N,01931.9013,W,36.01,281.52,310812,,,A*42
$GPGGA,111304.000,6409.3283,N,01931.9242,W,1,08,0.9,303.2,M,60.4,M,,0000*4F
$GPGSA,A,3,25,29,30,23,02,14,31,12,,,,,1.6,0.9,1.4*31
$GPRMC,111304.000,A,6409.3283,N,01931.9242,W,36.60,281.42,310812,,,A*4B
$GPGGA,111305.000,6409.3304,N,01931.9474,W,1,08,0.9,303.0,M,60.4,M,,0000*41
$GPGSA,A,3,25,29,30,23,02,14,31,12,,,,,1.6,0.9,1.4*31
$GPRMC,111305.000,A,6409.3304,N,01931.9474,W,37.06,281.35,310812,,,A*46
$GPGGA,111306.000,6409.3326,N,01931.9710,W,1,07,1.0,302.8,M,60.4,M,,0000*4D
$GPGSA,A,3,25,30,23,02,14,31,12,,,,,,1.8,1.0,1.5*3D
$GPRMC,111306.000,A,6409.3326,N,01931.9710,W,37.78,282.04,310812,,,A*4C
$GPGGA,111307.000,6409.3349,N,01931.9950,W,1,08,0.9,302.6,M,60.4,M,,0000*46
$GPGSA,A,3,25,29,30,23,02,14,31,12,,,,,1.6,0.9,1.4*31
$GPGSV,3,1,12,31,69,240,41,29,56,139,15,25,56,099,28,02,26,051,33*7D
$GPGSV,3,2,12,30,26,257,27,12,18,084,29,23,18,328,22,14,11,195,22*7D
$GPGSV,3,3,12,04,09,010,26,20,08,303,27,10,05,030,,32,04,277,27*78
$GPRMC,111307.000,A,6409.3349,N,01931.9950,W,38.44,282.43,310812,,,A*4D
$GPGGA,111308.000,6409.3371,N,01932.0192,W,1,08,0.9,302.4,M,60.4,M,,0000*4C
$GPGSA,A,3,25,29,30,23,02,14,31,12,,,,,1.6,0.9,1.4*31
$GPRMC,111308.000,A,6409.3371,N,01932.0192,W,38.72,281.61,310812,,,A*43
$GPGGA,111309.000,6409.3391,N,01932.0436,W,1,08,0.9,302.2,M,60.4,M,,0000*4E
$GPGSA,A,3,25,29,30,23,02,14,31,12,,,,,1.6,0.9,1.4*31
$GPRMC,111309.000,A,6409.3391,N,01932.0436,W,38.83,280.74,310812,,,A*4C
$GPGGA,111310.000,6409.3412,N,01932.0683,W,1,08,0.9,302.0,M,60.4,M,,0000*44
$GPGSA,A,3,25,29,30,23,02,14,31,12,,,,,1.6,0.9,1.4*31
$GPRMC,111310.000,A,6409.3412,N,01932.0683,W,39.35,280.59,310812,,,A*47
$GPGGA,111311.000,6409.3433,N,01932.0932,W,1,08,0.9,301.7,M,60.4,M,,0000*47
$GPGSA,A,3,25,29,30,23,02,14,31,12,,,,,1.6,0.9,1.4*31
$GPRMC,111311.000,A,6409.3433,N,01932.0932,W,39.85,280.70,310812,,,A*40
$GPGGA,111312.000,6409.3454,N,01932.1184,W,1,08,0.9,301.4,M,60.4,M,,0000*42
$GPGSA,A,3,25,29,30,23,02,14,31,12,,,,,1.6,0.9,1.4*31
$GPGSV,3,1,12,31,69,240,41,29,56,139,15,25,56,099,28,02,26,051,32*7C
$GPGSV,3,2,12,30,26,257,27,12,18,084,30,23,18,328,22,14,11,195,22*75
$GPGSV,3,3,12,04,09,010,28,20,08,303,26,10,05,030,25,32,04,277,28*7F
$GPRMC,111312.000,A,6409.3454,N,01932.1184,W,40.26,280.69,310812,,,A*49
$GPGGA,111313.000,6409.3475,N,01932.1439,W,1,08,0.9,301.2,M,60.4,M,,0000*45
$GPGSA,A,3,25,29,30,23,02,14,31,12,,,,,1.6,0.9,1.4*31
$GPRMC,111313.000,A,6409.3475,N,01932.1439,W,40.70,280.97,310812,,,A*4A
$GPGGA,111314.000,6409.3497,N,01932.1696,W,1,08,0.9,300.9,M,60.4,M,,0000*43
$GPGSA,A,3,25,29,30,23,02,14,31,12,,,,,1.6,0.9,1.4*31
$GPRMC,111314.000,A,6409.3497,N,01932.1696,W,41.09,280.96,310812,,,A*48
$GPGGA,111315.000,6409.3518,N,01932.1954,W,1,08,0.9,300.6,M,60.4,M,,0000*4A
$GPGSA,A,3,25,29,30,23,02,14,31,12,,,,,1.6,0.9,1.4*31
$GPRMC,111315.000,A,6409.3518,N,01932.1954,W,41.25,280.64,310812,,,A*4D
$GPGGA,111316.000,6409.3538,N,01932.2212,W,1,08,0.9,300.3,M,60.4,M,,0000*44
$GPGSA,A,3,25,29,30,23,02,14,31,12,,,,,1.6,0.9,1.4*31
$GPRMC,111316.000,A,6409.3538,N,01932.2212,W,41.28,280.01,310812,,,A*48
$GPGGA,111317.000,6409.3558,N,01932.2472,W,1,08,0.9,300.1,M,60.4,M,,0000*41
$GPGSA,A,3,25,29,30,23,02,14,31,12,,,,,1.6,0.9,1.4*31
$GPGSV,3,1,12,31,69,239,41,29,56,139,18,25,55,099,28,30,26,257,27*7D
$GPGSV,3,2,12,02,26,050,32,12,18,084,30,23,18,328,22,14,11,195,19*7D
$GPGSV,3,3,12,04,09,010,29,20,07,303,27,10,05,030,25,32,04,277,28*70
$GPRMC,111317.000,A,6409.3558,N,01932.2472,W,41.58,280.46,310812,,,A*4B
$GPGGA,111318.000,6409.3580,N,01932.2733,W,1,08,0.9,299.9,M,60.4,M,,0000*44
$GPGSA,A,3,25,29,30,23,02,14,31,12,,,,,1.6,0.9,1.4*31
$GPRMC,111318.000,A,6409.3580,N,01932.2733,W,41.82,280.83,310812,,,A*49
$GPGGA,111319.000,6409.3604,N,01932.2996,W,1,08,0.9,299.7,M,60.4,M,,0000*45
$GPGSA,A,3,25,29,30,23,02,14,31,12,,,,,1.6,0.9,1.4*31
$GPRMC,111319.000,A,6409.3604,N,01932.2996,W,42.21,281.67,310812,,,A*47
$GPGGA,111320.000,6409.3629,N,01932.3257,W,1,08,0.9,299.6,M,60.4,M,,0000*46
$GPGSA,A,3,25,29,30,23,02,14,31,12,,,,,1.6,0.9,1.4*31
$GPRMC,111320.000,A,6409.3629,N,01932.3257,W,42.00,282.34,310812,,,A*43
$GPGGA,111321.000,6409.3653,N,01932.3515,W,1,08,0.9,299.6,M,60.4,M,,0000*4B
$GPGSA,A,3,25,29,30,23,02,14,31,12,,,,,1.6,0.9,1.4*31
$GPRMC,111321.000,A,6409.3653,N,01932.3515,W,41.35,282.02,310812,,,A*4E
$GPGGA,111322.000,6409.3675,N,01932.3767,W,1,08,0.9,299.6,M,60.4,M,,0000*4B
$GPGSA,A,3,25,29,30,23,02,14,31,12,,,,,1.6,0.9,1.4*31
$GPGSV,3,1,12,31,69,239,41,29,56,139,27,25,55,099,28,30,26,257,27*71
$GPGSV,3,2,12,02,26,050,32,12,18,084,30,23,18,328,29,14,11,195,20*7C
$GPGSV,3,3,12,04,09,010,29,20,07,303,27,10,05,030,34,32,04,277,31*78
$GPRMC,111322.000,A,6409.3675,N,01932.3767,W,40.42,281.24,310812,,,A*48
$GPGGA,111323.000,6409.3697,N,01932.4014,W,1,08,0.9,299.6,M,60.4,M,,0000*42
$GPGSA,A,3,25,29,30,23,02,14,31,12,,,,,1.6,0.9,1.4*31
$GPRMC,111323.000,A,6409.3697,N,01932.4014,W,39.55,281.30,310812,,,A*4C
$GPGGA,111324.000,6409.3719,N,01932.4255,W,1,08,0.9,299.7,M,60.4,M,,0000*44
$GPGSA,A,3,25,29,30,23,02,14,31,12,,,,,1.6,0.9,1.4*31
$GPRMC,111324.000,A,6409.3719,N,01932.4255,W,38.71,281.50,310812,,,A*4A
$GPGGA,111325.000,6409.3741,N,01932.4492,W,1,08,0.9,299.8,M,60.4,M,,0000*4A
$GPGSA,A,3,25,29,30,23,02,14,31,12,,,,,1.6,0.9,1.4*31
$GPRMC,111325.000,A,6409.3741,N,01932.4492,W,37.93,281.49,310812,,,A*40
$GPGGA,111326.000,6409.3761,N,01932.4724,W,1,08,0.9,299.9,M,60.4,M,,0000*44
$GPGSA,A,3,25,29,30,23,02,14,31,12,,,,,1.6,0.9,1.4*31
$GPRMC,111326.000,A,6409.3761,N,01932.4724,W,37.18,281.36,310812,,,A*44
$GPGGA,111327.000,6409.3783,N,01932.4950,W,1,07,1.0,300.2,M,60.4,M,,0000*49
$GPGSA,A,3,25,29,23,02,14,31,12,,,,,,1.7,1.0,1.4*3B
$GPGSV,3,1,12,31,69,239,40,29,56,139,27,25,55,099,27,30,26,257,19*72
$GPGSV,3,2,12,02,26,050,26,12,18,084,29,23,18,328,30,14,11,195,20*79
$GPGSV,3,3,12,04,09,010,33,20,07,303,27,10,05,030,33,32,04,277,29*7D
$GPRMC,111327.000,A,6409.3783,N,01932.4950,W,36.26,281.83,310812,,,A*46
$GPGGA,111328.000,6409.3803,N,01932.5166,W,1,08,0.9,300.5,M,60.4,M,,0000*4D
$GPGSA,A,3,25,29,30,23,02,14,31,12,,,,,1.6,0.9,1.4*31
$GPRMC,111328.000,A,6409.3803,N,01932.5166,W,34.51,281.11,310812,,,A*4B
$GPGGA,111329.000,6409.3821,N,01932.5366,W,1,08,0.9,300.7,M,60.4,M,,0000*4C
$GPGSA,A,3,25,29,30,23,02,14,31,12,,,,,1.6,0.9,1.4*31
$GPRMC,111329.000,A,6409.3821,N,01932.5366,W,31.83,281.58,310812,,,A*4F
$GPGGA,111330.000,6409.3837,N,01932.5551,W,1,08,0.9,300.9,M,60.4,M,,0000*4F
$GPGSA,A,3,25,29,30,23,02,14,31,12,,,,,1.6,0.9,1.4*31
$GPRMC,111330.000,A,6409.3837,N,01932.5551,W,29.45,281.02,310812,,,A*4E
$GPGGA,111331.000,6409.3852,N,01932.5724,W,1,08,0.9,301.0,M,60.4,M,,0000*45
$GPGSA,A,3,25,29,30,23,02,14,31,12,,,,,1.6,0.9,1.4*31
$GPRMC,111331.000,A,6409.3852,N,01932.5724,W,27.40,280.07,310812,,,A*43
$GPGGA,111332.000,6409.3863,N,01932.5874,W,1,08,0.9,301.1,M,60.4,M,,0000*4F
$GPGSA,A,3,25,29,30,23,02,14,31,12,,,,,1.6,0.9,1.4*31
$GPGSV,3,1,12,31,69,239,41,29,56,139,21,25,55,099,27,30,26,257,18*74
$GPGSV,3,2,12,02,26,050,29,12,18,084,28,23,18,328,24,14,11,195,24*76
$GPGSV,3,3,12,04,09,010,33,20,07,303,28,10,05,030,30,32,04,277,20*78
$GPRMC,111332.000,A,6409.3863,N,01932.5874,W,23.71,279.99,310812,,,A*4F
$GPGGA,111333.000,6409.3875,N,01932.5993,W,1,08,0.9,301.2,M,60.4,M,,0000*42
$GPGSA,A,3,25,29,30,23,02,14,31,12,,,,,1.6,0.9,1.4*31
$GPRMC,111333.000,A,6409.3875,N,01932.5993,W,18.99,282.36,310812,,,A*4E
$GPGGA,111334.000,6409.3886,N,01932.6087,W,1,08,0.9,301.2,M,60.4,M,,0000*46
$GPGSA,A,3,25,29,30,23,02,14,31,12,,,,,1.6,0.9,1.4*31
$GPRMC,111334.000,A,6409.3886,N,01932.6087,W,15.03,284.94,310812,,,A*4A
$GPGGA,111335.000,6409.3895,N,01932.6152,W,1,08,0.9,301.2,M,60.4,M,,0000*4C
$GPGSA,A,3,25,29,30,23,02,14,31,12,,,,,1.6,0.9,1.4*31
$GPRMC,111335.000,A,6409.3895,N,01932.6152,W,10.68,287.52,310812,,,A*41
$GPGGA,111336.000,6409.3901,N,01932.6195,W,1,08,0.9,301.3,M,60.4,M,,0000*49
$GPGSA,A,3,25,29,30,23,02,14,31,12,,,,,1.6,0.9,1.4*31
$GPRMC,111336.000,A,6409.3901,N,01932.6195,W,6.96,286.67,310812,,,A*74
$GPGGA,111337.000,6409.3903,N,01932.6222,W,1,08,0.9,301.4,M,60.4,M,,0000*42
$GPGSA,A,3,25,29,30,23,02,14,31,12,,,,,1.6,0.9,1.4*31
$GPGSV,3,1,12,31,69,239,38,29,56,139,27,25,55,099,22,30,26,257,30*73
$GPGSV,3,2,12,02,26,050,33,12,18,084,30,23,18,328,31,14,11,195,29*7D
$GPGSV,3,3,12,04,09,010,29,20,07,303,29,10,05,030,27,32,04,277,29*7D
$GPRMC,111337.000,A,6409.3903,N,01932.6222,W,4.32,282.60,310812,,,A*77
$GPGGA,111338.000,6409.3904,N,01932.6232,W,1,08,0.9,301.4,M,60.4,M,,0000*4B
$GPGSA,A,3,25,29,30,23,02,14,31,12,,,,,1.6,0.9,1.4*31
$GPRMC,111338.000,A,6409.3904,N,01932.6232,W,1.55,277.87,310812,,,A*79
$GPGGA,111339.000,6409.3903,N,01932.6233,W,1,08,0.9,301.4,M,60.4,M,,0000*4C
$GPGSA,A,3,25,29,30,23,02,14,31,12,,,,,1.6,0.9,1.4*31
$GPRMC,111440.000,A,6409.3904,N,01932.6198,W,1.45,275.75,310812,,,A*7C
$GPGGA,111441.000,6409.3905,N,01932.6228,W,1,08,0.9,303.8,M,60.4,M,,0000*46
$GPGSA,A,3,25,29,30,23,02,14,31,12,,,,,1.6,0.9,1.3*36
$GPRMC,111441.000,A,6409.3905,N,01932.6228,W,4.85,274.47,310812,,,A*7D
$GPGGA,111442.000,6409.3906,N,01932.6277,W,1,07,0.9,303.8,M,60.4,M,,0000*43
$GPGSA,A,3,29,30,23,02,14,31,12,,,,,,1.7,0.9,1.5*36
$GPGSV,3,1,12,31,69,239,41,29,56,139,34,25,55,099,21,30,26,257,29*74
$GPGSV,3,2,12,02,26,050,33,12,18,084,29,23,18,328,32,14,11,195,24*7B
$GPGSV,3,3,12,04,09,010,31,20,07,303,24,10,05,030,29,32,04,277,33*7C
$GPRMC,111442.000,A,6409.3906,N,01932.6277,W,7.92,273.14,310812,,,A*73
$GPGGA,111443.000,6409.3909,N,01932.6344,W,1,08,0.9,303.8,M,60.4,M,,0000*43
$GPGSA,A,3,25,29,30,23,02,14,31,12,,,,,1.6,0.9,1.3*36
$GPRMC,111443.000,A,6409.3909,N,01932.6344,W,10.77,275.70,310812,,,A*45
$GPGGA,111444.000,6409.3915,N,01932.6422,W,1,08,0.9,303.8,M,60.4,M,,0000*4E
$GPGSA,A,3,25,29,30,23,02,14,31,12,,,,,1.6,0.9,1.3*36
$GPRMC,111444.000,A,6409.3915,N,01932.6422,W,12.69,279.68,310812,,,A*40
$GPGGA,111445.000,6409.3923,N,01932.6516,W,1,08,0.9,303.9,M,60.4,M,,0000*4D
$GPGSA,A,3,25,29,30,23,02,14,31,12,,,,,1.6,0.9,1.3*36
$GPRMC,111445.000,A,6409.3923,N,01932.6516,W,15.37,280.10,310812,,,A*47
$GPGGA,111446.000,6409.3932,N,01932.6628,W,1,08,0.9,303.9,M,60.4,M,,0000*40
$GPGSA,A,3,25,29,30,23,02,14,31,12,,,,,1.6,0.9,1.3*36
$GPRMC,111446.000,A,6409.3932,N,01932.6628,W,18.14,280.22,310812,,,A*47
$GPGGA,111447.000,6409.3942,N,01932.6747,W,1,08,0.9,303.9,M,60.4,M,,0000*4E
$GPGSA,A,3,25,29,30,23,02,14,31,12,,,,,1.6,0.9,1.3*36
$GPGSV,3,1,12,31,69,239,40,29,56,139,31,25,55,099,27,30,26,257,24*7B
$GPGSV,3,2,12,02,26,050,34,12,18,084,27,23,18,328,26,14,11,195,28*7B
$GPGSV,3,3,12,04,09,010,23,20,07,303,21,10,05,030,24,32,04,277,29*7C
$GPRMC,111447.000,A,6409.3942,N,01932.6747,W,19.48,281.00,310812,,,A*40
$GPGGA,111448.000,6409.3953,N,01932.6877,W,1,08,0.9,304.0,M,60.4,M,,0000*43
$GPGSA,A,3,25,29,30,23,02,14,31,12,,,,,1.6,0.9,1.3*36
$GPRMC,111448.000,A,6409.3953,N,01932.6877,W,21.06,280.95,310812,,,A*4F
$GPGGA,111449.000,6409.3966,N,01932.7020,W,1,08,0.9,304.0,M,60.4,M,,0000*4F
$GPGSA,A,3,25,29,30,23,02,14,31,12,,,,,1.6,0.9,1.3*36
$GPRMC,111449.000,A,6409.3966,N,01932.7020,W,23.34,281.22,310812,,,A*4D
$GPGGA,111450.000,6409.3979,N,01932.7177,W,1,08,0.9,304.1,M,60.4,M,,0000*4B
$GPGSA,A,3,25,29,30,23,02,14,31,12,,,,,1.6,0.9,1.3*36
$GPRMC,111450.000,A,6409.3979,N,01932.7177,W,25.43,280.92,310812,,,A*44
$GPGGA,111451.000,6409.3992,N,01932.7339,W,1,08,0.9,304.0,M,60.4,M,,0000*46
$GPGSA,A,3,25,29,30,23,02,14,31,12,,,,,1.6,0.9,1.3*36
$GPRMC,111451.000,A,6409.3992,N,01932.7339,W,26.19,280.67,310812,,,A*4E
$GPGGA,111452.000,6409.4007,N,01932.7505,W,1,08,0.9,303.8,M,60.4,M,,0000*41
$GPGSA,A,3,25,29,30,23,02,14,31,12,,,,,1.6,0.9,1.3*36
$GPGSV,3,1,12,31,69,239,41,29,56,139,29,25,55,099,25,30,26,257,27*72
$GPGSV,3,2,12,02,26,050,29,12,18,084,28,23,18,328,27,14,11,195,27*76
$GPGSV,3,3,12,04,09,010,35,20,07,303,22,10,05,030,25,32,04,277,34*75
$GPRMC,111452.000,A,6409.4007,N,01932.7505,W,26.66,281.38,310812,,,A*45
$GPGGA,111453.000,6409.4021,N,01932.7675,W,1,08,0.9,303.6,M,60.4,M,,0000*4E
$GPGSA,A,3,25,29,30,23,02,14,31,12,,,,,1.6,0.9,1.3*36
$GPRMC,111453.000,A,6409.4021,N,01932.7675,W,27.34,280.82,310812,,,A*42
$GPGGA,111454.000,6409.4036,N,01932.7850,W,1,08,0.9,303.4,M,60.4,M,,0000*44
$GPGSA,A,3,25,29,30,23,02,14,31,12,,,,,1.6,0.9,1.3*36
$GPRMC,111454.000,A,6409.4036,N,01932.7850,W,28.03,281.03,310812,,,A*49
$GPGGA,111455.000,6409.4052,N,01932.8027,W,1,08,0.9,303.1,M,60.4,M,,0000*45
$GPGSA,A,3,25,29,30,23,02,14,31,12,,,,,1.6,0.9,1.3*36
$GPRMC,111455.000,A,6409.4052,N,01932.8027,W,28.37,281.62,310812,,,A*4D
$GPGGA,111456.000,6409.4066,N,01932.8205,W,1,08,0.9,302.8,M,60.4,M,,0000*4B
$GPGSA,A,3,25,29,30,23,02,14,31,12,,,,,1.6,0.9,1.3*36
$GPRMC,111456.000,A,6409.4066,N,01932.8205,W,28.26,280.36,310812,,,A*4B
$GPGGA,111457.000,6409.4082,N,01932.8382,W,1,08,0.9,302.7,M,60.4,M,,0000*41
$GPGSA,A,3,25,29,30,23,02,14,31,12,,,,,1.6,0.9,1.3*36
$GPGSV,3,1,12,31,69,239,40,29,56,139,30,25,55,099,16,30,26,257,17*78
$GPGSV,3,2,12,02,26,050,33,12,18,084,26,23,18,328,30,14,11,195,23*71
$GPGSV,3,3,12,04,09,010,29,20,07,303,23,10,05,030,32,32,04,277,31*7A
$GPRMC,111457.000,A,6409.4082,N,01932.8382,W,28.29,281.26,310812,,,A*41
$GPGGA,111458.000,6409.4099,N,01932.8560,W,1,08,0.9,302.6,M,60.4,M,,0000*4F
$GPGSA,A,3,25,29,30,23,02,14,31,12,,,,,1.6,0.9,1.3*36
$GPRMC,111458.000,A,6409.4099,N,01932.8560,W,28.39,282.36,310812,,,A*4D
$GPGGA,111459.000,6409.4115,N,01932.8739,W,1,08,0.9,302.4,M,60.4,M,,0000*47
$GPGSA,A,3,25,29,30,23,02,14,31,12,,,,,1.6,0.9,1.3*36
$GPRMC,111459.000,A,6409.4115,N,01932.8739,W,28.65,281.73,310812,,,A*4C
$GPGGA,111500.000,6409.4130,N,01932.8919,W,1,08,0.9,302.2,M,60.4,M,,0000*47
$GPGSA,A,3,25,29,30,23,02,14,31,12,,,,,1.6,0.9,1.3*36
$GPRMC,111500.000,A,6409.4130,N,01932.8919,W,28.76,280.92,310812,,,A*46
$GPGGA,111501.000,6409.4145,N,01932.9102,W,1,08,0.9,302.2,M,60.4,M,,0000*47
$GPGSA,A,3,25,29,30,23,02,14,31,12,,,,,1.6,0.9,1.3*36
$GPRMC,111501.000,A,6409.4145,N,01932.9102,W,29.16,280.98,310812,,,A*4B
$GPGGA,111502.000,6409.4161,N,01932.9291,W,1,08,0.9,302.2,M,60.4,M,,0000*4B
$GPGSA,A,3,25,29,30,23,02,14,31,12,,,,,1.6,0.9,1.3*36
$GPGSV,3,1,12,31,69,239,39,29,56,139,30,25,55,099,26,30,26,257,24*75
$GPGSV,3,2,12,02,26,050,33,12,18,084,27,23,18,328,28,14,11,195,23*79
$GPGSV,3,3,12,04,09,010,26,20,07,303,25,10,05,030,25,32,04,277,31*75
$GPRMC,111502.000,A,6409.4161,N,01932.9291,W,30.28,281.07,310812,,,A*45
$GPGGA,111503.000,6409.4177,N,01932.9488,W,1,08,0.9,302.1,M,60.4,M,,0000*40
$GPGSA,A,3,25,29,30,23,02,14,31,12,,,,,1.6,0.9,1.3*36
$GPRMC,111503.000,A,6409.4177,N,01932.9488,W,31.61,281.34,310812,,,A*41
$GPGGA,111504.000,6409.4195,N,01932.9693,W,1,08,0.9,301.8,M,60.4,M,,0000*49
$GPGSA,A,3,25,29,30,23,02,14,31,12,,,,,1.6,0.9,1.3*36
$GPRMC,111504.000,A,6409.4195,N,01932.9693,W,32.83,281.60,310812,,,A*4C
$GPGGA,111505.000,6409.4213,N,01932.9905,W,1,08,0.9,301.5,M,60.4,M,,0000*48
$GPGSA,A,3,25,29,30,23,02,14,31,12,,,,,1.6,0.9,1.3*36
$GPRMC,111505.000,A,6409.4213,N,01932.9905,W,33.80,281.34,310812,,,A*43
$GPGGA,111506.000,6409.4230,N,01933.0122,W,1,08,0.9,301.2,M,60.4,M,,0000*48
$GPGSA,A,3,25,29,30,23,02,14,31,12,,,,,1.6,0.9,1.3*36
$GPRMC,111506.000,A,6409.4230,N,01933.0122,W,34.57,280.76,310812,,,A*4E
$GPGGA,111507.000,6409.4247,N,01933.0339,W,1,07,1.4,300.9,M,60.4,M,,0000*48
$GPGSA,A,3,25,29,30,23,02,31,12,,,,,,2.5,1.4,2.1*3E
$GPGSV,3,1,12,31,69,239,39,29,56,139,25,25,55,099,27,30,26,257,18*7F
$GPGSV,3,2,12,02,26,050,32,12,18,084,23,23,18,328,23,14,11,195,18*7F
$GPGSV,3,3,12,04,09,010,30,20,07,303,23,10,05,030,25,32,04,277,30*75
$GPRMC,111507.000,A,6409.4247,N,01933.0339,W,34.57,280.73,310812,,,A*42
$GPGGA,111508.000,6409.4265,N,01933.0558,W,1,07,1.4,300.6,M,60.4,M,,0000*49
$GPGSA,A,3,25,29,30,23,02,31,12,,,,,,2.5,1.4,2.1*3E
$GPRMC,111508.000,A,6409.4265,N,01933.0558,W,34.95,280.73,310812,,,A*42
$GPGGA,111509.000,6409.4283,N,01933.0784,W,1,07,1.4,300.3,M,60.4,M,,0000*46
$GPGSA,A,3,25,29,30,23,02,31,12,,,,,,2.5,1.4,2.1*3E
$GPRMC,111509.000,A,6409.4283,N,01933.0784,W,36.03,280.60,310812,,,A*47
$GPGGA,111510.000,6409.4302,N,01933.1016,W,1,07,1.4,300.0,M,60.4,M,,0000*48
$GPGSA,A,3,25,29,30,23,02,31,12,,,,,,2.5,1.4,2.1*3E
$GPRMC,111510.000,A,6409.4302,N,01933.1016,W,37.13,281.34,310812,,,A*4A
$GPGGA,111511.000,6409.4322,N,01933.1255,W,1,06,2.0,299.6,M,60.4,M,,0000*4F
$GPGSA,A,3,25,29,30,02,31,12,,,,,,,2.9,2.0,2.1*34
$GPRMC,111511.000,A,6409.4322,N,01933.1255,W,38.20,281.19,310812,,,A*4C
$GPGGA,111512.000,6409.4343,N,01933.1498,W,1,07,1.4,299.3,M,60.4,M,,0000*4F
$GPGSA,A,3,25,29,30,23,02,31,12,,,,,,2.5,1.4,2.1*3E
$GPGSV,3,1,12,31,69,239,40,29,56,139,26,25,55,099,32,30,26,257,24*79
$GPGSV,3,2,12,02,26,050,25,12,18,084,25,23,18,328,32,14,11,195,*76
$GPGSV,3,3,12,04,09,010,27,20,07,303,22,10,05,030,26,32,04,277,26*76
$GPRMC,111512.000,A,6409.4343,N,01933.1498,W,38.87,281.22,310812,,,A*4A
$GPGGA,111513.000,6409.4364,N,01933.1744,W,1,08,0.9,299.0,M,60.4,M,,0000*49
$GPGSA,A,3,25,29,30,23,02,14,31,12,,,,,1.6,0.9,1.3*36
$GPRMC,111513.000,A,6409.4364,N,01933.1744,W,39.22,281.59,310812,,,A*4E
$GPGGA,111514.000,6409.4387,N,01933.1991,W,1,07,1.4,298.7,M,60.4,M,,0000*40
$GPGSA,A,3,25,29,30,23,02,31,12,,,,,,2.5,1.4,2.1*3E
$GPRMC,111514.000,A,6409.4387,N,01933.1991,W,39.69,282.13,310812,,,A*40
$GPGGA,111515.000,6409.4409,N,01933.2241,W,1,07,1.4,298.4,M,60.4,M,,0000*46
$GPGSA,A,3,25,29,30,23,02,31,12,,,,,,2.5,1.4,2.1*3E
$GPRMC,111515.000,A,6409.4409,N,01933.2241,W,39.97,281.96,310812,,,A*4A
$GPGGA,111516.000,6409.4431,N,01933.2489,W,1,08,0.9,298.0,M,60.4,M,,0000*4B
$GPGSA,A,3,25,29,30,23,02,14,31,12,,,,,1.6,0.9,1.3*36
$GPRMC,111516.000,A,6409.4431,N,01933.2489,W,39.82,281.75,310812,,,A*49
$GPGGA,111517.000,6409.4453,N,01933.2742,W,1,08,0.9,297.5,M,60.4,M,,0000*40
$GPGSA,A,3,25,29,30,23,02,14,31,12,,,,,1.6,0.9,1.3*36
$GPGSV,3,1,12,31,69,239,40,29,56,139,23,25,55,099,32,30,26,257,24*7C
$GPGSV,3,2,12,02,26,050,29,12,18,084,21,23,18,328,29,14,11,195,23*75
$GPGSV,3,3,12,04,09,010,29,20,07,303,27,10,05,030,33,32,04,277,21*7E
$GPRMC,111517.000,A,6409.4453,N,01933.2742,W,40.49,281.78,310812,,,A*4C
$GPGGA,111518.000,6409.4474,N,01933.2996,W,1,08,0.9,297.1,M,60.4,M,,0000*49
$GPGSA,A,3,25,29,30,23,02,14,31,12,,,,,1.6,0.9,1.3*36
$GPRMC,111518.000,A,6409.4474,N,01933.2996,W,40.73,280.84,310812,,,A*4A
$GPGGA,111519.000,6409.4495,N,01933.3253,W,1,07,1.0,296.7,M,60.4,M,,0000*44
$GPGSA,A,3,25,29,23,02,14,31,12,,,,,,1.7,1.0,1.3*3C
$GPRMC,111519.000,A,6409.4495,N,01933.3253,W,40.97,280.78,310812,,,A*4E
$GPGGA,111520.000,6409.4515,N,01933.3511,W,1,08,0.9,296.3,M,60.4,M,,0000*45
$GPGSA,A,3,25,29,30,23,02,14,31,12,,,,,1.6,0.9,1.3*36
$GPRMC,111520.000,A,6409.4515,N,01933.3511,W,41.24,280.31,310812,,,A*48
$GPGGA,111521.000,6409.4536,N,01933.3772,W,1,08,0.9,295.8,M,60.4,M,,0000*4A
$GPGSA,A,3,25,29,30,23,02,14,31,12,,,,,1.6,0.9,1.3*36
$GPRMC,111521.000,A,6409.4536,N,01933.3772,W,41.53,279.95,310812,,,A*47
$GPGGA,111522.000,6409.4556,N,01933.4033,W,1,07,1.0,295.5,M,60.4,M,,0000*40
$GPGSA,A,3,25,29,30,23,02,14,31,,,,,,1.8,1.0,1.5*35
$GPGSV,3,1,12,31,69,239,40,29,56,139,28,25,55,099,26,30,26,257,19*7C
$GPGSV,3,2,12,02,26,050,26,12,18,084,23,23,18,328,30,14,11,195,33*71
$GPGSV,3,3,12,04,09,010,32,20,07,303,21,10,05,030,34,32,04,277,29*7D
$GPRMC,111522.000,A,6409.4556,N,01933.4033,W,41.70,279.61,310812,,,A*4D
$GPGGA,111523.000,6409.4576,N,01933.4296,W,1,08,0.9,295.2,M,60.4,M,,0000*4E
$GPGSA,A,3,25,29,30,23,02,14,31,12,,,,,1.6,0.9,1.3*36
$GPRMC,111523.000,A,6409.4576,N,01933.4296,W,41.87,279.49,310812,,,A*41
$GPGGA,111524.000,6409.4596,N,01933.4561,W,1,08,0.9,294.8,M,60.4,M,,0000*43
$GPGSA,A,3,25,29,30,23,02,14,31,12,,,,,1.6,0.9,1.3*36
$GPRMC,111524.000,A,6409.4596,N,01933.4561,W,42.23,279.10,310812,,,A*46
$GPGGA,111525.000,6409.4615,N,01933.4827,W,1,08,0.9,294.5,M,60.4,M,,0000*48
$GPGSA,A,3,25,29,30,23,02,14,31,12,,,,,1.6,0.9,1.3*36
$GPRMC,111525.000,A,6409.4615,N,01933.4827,W,42.44,278.76,310812,,,A*40
$GPGGA,111526.000,6409.4634,N,01933.5093,W,1,08,0.9,294.2,M,60.4,M,,0000*49
$GPGSA,A,3,25,29,30,23,02,14,31,12,,,,,1.6,0.9,1.3*36
$GPRMC,111526.000,A,6409.4634,N,01933.5093,W,42.37,278.31,310812,,,A*41
$GPGGA,111527.000,6409.4651,N,01933.5359,W,1,08,0.9,294.0,M,60.4,M,,0000*4C
$GPGSA,A,3,25,29,30,23,02,14,31,12,,,,,1.6,0.9,1.3*36
$GPGSV,3,1,12,31,69,239,40,29,56,139,29,25,55,099,26,30,26,257,20*77
$GPGSV,3,2,12,02,26,050,34,12,18,084,20,23,18,328,33,14,11,195,33*72
$GPGSV,3,3,12,04,09,010,32,20,07,303,22,10,05,030,35,32,04,277,30*77
$GPRMC,111527.000,A,6409.4651,N,01933.5359,W,42.44,277.59,310812,,,A*43
$GPGGA,111528.000,6409.4666,N,01933.5627,W,1,08,0.9,293.8,M,60.4,M,,0000*44
$GPGSA,A,3,25,29,30,23,02,14,31,12,,,,,1.6,0.9,1.3*36
$GPRMC,111528.000,A,6409.4666,N,01933.5627,W,42.60,276.58,310812,,,A*42
$GPGGA,111529.000,6409.4679,N,01933.5896,W,1,08,0.9,293.5,M,60.4,M,,0000*42
$GPGSA,A,3,25,29,30,23,02,14,31,12,,,,,1.6,0.9,1.3*36
$GPRMC,111529.000,A,6409.4679,N,01933.5896,W,42.59,275.48,310812,,,A*41
$GPGGA,111530.000,6409.4691,N,01933.6166,W,1,08,0.9,293.1,M,60.4,M,,0000*4D
$GPGSA,A,3,25,29,30,23,02,14,31,12,,,,,1.6,0.9,1.3*36
$GPRMC,111530.000,A,6409.4691,N,01933.6166,W,42.71,275.10,310812,,,A*4D
$GPGGA,111531.000,6409.4702,N,01933.6437,W,1,08,0.9,292.8,M,60.4,M,,0000*4E
$GPGSA,A,3,25,29,30,23,02,14,31,12,,,,,1.6,0.9,1.3*36
$GPRMC,111531.000,A,6409.4702,N,01933.6437,W,42.93,274.90,310812,,,A*43
$GPGGA,111532.000,6409.4712,N,01933.6708,W,1,08,0.9,292.5,M,60.4,M,,0000*4E
$GPGSA,A,3,25,29,30,23,02,14,31,12,,,,,1.6,0.9,1.3*36
$GPGSV,3,1,12,31,69,239,40,29,56,139,28,25,55,099,27,30,26,257,20*77
$GPGSV,3,2,12,02,26,050,36,12,18,084,27,23,18,328,35,14,11,195,29*7A
$GPGSV,3,3,12,04,09,010,37,20,07,303,27,10,05,030,32,32,04,277,31*71
$GPRMC,111532.000,A,6409.4712,N,01933.6708,W,42.88,274.32,310812,,,A*4C
$GPGGA,111533.000,6409.4721,N,01933.6980,W,1,08,0.9,292.2,M,60.4,M,,0000*46
$GPGSA,A,3,25,29,30,23,02,14,31,12,,,,,1.6,0.9,1.3*36
$GPRMC,111533.000,A,6409.4721,N,01933.6980,W,43.01,273.70,310812,,,A*42
$GPGGA,111534.000,6409.4728,N,01933.7253,W,1,08,0.9,292.0,M,60.4,M,,0000*4E
$GPGSA,A,3,25,29,30,23,02,14,31,12,,,,,1.6,0.9,1.3*36
$GPRMC,111534.000,A,6409.4728,N,01933.7253,W,43.16,272.90,310812,,,A*41
$GPGGA,111535.000,6409.4734,N,01933.7527,W,1,08,0.9,291.8,M,60.4,M,,0000*4D
$GPGSA,A,3,25,29,30,23,02,14,31,12,,,,,1.6,0.9,1.3*36
$GPRMC,111535.000,A,6409.4734,N,01933.7527,W,43.29,272.15,310812,,,A*48
$GPGGA,111536.000,6409.4739,N,01933.7801,W,1,08,0.9,291.7,M,60.4,M,,0000*45
$GPGSA,A,3,25,29,30,23,02,14,31,12,,,,,1.6,0.9,1.3*36
$GPRMC,111536.000,A,6409.4739,N,01933.7801,W,43.35,272.11,310812,,,A*46
$GPGGA,111537.000,6409.4743,N,01933.8077,W,1,08,0.9,291.8,M,60.4,M,,0000*40
$GPGSA,A,3,25,29,30,23,02,14,31,12,,,,,1.6,0.9,1.3*36
$GPGSV,3,1,12,31,69,239,40,29,56,139,31,25,55,099,27,30,26,257,20*7F
$GPGSV,3,2,12,02,26,050,32,12,18,084,22,23,18,328,35,14,11,195,22*70
$GPGSV,3,3,12,04,09,010,28,20,07,303,23,10,05,030,31,32,04,277,29*71
$GPRMC,111537.000,A,6409.4743,N,01933.8077,W,43.66,271.42,310812,,,A*4F
$GPGGA,111538.000,6409.4746,N,01933.8354,W,1,08,0.9,292.0,M,60.4,M,,0000*43
$GPGSA,A,3,25,29,30,23,02,14,31,12,,,,,1.6,0.9,1.3*36
$GPRMC,111538.000,A,6409.4746,N,01933.8354,W,43.91,270.78,310812,,,A*47
$GPGGA,111539.000,6409.4748,N,01933.8632,W,1,08,0.9,292.1,M,60.4,M,,0000*48
$GPGSA,A,3,25,29,30,23,02,14,31,12,,,,,1.6,0.9,1.3*36
$GPRMC,111539.000,A,6409.4748,N,01933.8632,W,43.94,270.40,310812,,,A*43
$GPGGA,111540.000,6409.4748,N,01933.8910,W,1,08,0.9,292.1,M,60.4,M,,0000*49
$GPGSA,A,3,25,29,30,23,02,14,31,12,,,,,1.6,0.9,1.3*36
$GPRMC,111540.000,A,6409.4748,N,01933.8910,W,43.94,269.48,310812,,,A*42
$GPGGA,111541.000,6409.4747,N,01933.9189,W,1,08,0.9,292.0,M,60.4,M,,0000*4F
$GPGSA,A,3,25,29,30,23,02,14,31,12,,,,,1.6,0.9,1.3*36
$GPRMC,111541.000,A,6409.4747,N,01933.9189,W,43.96,268.73,310812,,,A*4E
$GPGGA,111542.000,6409.4744,N,01933.9471,W,1,08,0.9,291.9,M,60.4,M,,0000*47
$GPGSA,A,3,25,29,30,23,02,14,31,12,,,,,1.6,0.9,1.3*36
$GPGSV,3,1,12,31,69,239,39,29,56,139,35,25,55,099,27,30,26,257,30*74
$GPGSV,3,2,12,02,26,050,28,12,18,084,19,23,18,328,26,14,11,195,26*75
$GPGSV,3,3,12,04,09,010,35,20,07,303,34,10,05,030,33,32,04,277,24*74
$GPRMC,111542.000,A,6409.4744,N,01933.9471,W,44.45,268.21,310812,,,A*42
$GPGGA,111543.000,6409.4740,N,01933.9753,W,1,08,0.9,291.7,M,60.4,M,,0000*4F
$GPGSA,A,3,25,29,30,23,02,14,31,12,,,,,1.6,0.9,1.3*36
$GPRMC,111543.000,A,6409.4740,N,01933.9753,W,44.15,267.71,310812,,,A*4B
$GPGGA,111544.000,6409.4735,N,01934.0034,W,1,08,0.9,291.6,M,60.4,M,,0000*43
$GPGSA,A,3,25,29,30,23,02,14,31,12,,,,,1.6,0.9,1.3*36
$GPRMC,111544.000,A,6409.4735,N,01934.0034,W,43.99,267.23,310812,,,A*42
$GPGGA,111545.000,6409.4727,N,01934.0316,W,1,07,0.9,291.6,M,60.4,M,,0000*4D
$GPGSA,A,3,29,30,23,02,14,31,12,,,,,,1.7,0.9,1.4*37
$GPRMC,111545.000,A,6409.4727,N,01934.0316,W,44.26,266.06,310812,,,A*46
$GPGGA,111546.000,6409.4719,N,01934.0600,W,1,08,0.9,291.5,M,60.4,M,,0000*4D
$GPGSA,A,3,25,29,30,23,02,14,31,12,,,,,1.6,0.9,1.3*36
$GPRMC,111546.000,A,6409.4719,N,01934.0600,W,44.54,265.80,310812,,,A*42
$GPGGA,111547.000,6409.4710,N,01934.0883,W,1,08,0.9,291.5,M,60.4,M,,0000*40
$GPGSA,A,3,25,29,30,23,02,14,31,12,,,,,1.6,0.9,1.3*36
$GPGSV,3,1,12,31,69,239,39,29,56,139,35,25,55,099,14,30,26,257,32*76
$GPGSV,3,2,12,02,26,050,25,12,18,084,20,23,18,328,32,14,11,195,27*76
$GPGSV,3,3,12,04,09,010,28,20,07,303,26,10,05,030,33,32,04,277,17*7B
$GPRMC,111547.000,A,6409.4710,N,01934.0883,W,44.45,265.38,310812,,,A*4C
$GPGGA,111548.000,6409.4699,N,01934.1164,W,1,08,0.9,291.5,M,60.4,M,,0000*4E
$GPGSA,A,3,25,29,30,23,02,14,31,12,,,,,1.6,0.9,1.3*36
$GPRMC,111548.000,A,6409.4699,N,01934.1164,W,44.17,264.65,310812,,,A*4C
$GPGGA,111549.000,6409.4686,N,01934.1445,W,1,08,0.9,291.4,M,60.4,M,,0000*46
$GPGSA,A,3,25,29,30,23,02,14,31,12,,,,,1.6,0.9,1.3*36
$GPRMC,111549.000,A,6409.4686,N,01934.1445,W,44.26,264.01,310812,,,A*45
$GPGGA,111550.000,6409.4673,N,01934.1725,W,1,07,1.4,291.3,M,60.4,M,,0000*45
$GPGSA,A,3,25,29,30,23,02,31,12,,,,,,2.5,1.4,2.1*3E
$GPRMC,111550.000,A,6409.4673,N,01934.1725,W,44.27,263.48,310812,,,A*49
$GPGGA,111551.000,6409.4658,N,01934.2007,W,1,08,0.9,291.2,M,60.4,M,,0000*4B
$GPGSA,A,3,25,29,30,23,02,14,31,12,,,,,1.6,0.9,1.3*36
$GPRMC,111551.000,A,6409.4658,N,01934.2007,W,44.53,263.08,310812,,,A*42
$GPGGA,111552.000,6409.4642,N,01934.2289,W,1,08,0.9,291.1,M,60.4,M,,0000*44
$GPGSA,A,3,25,29,30,23,02,14,31,12,,,,,1.6,0.9,1.3*36
$GPGSV,3,1,12,31,69,239,39,29,56,139,35,25,55,099,26,30,26,257,33*76
$GPGSV,3,2,12,02,26,050,20,12,18,084,24,23,18,328,32,14,11,195,31*70
$GPGSV,3,3,12,04,09,010,26,20,07,303,23,10,05,030,33,32,04,277,19*7E
$GPRMC,111552.000,A,6409.4642,N,01934.2289,W,44.49,262.65,310812,,,A*4F
$GPGGA,111553.000,6409.4624,N,01934.2572,W,1,08,0.9,291.0,M,60.4,M,,0000*47
$GPGSA,A,3,25,29,30,23,02,14,31,12,,,,,1.6,0.9,1.3*36
$GPRMC,111553.000,A,6409.4624,N,01934.2572,W,44.96,261.77,310812,,,A*4F
$GPGGA,111554.000,6409.4604,N,01934.2858,W,1,08,0.9,290.9,M,60.4,M,,0000*4F
$GPGSA,A,3,25,29,30,23,02,14,31,12,,,,,1.6,0.9,1.3*36
$GPRMC,111554.000,A,6409.4604,N,01934.2858,W,45.42,260.74,310812,,,A*45
$GPGGA,111555.000,6409.4582,N,01934.3145,W,1,08,0.9,290.9,M,60.4,M,,0000*47
$GPGSA,A,3,25,29,30,23,02,14,31,12,,,,,1.6,0.9,1.3*36
$GPRMC,111555.000,A,6409.4582,N,01934.3145,W,45.71,259.88,310812,,,A*44
$GPGGA,111556.000,6409.4558,N,01934.3432,W,1,08,0.9,290.8,M,60.4,M,,0000*47
$GPGSA,A,3,25,29,30,23,02,14,31,12,,,,,1.6,0.9,1.3*36
$GPRMC,111556.000,A,6409.4558,N,01934.3432,W,45.73,259.18,310812,,,A*4E
$GPGGA,111557.000,6409.4532,N,01934.3719,W,1,08,0.9,290.8,M,60.4,M,,0000*40
$GPGSA,A,3,25,29,30,23,02,14,31,12,,,,,1.6,0.9,1.3*36
$GPGSV,3,1,12,31,69,239,39,29,56,139,35,25,55,099,25,30,26,257,32*74
$GPGSV,3,2,12,02,26,050,30,12,18,084,28,23,18,328,29,14,11,195,32*74
$GPGSV,3,3,12,04,09,010,38,20,07,303,33,10,05,030,31,32,04,277,23*7B
$GPRMC,111557.000,A,6409.4532,N,01934.3719,W,45.86,258.63,310812,,,A*4E
$GPGGA,111558.000,6409.4506,N,01934.4007,W,1,08,0.9,290.7,M,60.4,M,,0000*48
$GPGSA,A,3,25,29,30,23,02,14,31,12,,,,,1.6,0.9,1.3*36
$GPRMC,111558.000,A,6409.4506,N,01934.4007,W,45.93,258.26,310812,,,A*4C
$GPGGA,111559.000,6409.4479,N,01934.4295,W,1,08,0.9,290.6,M,60.4,M,,0000*48
$GPGSA,A,3,25,29,30,23,02,14,31,12,,,,,1.6,0.9,1.3*36
$GPRMC,111559.000,A,6409.4479,N,01934.4295,W,46.17,258.20,310812,,,A*44
$GPGGA,111600.000,6409.4453,N,01934.4586,W,1,08,0.9,290.5,M,60.4,M,,0000*49
$GPGSA,A,3,25,29,30,23,02,14,31,12,,,,,1.6,0.9,1.3*36
$GPRMC,111600.000,A,6409.4453,N,01934.4586,W,46.48,258.31,310812,,,A*4C
$GPGGA,111601.000,6409.4425,N,01934.4878,W,1,08,0.9,290.5,M,60.4,M,,0000*45
$GPGSA,A,3,25,29,30,23,02,14,31,12,,,,,1.6,0.9,1.3*36
$GPRMC,111601.000,A,6409.4425,N,01934.4878,W,46.64,258.17,310812,,,A*4A
$GPGGA,111602.000,6409.4397,N,01934.5169,W,1,08,0.9,290.4,M,60.4,M,,0000*41
$GPGSA,A,3,25,29,30,23,02,14,31,12,,,,,1.6,0.9,1.3*36
$GPGSV,3,1,12,31,69,239,39,29,56,139,22,25,55,099,24,30,26,257,32*73
$GPGSV,3,2,12,02,26,050,28,12,18,084,27,23,18,328,30,14,11,195,34*7C
$GPGSV,3,3,12,04,09,010,35,20,07,303,30,10,05,030,34,32,04,277,28*7B
$GPRMC,111602.000,A,6409.4397,N,01934.5169,W,46.73,257.82,310812,,,A*4A
$GPGGA,111603.000,6409.4368,N,01934.5461,W,1,07,1.0,290.3,M,60.4,M,,0000*4D
$GPGSA,A,3,25,30,23,02,14,31,12,,,,,,1.7,1.0,1.5*32
$GPRMC,111603.000,A,6409.4368,N,01934.5461,W,46.82,257.53,310812,,,A*44
$GPGGA,111604.000,6409.4340,N,01934.5753,W,1,08,0.9,290.2,M,60.4,M,,0000*44
$GPGSA,A,3,25,29,30,23,02,14,31,12,,,,,1.6,0.9,1.3*36
$GPRMC,111604.000,A,6409.4340,N,01934.5753,W,46.96,257.60,310812,,,A*4E
$GPGGA,111605.000,6409.4311,N,01934.6047,W,1,08,0.9,290.1,M,60.4,M,,0000*43
$GPGSA,A,3,25,29,30,23,02,14,31,12,,,,,1.6,0.9,1.3*36
$GPRMC,111605.000,A,6409.4311,N,01934.6047,W,47.19,257.59,310812,,,A*46
$GPGGA,111606.000,6409.4282,N,01934.6341,W,1,08,0.9,290.0,M,60.4,M,,0000*4F
$GPGSA,A,3,25,29,30,23,02,14,31,12,,,,,1.6,0.9,1.3*36
$GPRMC,111606.000,A,6409.4282,N,01934.6341,W,47.33,257.69,310812,,,A*40
$GPGGA,111607.000,6409.4253,N,01934.6636,W,1,08,0.9,289.8,M,60.4,M,,0000*47
$GPGSA,A,3,25,29,30,23,02,14,31,12,,,,,1.6,0.9,1.3*36
$GPGSV,3,1,12,31,69,239,39,29,56,139,15,25,55,099,26,30,26,257,32*75
$GPGSV,3,2,12,02,26,050,25,12,18,084,27,23,18,328,30,14,11,195,33*76
$GPGSV,3,3,12,04,09,010,35,20,07,303,30,10,05,030,31,32,04,277,25*73
$GPRMC,111607.000,A,6409.4253,N,01934.6636,W,47.45,257.72,310812,,,A*43
$GPGGA,111608.000,6409.4224,N,01934.6932,W,1,08,0.9,289.7,M,60.4,M,,0000*4C
$GPGSA,A,3,25,29,30,23,02,14,31,12,,,,,1.6,0.9,1.3*36
$GPRMC,111608.000,A,6409.4224,N,01934.6932,W,47.53,257.84,310812,,,A*49
$GPGGA,111609.000,6409.4196,N,01934.7228,W,1,07,1.3,289.5,M,60.4,M,,0000*40
$GPGSA,A,3,25,29,30,02,14,31,12,,,,,,1.9,1.3,1.4*34
$GPRMC,111609.000,A,6409.4196,N,01934.7228,W,47.70,257.98,310812,,,A*4F
$GPGGA,111610.000,6409.4166,N,01934.7525,W,1,08,0.9,289.4,M,60.4,M,,0000*48
$GPGSA,A,3,25,29,30,23,02,14,31,12,,,,,1.6,0.9,1.3*36
$GPRMC,111610.000,A,6409.4166,N,01934.7525,W,47.85,257.54,310812,,,A*48
$GPGGA,111611.000,6409.4136,N,01934.7823,W,1,08,0.9,289.2,M,60.4,M,,0000*41
$GPGSA,A,3,25,29,30,23,02,14,31,12,,,,,1.6,0.9,1.3*36
$GPRMC,111611.000,A,6409.4136,N,01934.7823,W,47.98,257.35,310812,,,A*4C
$GPGGA,111612.000,6409.4106,N,01934.8120,W,1,08,0.9,289.1,M,60.4,M,,0000*47
$GPGSA,A,3,25,29,30,23,02,14,31,12,,,,,1.6,0.9,1.3*36
$GPGSV,3,1,12,31,69,239,40,29,56,139,17,25,55,099,26,30,26,257,32*79
$GPGSV,3,2,12,02,26,050,25,12,18,084,27,23,18,328,31,14,11,195,32*76
$GPGSV,3,3,12,04,09,010,31,20,07,303,21,10,05,030,20,32,04,277,22*70
$GPRMC,111612.000,A,6409.4106,N,01934.8120,W,47.89,257.47,310812,,,A*4C
$GPGGA,111613.000,6409.4077,N,01934.8416,W,1,08,0.9,288.9,M,60.4,M,,0000*48
$GPGSA,A,3,25,29,30,23,02,14,31,12,,,,,1.6,0.9,1.3*36
$GPRMC,111613.000,A,6409.4077,N,01934.8416,W,47.88,257.55,310812,,,A*48
$GPGGA,111614.000,6409.4047,N,01934.8712,W,1,08,0.9,288.8,M,60.4,M,,0000*4A
$GPGSA,A,3,25,29,30,23,02,14,31,12,,,,,1.6,0.9,1.3*36
$GPRMC,111614.000,A,6409.4047,N,01934.8712,W,47.70,257.54,310812,,,A*4D
$GPGGA,111615.000,6409.4018,N,01934.9005,W,1,08,0.9,288.5,M,60.4,M,,0000*4C
$GPGSA,A,3,25,29,30,23,02,14,31,12,,,,,1.6,0.9,1.3*36
$GPRMC,111615.000,A,6409.4018,N,01934.9005,W,47.28,257.52,310812,,,A*4D
$GPGGA,111616.000,6409.3989,N,01934.9298,W,1,08,0.9,288.3,M,60.4,M,,0000*49
$GPGSA,A,3,25,29,30,23,02,14,31,12,,,,,1.6,0.9,1.3*36
$GPRMC,111616.000,A,6409.3989,N,01934.9298,W,47.28,257.47,310812,,,A*4A
$GPGGA,111617.000,6409.3960,N,01934.9591,W,1,08,0.9,288.0,M,60.4,M,,0000*42
$GPGSA,A,3,25,29,30,23,02,14,31,12,,,,,1.6,0.9,1.3*36
$GPGSV,3,1,12,31,69,235,40,29,57,137,19,25,54,098,27,30,28,257,32*7B
$GPGSV,3,2,12,02,26,049,25,23,19,327,30,12,17,084,27,14,09,195,32*77
$GPGSV,3,3,12,04,08,009,31,20,07,302,23,10,06,029,28,32,03,276,28*75
$GPRMC,111617.000,A,6409.3960,N,01934.9591,W,47.31,257.50,310812,,,A*4C
$GPGGA,111618.000,6409.3930,N,01934.9884,W,1,08,0.9,287.7,M,60.4,M,,0000*49
$GPGSA,A,3,25,29,30,23,02,14,31,12,,,,,1.6,0.9,1.3*36
$GPRMC,111618.000,A,6409.3930,N,01934.9884,W,47.24,257.57,310812,,,A*4C
$GPGGA,111619.000,6409.3902,N,01935.0175,W,1,08,0.9,287.5,M,60.4,M,,0000*44
$GPGSA,A,3,25,29,30,23,02,14,31,12,,,,,1.6,0.9,1.3*36
$GPRMC,111619.000,A,6409.3902,N,01935.0175,W,47.04,257.58,310812,,,A*4E
$GPGGA,111620.000,6409.3873,N,01935.0466,W,1,08,0.9,287.2,M,60.4,M,,0000*49
$GPGSA,A,3,25,29,30,23,02,14,31,12,,,,,1.6,0.9,1.3*36
$GPRMC,111620.000,A,6409.3873,N,01935.0466,W,47.06,257.64,310812,,,A*49
$GPGGA,111621.000,6409.3844,N,01935.0758,W,1,08,0.9,286.8,M,60.4,M,,0000*49
$GPGSA,A,3,25,29,30,23,02,14,31,12,,,,,1.6,0.9,1.3*36
$GPRMC,111621.000,A,6409.3844,N,01935.0758,W,47.06,257.71,310812,,,A*46
$GPGGA,111622.000,6409.3816,N,01935.1049,W,1,08,0.9,286.5,M,60.4,M,,0000*46
$GPGSA,A,3,25,29,30,23,02,14,31,12,,,,,1.6,0.9,1.3*36
$GPGSV,3,1,12,31,69,235,40,29,57,137,21,25,54,098,27,30,28,257,32*70
$GPGSV,3,2,12,02,26,049,25,23,19,327,28,12,17,084,28,14,09,195,32*71
$GPGSV,3,3,12,04,08,009,32,20,07,302,24,10,06,029,24,32,03,276,22*77
$GPRMC,111622.000,A,6409.3816,N,01935.1049,W,47.05,257.45,310812,,,A*40
$GPGGA,111623.000,6409.3787,N,01935.1340,W,1,08,0.9,286.2,M,60.4,M,,0000*4D
$GPGSA,A,3,25,29,30,23,02,14,31,12,,,,,1.6,0.9,1.3*36
$GPRMC,111623.000,A,6409.3787,N,01935.1340,W,47.02,257.56,310812,,,A*49
$GPGGA,111624.000,6409.3759,N,01935.1631,W,1,08,0.9,286.0,M,60.4,M,,0000*48
$GPGSA,A,3,25,29,30,23,02,14,31,12,,,,,1.6,0.9,1.3*36
$GPRMC,111624.000,A,6409.3759,N,01935.1631,W,46.87,257.80,310812,,,A*49
$GPGGA,111625.000,6409.3731,N,01935.1919,W,1,08,0.9,285.8,M,60.4,M,,0000*49
$GPGSA,A,3,25,29,30,23,02,14,31,12,,,,,1.6,0.9,1.3*36
$GPRMC,111625.000,A,6409.3731,N,01935.1919,W,46.50,257.42,310812,,,A*47
$GPGGA,111626.000,6409.3702,N,01935.2208,W,1,08,0.9,285.6,M,60.4,M,,0000*4C
$GPGSA,A,3,25,29,30,23,02,14,31,12,,,,,1.6,0.9,1.3*36
$GPRMC,111626.000,A,6409.3702,N,01935.2208,W,46.52,257.36,310812,,,A*4D
$GPGGA,111627.000,6409.3675,N,01935.2498,W,1,08,0.9,285.4,M,60.4,M,,0000*41
$GPGSA,A,3,25,29,30,23,02,14,31,12,,,,,1.6,0.9,1.3*36
$GPGSV,3,1,12,31,69,235,40,29,57,137,21,25,54,098,27,30,28,257,32*70
$GPGSV,3,2,12,02,26,049,28,23,19,327,29,12,17,084,22,14,09,195,32*77
$GPGSV,3,3,12,04,08,009,28,20,07,302,24,10,06,029,23,32,03,276,31*79
$GPRMC,111627.000,A,6409.3675,N,01935.2498,W,46.81,257.78,310812,,,A*46
$GPGGA,111628.000,6409.3647,N,01935.2788,W,1,08,0.9,285.3,M,60.4,M,,0000*4A
$GPGSA,A,3,25,29,30,23,02,14,31,12,,,,,1.6,0.9,1.3*36
$GPRMC,111628.000,A,6409.3647,N,01935.2788,W,46.71,257.78,310812,,,A*45
$GPGGA,111629.000,6409.3620,N,01935.3078,W,1,08,0.9,285.2,M,60.4,M,,0000*42
$GPGSA,A,3,25,29,30,23,02,14,31,12,,,,,1.6,0.9,1.3*36
$GPRMC,111629.000,A,6409.3620,N,01935.3078,W,46.69,258.06,310812,,,A*43
$GPGGA,111630.000,6409.3593,N,01935.3367,W,1,08,0.9,285.1,M,60.4,M,,0000*4F
$GPGSA,A,3,25,29,30,23,02,14,31,12,,,,,1.6,0.9,1.3*36
$GPRMC,111630.000,A,6409.3593,N,01935.3367,W,46.38,257.99,310812,,,A*40
$GPGGA,111631.000,6409.3566,N,01935.3654,W,1,08,0.9,285.1,M,60.4,M,,0000*41
$GPGSA,A,3,25,29,30,23,02,14,31,12,,,,,1.6,0.9,1.3*36
$GPRMC,111631.000,A,6409.3566,N,01935.3654,W,46.23,258.03,310812,,,A*48
$GPGGA,111632.000,6409.3541,N,01935.3942,W,1,08,0.9,285.0,M,60.4,M,,0000*4E
$GPGSA,A,3,25,29,30,23,02,14,31,12,,,,,1.6,0.9,1.3*36
$GPGSV,3,1,12,31,69,235,40,29,57,137,21,25,54,098,26,30,28,257,32*71
$GPGSV,3,2,12,02,26,049,31,23,19,327,31,12,17,084,23,14,09,195,29*7D
$GPGSV,3,3,12,04,08,009,33,20,07,302,24,10,06,029,30,32,03,276,27*76
$GPRMC,111632.000,A,6409.3541,N,01935.3942,W,46.24,258.52,310812,,,A*45
$GPGGA,111633.000,6409.3517,N,01935.4231,W,1,08,0.9,284.9,M,60.4,M,,0000*4C
$GPGSA,A,3,25,29,30,23,02,14,31,12,,,,,1.6,0.9,1.3*36
$GPRMC,111633.000,A,6409.3517,N,01935.4231,W,46.06,259.67,310812,,,A*48
$GPGGA,111634.000,6409.3497,N,01935.4520,W,1,08,0.9,284.9,M,60.4,M,,0000*45
$GPGSA,A,3,25,29,30,23,02,14,31,12,,,,,1.6,0.9,1.3*36
$GPRMC,111634.000,A,6409.3497,N,01935.4520,W,46.04,260.86,310812,,,A*46
$GPGGA,111635.000,6409.3479,N,01935.4808,W,1,08,0.9,284.9,M,60.4,M,,0000*43
$GPGSA,A,3,25,29,30,23,02,14,31,12,,,,,1.6,0.9,1.3*36
$GPRMC,111635.000,A,6409.3479,N,01935.4808,W,45.82,262.14,310812,,,A*44
$GPGGA,111636.000,6409.3465,N,01935.5098,W,1,08,0.9,284.9,M,60.4,M,,0000*4D
$GPGSA,A,3,25,29,30,23,02,14,31,12,,,,,1.6,0.9,1.3*36
$GPRMC,111636.000,A,6409.3465,N,01935.5098,W,45.80,263.79,310812,,,A*42
$GPGGA,111637.000,6409.3455,N,01935.5387,W,1,08,0.9,284.8,M,60.4,M,,0000*43
$GPGSA,A,3,25,29,30,23,02,14,31,12,,,,,1.6,0.9,1.3*36
$GPGSV,3,1,12,31,69,235,41,29,57,137,23,25,54,098,31,30,28,257,32*74
$GPGSV,3,2,12,02,26,049,30,23,19,327,35,12,17,084,24,14,09,195,27*71
$GPGSV,3,3,12,04,08,009,29,20,07,302,32,10,06,029,29,32,03,276,18*7E
$GPRMC,111637.000,A,6409.3455,N,01935.5387,W,45.66,265.47,310812,,,A*4E
$GPGGA,111638.000,6409.3447,N,01935.5676,W,1,07,1.4,284.7,M,60.4,M,,0000*48
$GPGSA,A,3,25,29,30,23,02,31,12,,,,,,2.5,1.4,2.1*3E
$GPRMC,111638.000,A,6409.3447,N,01935.5676,W,45.53,266.66,310812,,,A*4F
$GPGGA,111639.000,6409.3441,N,01935.5963,W,1,07,1.4,284.5,M,60.4,M,,0000*46
$GPGSA,A,3,25,29,30,23,02,31,12,,,,,,2.5,1.4,2.1*3E
$GPRMC,111639.000,A,6409.3441,N,01935.5963,W,45.20,267.61,310812,,,A*41
$GPGGA,111640.000,6409.3437,N,01935.6252,W,1,07,1.4,284.4,M,60.4,M,,0000*42
$GPGSA,A,3,25,29,30,23,02,31,12,,,,,,2.5,1.4,2.1*3E
$GPRMC,111640.000,A,6409.3437,N,01935.6252,W,45.46,268.23,310812,,,A*4D
$GPGGA,111641.000,6409.3436,N,01935.6543,W,1,07,1.4,284.4,M,60.4,M,,0000*45
$GPGSA,A,3,25,29,30,23,02,31,12,,,,,,2.5,1.4,2.1*3E
$GPRMC,111641.000,A,6409.3436,N,01935.6543,W,45.74,269.45,310812,,,A*4A
$GPGGA,111642.000,6409.3438,N,01935.6831,W,1,07,1.4,284.3,M,60.4,M,,0000*47
$GPGSA,A,3,25,29,30,23,02,31,12,,,,,,2.5,1.4,2.1*3E
$GPGSV,3,1,12,31,69,235,41,29,57,137,34,25,54,098,27,30,28,257,28*7E
$GPGSV,3,2,12,02,26,049,26,23,19,327,35,12,17,084,22,14,09,195,21*76
$GPGSV,3,3,12,04,08,009,35,20,07,302,28,10,06,028,34,32,03,276,28*76
$GPRMC,111642.000,A,6409.3438,N,01935.6831,W,45.26,271.08,310812,,,A*48
$GPGGA,111643.000,6409.3444,N,01935.7119,W,1,07,1.4,284.3,M,60.4,M,,0000*4F
$GPGSA,A,3,25,29,30,23,02,31,12,,,,,,2.5,1.4,2.1*3E
$GPRMC,111643.000,A,6409.3444,N,01935.7119,W,45.30,272.47,310812,,,A*4F
$GPGGA,111644.000,6409.3453,N,01935.7406,W,1,07,1.4,284.3,M,60.4,M,,0000*45
$GPGSA,A,3,25,29,30,23,02,31,12,,,,,,2.5,1.4,2.1*3E
$GPRMC,111644.000,A,6409.3453,N,01935.7406,W,45.28,274.04,310812,,,A*4D
$GPGGA,111645.000,6409.3466,N,01935.7692,W,1,07,1.4,284.4,M,60.4,M,,0000*4A
$GPGSA,A,3,25,29,30,23,02,31,12,,,,,,2.5,1.4,2.1*3E
$GPRMC,111645.000,A,6409.3466,N,01935.7692,W,45.31,275.75,310812,,,A*4A
$GPGGA,111646.000,6409.3483,N,01935.7978,W,1,07,1.4,284.5,M,60.4,M,,0000*48
$GPGSA,A,3,25,29,30,23,02,31,12,,,,,,2.5,1.4,2.1*3E
$GPRMC,111646.000,A,6409.3483,N,01935.7978,W,45.55,277.52,310812,,,A*4C
$GPGGA,111647.000,6409.3504,N,01935.8264,W,1,07,1.4,284.9,M,60.4,M,,0000*42
$GPGSA,A,3,25,29,30,23,02,31,12,,,,,,2.5,1.4,2.1*3E
$GPGSV,3,1,12,31,69,235,41,29,57,137,29,25,54,098,30,30,28,257,24*78
$GPGSV,3,2,12,02,26,049,36,23,19,327,27,12,17,084,17,14,09,195,26*75
$GPGSV,3,3,12,04,08,009,30,20,07,302,22,10,06,028,30,32,03,276,14*72
$GPRMC,111647.000,A,6409.3504,N,01935.8264,W,45.63,278.91,310812,,,A*4F
$GPGGA,111648.000,6409.3527,N,01935.8551,W,1,07,1.4,285.1,M,60.4,M,,0000*44
$GPGSA,A,3,25,29,30,23,02,31,12,,,,,,2.5,1.4,2.1*3E
$GPRMC,111648.000,A,6409.3527,N,01935.8551,W,46.07,280.07,310812,,,A*49
$GPGGA,111649.000,6409.3552,N,01935.8839,W,1,07,1.4,285.2,M,60.4,M,,0000*47
$GPGSA,A,3,25,29,30,23,02,31,12,,,,,,2.5,1.4,2.1*3E
$GPRMC,111649.000,A,6409.3552,N,01935.8839,W,46.22,281.22,310812,,,A*48
$GPGGA,111650.000,6409.3580,N,01935.9124,W,1,07,1.4,285.3,M,60.4,M,,0000*45
$GPGSA,A,3,25,29,30,23,02,31,12,,,,,,2.5,1.4,2.1*3E
$GPRMC,111650.000,A,6409.3580,N,01935.9124,W,46.04,282.49,310812,,,A*41
$GPGGA,111651.000,6409.3611,N,01935.9408,W,1,07,1.4,285.4,M,60.4,M,,0000*43
$GPGSA,A,3,25,29,30,23,02,31,12,,,,,,2.5,1.4,2.1*3E
$GPRMC,111651.000,A,6409.3611,N,01935.9408,W,46.20,284.07,310812,,,A*4A
$GPGGA,111652.000,6409.3645,N,01935.9691,W,1,07,1.4,285.5,M,60.4,M,,0000*42
$GPGSA,A,3,25,29,30,23,02,31,12,,,,,,2.5,1.4,2.1*3E
$GPGSV,3,1,12,31,69,235,40,29,57,137,21,25,54,098,27,30,28,257,33*71
$GPGSV,3,2,12,02,26,049,35,23,19,327,28,12,17,084,28,14,09,195,22*71
$GPGSV,3,3,12,04,08,009,28,20,07,302,23,10,06,028,22,32,03,276,*7C
$GPRMC,111652.000,A,6409.3645,N,01935.9691,W,46.17,285.03,310812,,,A*4B
$GPGGA,111653.000,6409.3680,N,01935.9971,W,1,07,1.4,285.5,M,60.4,M,,0000*4B
$GPGSA,A,3,25,29,30,23,02,31,12,,,,,,2.5,1.4,2.1*3E
$GPRMC,111653.000,A,6409.3680,N,01935.9971,W,46.15,286.11,310812,,,A*40
$GPGGA,111654.000,6409.3718,N,01936.0249,W,1,07,1.4,285.5,M,60.4,M,,0000*46
$GPGSA,A,3,25,29,30,23,02,31,12,,,,,,2.5,1.4,2.1*3E
$GPRMC,111654.000,A,6409.3718,N,01936.0249,W,45.94,287.02,310812,,,A*44
$GPGGA,111655.000,6409.3758,N,01936.0523,W,1,07,1.4,285.5,M,60.4,M,,0000*48
$GPGSA,A,3,25,29,30,23,02,31,12,,,,,,2.5,1.4,2.1*3E
$GPRMC,111655.000,A,6409.3758,N,01936.0523,W,45.68,288.78,310812,,,A*4B
$GPGGA,111656.000,6409.3803,N,01936.0792,W,1,07,1.4,285.5,M,60.4,M,,0000*42
$GPGSA,A,3,25,29,30,23,02,31,12,,,,,,2.5,1.4,2.1*3E
$GPRMC,111656.000,A,6409.3803,N,01936.0792,W,45.51,290.88,310812,,,A*4D
$GPGGA,111657.000,6409.3851,N,01936.1056,W,1,07,1.4,285.4,M,60.4,M,,0000*4B
$GPGSA,A,3,25,29,30,23,02,31,12,,,,,,2.5,1.4,2.1*3E
$GPGSV,3,1,12,31,69,235,36,29,57,137,27,25,54,098,33,30,28,257,33*73
$GPGSV,3,2,12,02,26,049,28,23,19,327,23,12,17,084,26,14,09,195,27*7D
$GPGSV,3,3,12,04,08,009,31,20,07,302,31,10,06,028,34,32,03,276,25*77
$GPRMC,111657.000,A,6409.3851,N,01936.1056,W,45.22,292.55,310812,,,A*43
$GPGGA,111658.000,6409.3901,N,01936.1316,W,1,07,1.4,285.4,M,60.4,M,,0000*47
$GPGSA,A,3,25,29,30,23,02,31,12,,,,,,2.5,1.4,2.1*3E
$GPRMC,111658.000,A,6409.3901,N,01936.1316,W,44.71,293.33,310812,,,A*49
$GPGGA,111659.000,6409.3952,N,01936.1574,W,1,06,1.6,285.3,M,60.4,M,,0000*46
$GPGSA,A,3,25,29,30,23,31,12,,,,,,,2.7,1.6,2.1*3C
$GPRMC,111659.000,A,6409.3952,N,01936.1574,W,44.54,294.13,310812,,,A*4E
$GPGGA,111700.000,6409.4007,N,01936.1828,W,1,07,1.4,285.3,M,60.4,M,,0000*42
$GPGSA,A,3,25,29,30,23,02,31,12,,,,,,2.5,1.4,2.1*3E
$GPRMC,111700.000,A,6409.4007,N,01936.1828,W,44.67,296.11,310812,,,A*49
$GPGGA,111701.000,6409.4064,N,01936.2082,W,1,07,1.4,285.3,M,60.4,M,,0000*4D
$GPGSA,A,3,25,29,30,23,02,31,12,,,,,,2.5,1.4,2.1*3E
$GPRMC,111701.000,A,6409.4064,N,01936.2082,W,44.80,296.94,310812,,,A*42
$GPGGA,111702.000,6409.4123,N,01936.2332,W,1,07,1.4,285.3,M,60.4,M,,0000*44
$GPGSA,A,3,25,29,30,23,02,31,12,,,,,,2.5,1.4,2.1*3E
$GPGSV,3,1,12,31,69,235,36,29,57,137,28,25,54,098,33,30,28,257,33*7C
$GPGSV,3,2,12,02,26,049,40,23,19,327,18,12,17,084,30,14,09,195,35*7F
$GPGSV,3,3,12,04,08,009,29,20,07,302,22,10,06,028,34,32,03,276,30*78
$GPRMC,111702.000,A,6409.4123,N,01936.2332,W,44.76,298.18,310812,,,A*48
$GPGGA,111703.000,6409.4186,N,01936.2578,W,1,07,1.4,285.3,M,60.4,M,,0000*42
$GPGSA,A,3,25,29,30,23,02,31,12,,,,,,2.5,1.4,2.1*3E
$GPRMC,111703.000,A,6409.4186,N,01936.2578,W,44.74,299.94,310812,,,A*49
$GPGGA,111704.000,6409.4251,N,01936.2820,W,1,07,1.4,285.4,M,60.4,M,,0000*4B
$GPGSA,A,3,25,29,30,23,02,31,12,,,,,,2.5,1.4,2.1*3E
$GPRMC,111704.000,A,6409.4251,N,01936.2820,W,44.59,301.51,310812,,,A*41
$GPGGA,111705.000,6409.4319,N,01936.3057,W,1,07,1.4,285.4,M,60.4,M,,0000*4E
$GPGSA,A,3,25,29,30,23,02,31,12,,,,,,2.5,1.4,2.1*3E
$GPRMC,111705.000,A,6409.4319,N,01936.3057,W,44.43,302.86,310812,,,A*46
$GPGGA,111706.000,6409.4388,N,01936.3290,W,1,07,1.4,285.4,M,60.4,M,,0000*4C
$GPGSA,A,3,25,29,30,23,02,31,12,,,,,,2.5,1.4,2.1*3E
$GPRMC,111706.000,A,6409.4388,N,01936.3290,W,44.21,303.79,310812,,,A*41
$GPGGA,111707.000,6409.4459,N,01936.3520,W,1,07,1.4,285.5,M,60.4,M,,0000*4B
$GPGSA,A,3,25,29,30,23,02,31,12,,,,,,2.5,1.4,2.1*3E
$GPGSV,3,1,12,31,69,235,29,29,57,137,23,25,54,098,33,30,28,257,26*7D
$GPGSV,3,2,12,02,26,049,40,23,19,327,33,12,17,084,29,14,09,195,28*72
$GPGSV,3,3,12,04,08,009,34,20,07,302,24,10,06,028,29,32,03,276,32*7C
$GPRMC,111707.000,A,6409.4459,N,01936.3520,W,44.13,305.03,310812,,,A*4D
$GPGGA,111708.000,6409.4532,N,01936.3746,W,1,07,1.4,285.6,M,60.4,M,,0000*49
$GPGSA,A,3,25,29,30,23,02,31,12,,,,,,2.5,1.4,2.1*3E
$GPRMC,111708.000,A,6409.4532,N,01936.3746,W,44.12,306.23,310812,,,A*4C
$GPGGA,111709.000,6409.4607,N,01936.3969,W,1,07,1.4,285.6,M,60.4,M,,0000*4E
$GPGSA,A,3,25,29,30,23,02,31,12,,,,,,2.5,1.4,2.1*3E
$GPRMC,111709.000,A,6409.4607,N,01936.3969,W,44.24,307.44,310812,,,A*4E
$GPGGA,111710.000,6409.4684,N,01936.4188,W,1,07,1.4,285.7,M,60.4,M,,0000*4C
$GPGSA,A,3,25,29,30,23,02,31,12,,,,,,2.5,1.4,2.1*3E
$GPRMC,111710.000,A,6409.4684,N,01936.4188,W,44.18,308.65,310812,,,A*4E
$GPGGA,111711.000,6409.4764,N,01936.4402,W,1,07,1.4,285.8,M,60.4,M,,0000*4A
$GPGSA,A,3,25,29,30,23,02,31,12,,,,,,2.5,1.4,2.1*3E
$GPRMC,111711.000,A,6409.4764,N,01936.4402,W,44.02,310.11,310812,,,A*46
$GPGGA,111712.000,6409.4844,N,01936.4608,W,1,07,1.4,285.8,M,60.4,M,,0000*4C
$GPGSA,A,3,25,29,30,23,02,31,12,,,,,,2.5,1.4,2.1*3E
$GPGSV,3,1,12,31,69,235,31,29,57,137,24,25,54,098,25,30,28,257,30*73
$GPGSV,3,2,12,02,26,049,40,23,19,327,34,12,17,084,32,14,09,195,35*73
$GPGSV,3,3,12,04,08,009,30,20,07,302,25,10,06,028,25,32,03,276,26*70
$GPRMC,111712.000,A,6409.4844,N,01936.4608,W,43.28,311.56,310812,,,A*4D
$GPGGA,111713.000,6409.4924,N,01936.4805,W,1,07,1.4,286.0,M,60.4,M,,0000*42
$GPGSA,A,3,25,29,30,23,02,31,12,,,,,,2.5,1.4,2.1*3E
$GPRMC,111713.000,A,6409.4924,N,01936.4805,W,42.19,312.74,310812,,,A*48
$GPGGA,111714.000,6409.5004,N,01936.4993,W,1,07,1.4,286.1,M,60.4,M,,0000*40
$GPGSA,A,3,25,29,30,23,02,31,12,,,,,,2.5,1.4,2.1*3E
$GPRMC,111714.000,A,6409.5004,N,01936.4993,W,41.10,313.78,310812,,,A*4C
$GPGGA,111715.000,6409.5083,N,01936.5175,W,1,07,1.4,286.2,M,60.4,M,,0000*4C
$GPGSA,A,3,25,29,30,23,02,31,12,,,,,,2.5,1.4,2.1*3E
$GPRMC,111715.000,A,6409.5083,N,01936.5175,W,40.16,314.63,310812,,,A*49
$GPGGA,111716.000,6409.5162,N,01936.5351,W,1,07,1.4,286.4,M,60.4,M,,0000*43
$GPGSA,A,3,25,29,30,23,02,31,12,,,,,,2.5,1.4,2.1*3E
$GPRMC,111716.000,A,6409.5162,N,01936.5351,W,39.57,315.34,310812,,,A*48
$GPGGA,111717.000,6409.5240,N,01936.5524,W,1,07,1.4,286.5,M,60.4,M,,0000*44
$GPGSA,A,3,25,29,30,23,02,31,12,,,,,,2.5,1.4,2.1*3E
$GPGSV,3,1,12,31,69,234,32,29,57,136,29,25,54,098,26,30,28,258,30*71
$GPGSV,3,2,12,02,26,049,35,23,19,327,35,12,16,084,27,14,09,195,35*75
$GPGSV,3,3,12,04,08,009,28,20,06,302,32,10,06,028,28,32,03,276,14*72
$GPRMC,111717.000,A,6409.5240,N,01936.5524,W,38.97,315.92,310812,,,A*4F
$GPGGA,111718.000,6409.5319,N,01936.5692,W,1,07,1.4,286.6,M,60.4,M,,0000*4B
$GPGSA,A,3,25,29,30,23,02,31,12,,,,,,2.5,1.4,2.1*3E
$GPRMC,111718.000,A,6409.5319,N,01936.5692,W,38.49,316.37,310812,,,A*4C
$GPGGA,111719.000,6409.5396,N,01936.5859,W,1,07,1.4,286.6,M,60.4,M,,0000*44
$GPGSA,A,3,25,29,30,23,02,31,12,,,,,,2.5,1.4,2.1*3E
$GPRMC,111719.000,A,6409.5396,N,01936.5859,W,38.14,316.49,310812,,,A*42
$GPGGA,111720.000,6409.5473,N,01936.6025,W,1,07,1.4,286.7,M,60.4,M,,0000*43
$GPGSA,A,3,25,29,30,23,02,31,12,,,,,,2.5,1.4,2.1*3E
$GPRMC,111720.000,A,6409.5473,N,01936.6025,W,37.80,316.22,310812,,,A*4B
$GPGGA,111721.000,6409.5547,N,01936.6189,W,1,07,1.4,286.6,M,60.4,M,,0000*42
$GPGSA,A,3,25,29,30,23,02,31,12,,,,,,2.5,1.4,2.1*3E
$GPRMC,111721.000,A,6409.5547,N,01936.6189,W,37.26,315.89,310812,,,A*45
$GPGGA,111722.000,6409.5621,N,01936.6351,W,1,07,1.4,286.6,M,60.4,M,,0000*45
$GPGSA,A,3,25,29,30,23,02,31,12,,,,,,2.5,1.4,2.1*3E
$GPGSV,3,1,12,31,69,234,32,29,57,136,29,25,54,098,27,30,28,258,34*74
$GPGSV,3,2,12,02,26,049,33,23,19,327,35,12,16,084,27,14,09,195,*75
$GPGSV,3,3,12,04,08,009,27,20,06,302,32,10,06,028,,32,03,276,25*75
$GPRMC,111722.000,A,6409.5621,N,01936.6351,W,36.66,315.91,310812,,,A*4E
$GPGGA,111723.000,6409.5693,N,01936.6508,W,1,07,1.4,286.6,M,60.4,M,,0000*47
$GPGSA,A,3,25,29,30,23,02,31,12,,,,,,2.5,1.4,2.1*3E
$GPRMC,111723.000,A,6409.5693,N,01936.6508,W,35.72,315.94,310812,,,A*4F
$GPGGA,111724.000,6409.5763,N,01936.6660,W,1,07,1.4,286.5,M,60.4,M,,0000*40
$GPGSA,A,3,25,29,30,23,02,31,12,,,,,,2.5,1.4,2.1*3E
$GPRMC,111724.000,A,6409.5763,N,01936.6660,W,34.64,316.02,310812,,,A*41
$GPGGA,111725.000,6409.5831,N,01936.6807,W,1,07,1.4,286.4,M,60.4,M,,0000*47
$GPGSA,A,3,25,29,30,23,02,31,12,,,,,,2.5,1.4,2.1*3E
$GPRMC,111725.000,A,6409.5831,N,01936.6807,W,33.50,316.12,310812,,,A*46
$GPGGA,111726.000,6409.5896,N,01936.6950,W,1,07,1.4,286.4,M,60.4,M,,0000*4A
$GPGSA,A,3,25,29,30,23,02,31,12,,,,,,2.5,1.4,2.1*3E
$GPRMC,111726.000,A,6409.5896,N,01936.6950,W,32.36,315.94,310812,,,A*47
$GPGGA,111727.000,6409.5959,N,01936.7088,W,1,07,1.4,286.4,M,60.4,M,,0000*44
$GPGSA,A,3,25,29,30,23,02,31,12,,,,,,2.5,1.4,2.1*3E
$GPGSV,3,1,12,31,69,234,32,29,57,136,28,25,54,098,28,30,28,258,34*7A
$GPGSV,3,2,12,02,26,049,34,23,19,327,35,12,16,084,15,14,09,195,*73
$GPGSV,3,3,12,04,08,009,27,20,06,302,32,10,06,028,25,32,03,276,20*77
$GPRMC,111727.000,A,6409.5959,N,01936.7088,W,31.34,315.82,310812,,,A*4F
$GPGGA,111728.000,6409.6020,N,01936.7221,W,1,07,1.4,286.4,M,60.4,M,,0000*4E
$GPGSA,A,3,25,29,30,23,02,31,12,,,,,,2.5,1.4,2.1*3E
$GPRMC,111728.000,A,6409.6020,N,01936.7221,W,30.28,315.82,310812,,,A*49
$GPGGA,111729.000,6409.6079,N,01936.7351,W,1,07,1.4,286.6,M,60.4,M,,0000*47
$GPGSA,A,3,25,29,30,23,02,31,12,,,,,,2.5,1.4,2.1*3E
$GPRMC,111729.000,A,6409.6079,N,01936.7351,W,29.46,315.67,310812,,,A*49
$GPGGA,111730.000,6409.6136,N,01936.7475,W,1,07,1.4,286.7,M,60.4,M,,0000*45
$GPGSA,A,3,25,29,30,23,02,31,12,,,,,,2.5,1.4,2.1*3E
$GPRMC,111730.000,A,6409.6136,N,01936.7475,W,28.36,316.08,310812,,,A*46
$GPGGA,111731.000,6409.6191,N,01936.7594,W,1,07,1.4,286.8,M,60.4,M,,0000*48
$GPGSA,A,3,25,29,30,23,02,31,12,,,,,,2.5,1.4,2.1*3E
$GPRMC,111731.000,A,6409.6191,N,01936.7594,W,27.35,315.98,310812,,,A*42
$GPGGA,111732.000,6409.6243,N,01936.7709,W,1,07,1.4,286.9,M,60.4,M,,0000*40
$GPGSA,A,3,25,29,30,23,02,31,12,,,,,,2.5,1.4,2.1*3E
$GPGSV,3,1,12,31,69,234,31,29,57,136,28,25,54,098,30,30,28,258,34*70
$GPGSV,3,2,12,02,26,049,39,23,19,327,35,12,16,084,25,14,09,195,32*7C
$GPGSV,3,3,12,04,08,009,22,20,06,302,31,10,06,028,29,32,03,276,19*77
$GPRMC,111732.000,A,6409.6243,N,01936.7709,W,26.35,315.82,310812,,,A*41
$GPGGA,111733.000,6409.6295,N,01936.7821,W,1,07,1.4,287.0,M,60.4,M,,0000*47
$GPGSA,A,3,25,29,30,23,02,31,12,,,,,,2.5,1.4,2.1*3E
$GPRMC,111733.000,A,6409.6295,N,01936.7821,W,25.58,316.01,310812,,,A*4E
$GPGGA,111734.000,6409.6344,N,01936.7929,W,1,07,1.4,287.1,M,60.4,M,,0000*45
$GPGSA,A,3,25,29,30,23,02,31,12,,,,,,2.5,1.4,2.1*3E
$GPRMC,111734.000,A,6409.6344,N,01936.7929,W,24.77,316.06,310812,,,A*46
$GPGGA,111735.000,6409.6393,N,01936.8034,W,1,07,1.4,287.2,M,60.4,M,,0000*47
$GPGSA,A,3,25,29,30,23,02,31,12,,,,,,2.5,1.4,2.1*3E
$GPRMC,111735.000,A,6409.6393,N,01936.8034,W,24.18,316.20,310812,,,A*4A
$GPGGA,111736.000,6409.6441,N,01936.8136,W,1,07,1.4,287.2,M,60.4,M,,0000*4F
$GPGSA,A,3,25,29,30,23,02,31,12,,,,,,2.5,1.4,2.1*3E
$GPRMC,111736.000,A,6409.6441,N,01936.8136,W,23.65,316.51,310812,,,A*49
$GPGGA,111737.000,6409.6489,N,01936.8239,W,1,07,1.4,287.2,M,60.4,M,,0000*46
$GPGSA,A,3,25,29,30,23,02,31,12,,,,,,2.5,1.4,2.1*3E
$GPGSV,3,1,12,31,69,234,32,29,57,136,29,25,54,098,31,30,28,258,35*72
$GPGSV,3,2,12,02,26,049,33,23,19,327,36,12,16,084,29,14,09,195,32*79
$GPGSV,3,3,12,04,08,009,24,20,06,302,31,10,06,028,26,32,03,276,19*7E
$GPRMC,111737.000,A,6409.6489,N,01936.8239,W,24.08,316.50,310812,,,A*4D
$GPGGA,111738.000,6409.6538,N,01936.8345,W,1,07,1.4,287.2,M,60.4,M,,0000*48
$GPGSA,A,3,25,29,30,23,02,31,12,,,,,,2.5,1.4,2.1*3E
$GPRMC,111738.000,A,6409.6538,N,01936.8345,W,24.57,316.43,310812,,,A*4B
$GPGGA,111739.000,6409.6587,N,01936.8452,W,1,07,1.4,287.1,M,60.4,M,,0000*4F
$GPGSA,A,3,25,29,30,23,02,31,12,,,,,,2.5,1.4,2.1*3E
$GPRMC,111739.000,A,6409.6587,N,01936.8452,W,24.70,316.56,310812,,,A*4E
$GPGGA,111740.000,6409.6636,N,01936.8557,W,1,07,1.4,287.0,M,60.4,M,,0000*4D
$GPGSA,A,3,25,29,30,23,02,31,12,,,,,,2.5,1.4,2.1*3E
$GPRMC,111740.000,A,6409.6636,N,01936.8557,W,24.43,316.66,310812,,,A*4E
$GPGGA,111741.000,6409.6684,N,01936.8661,W,1,07,1.4,286.9,M,60.4,M,,0000*4B
$GPGSA,A,3,25,29,30,23,02,31,12,,,,,,2.5,1.4,2.1*3E
$GPRMC,111741.000,A,6409.6684,N,01936.8661,W,24.07,316.43,310812,,,A*47
$GPGGA,111742.000,6409.6732,N,01936.8764,W,1,07,1.4,286.8,M,60.4,M,,0000*41
$GPGSA,A,3,25,29,30,23,02,31,12,,,,,,2.5,1.4,2.1*3E
$GPGSV,3,1,12,31,69,234,32,29,57,136,29,25,54,098,32,30,28,258,35*71
$GPGSV,3,2,12,02,26,049,36,23,19,327,36,12,16,084,29,14,09,195,31*7F
$GPGSV,3,3,12,04,08,009,33,20,06,302,31,10,06,028,28,32,03,276,12*7D
$GPRMC,111742.000,A,6409.6732,N,01936.8764,W,23.74,316.40,310812,,,A*4C
$GPGGA,111743.000,6409.6778,N,01936.8864,W,1,07,1.4,286.5,M,60.4,M,,0000*4C
$GPGSA,A,3,25,29,30,23,02,31,12,,,,,,2.5,1.4,2.1*3E
$GPRMC,111743.000,A,6409.6778,N,01936.8864,W,23.35,316.84,310812,,,A*41
$GPGGA,111744.000,6409.6825,N,01936.8966,W,1,07,1.4,286.3,M,60.4,M,,0000*49
$GPGSA,A,3,25,29,30,23,02,31,12,,,,,,2.5,1.4,2.1*3E
$GPRMC,111744.000,A,6409.6825,N,01936.8966,W,23.50,316.32,310812,,,A*4C
$GPGGA,111745.000,6409.6872,N,01936.9069,W,1,07,1.4,286.2,M,60.4,M,,0000*4C
$GPGSA,A,3,25,29,30,23,02,31,12,,,,,,2.5,1.4,2.1*3E
$GPRMC,111745.000,A,6409.6872,N,01936.9069,W,23.62,316.14,310812,,,A*4D
$GPGGA,111746.000,6409.6919,N,01936.9173,W,1,07,1.4,286.1,M,60.4,M,,0000*4A
$GPGSA,A,3,25,29,30,23,02,31,12,,,,,,2.5,1.4,2.1*3E
$GPRMC,111746.000,A,6409.6919,N,01936.9173,W,23.75,316.25,310812,,,A*4C
$GPGGA,111747.000,6409.6967,N,01936.9277,W,1,07,1.4,286.0,M,60.4,M,,0000*44
$GPGSA,A,3,25,29,30,23,02,31,12,,,,,,2.5,1.4,2.1*3E
$GPGSV,3,1,12,31,69,233,32,29,57,136,29,25,53,098,31,30,28,258,35*72
$GPGSV,3,2,12,02,26,048,37,23,19,327,37,12,16,084,31,14,09,195,27*70
$GPGSV,3,3,12,04,08,009,29,20,06,301,31,10,06,028,23,32,03,276,*7D
$GPRMC,111747.000,A,6409.6967,N,01936.9277,W,23.90,316.31,310812,,,A*4D
$GPGGA,111748.000,6409.7015,N,01936.9382,W,1,07,1.4,286.0,M,60.4,M,,0000*4D
$GPGSA,A,3,25,29,30,23,02,31,12,,,,,,2.5,1.4,2.1*3E
$GPRMC,111748.000,A,6409.7015,N,01936.9382,W,24.24,316.66,310812,,,A*4E
$GPGGA,111749.000,6409.7065,N,01936.9488,W,1,07,1.4,285.9,M,60.4,M,,0000*4C
$GPGSA,A,3,25,29,30,23,02,31,12,,,,,,2.5,1.4,2.1*3E
$GPRMC,111749.000,A,6409.7065,N,01936.9488,W,24.65,317.07,310812,,,A*46
$GPGGA,111750.000,6409.7115,N,01936.9598,W,1,07,1.4,285.8,M,60.4,M,,0000*43
$GPGSA,A,3,25,29,30,23,02,31,12,,,,,,2.5,1.4,2.1*3E
$GPRMC,111750.000,A,6409.7115,N,01936.9598,W,25.20,316.73,310812,,,A*4A
