$GPRMC,145131.000,A,5230.6070,N,01322.2848,E,1.66,296.10,130912,,,A*69
$GPGGA,145132.000,5230.6077,N,01322.2845,E,1,08,1.2,98.0,M,44.8,M,,0000*65
$GPGSA,A,3,18,06,22,07,03,16,19,15,,,,,2.1,1.2,1.7*34
$GPRMC,145132.000,A,5230.6077,N,01322.2845,E,1.68,320.99,130912,,,A*63
$GPGGA,145133.000,5230.6081,N,01322.2847,E,1,09,1.1,98.4,M,44.8,M,,0000*69
$GPGSA,A,3,18,06,22,07,03,16,21,19,15,,,,2.0,1.1,1.6*34
$GPRMC,145232.000,A,5230.6085,N,01322.2870,E,1.53,248.71,130912,,,A*6A
$GPGGA,145233.000,5230.6086,N,01322.2861,E,1,07,1.3,81.4,M,44.8,M,,0000*6D
$GPGSA,A,3,18,22,07,03,16,19,15,,,,,,2.5,1.3,2.1*32
$GPRMC,145233.000,A,5230.6086,N,01322.2861,E,1.83,286.47,130912,,,A*62
$GPGGA,145234.000,5230.6091,N,01322.2858,E,1,04,2.3,81.0,M,44.8,M,,0000*62
$GPGSA,A,3,18,22,07,19,,,,,,,,,5.5,2.3,5.0*30
$GPGSV,3,1,11,06,77,276,09,03,60,287,18,16,55,217,14,18,52,104,19*73
$GPGSV,3,2,11,21,41,069,14,22,37,164,14,19,30,289,29,07,14,310,27*70
$GPGSV,3,3,11,15,13,058,12,26,08,022,,08,06,346,16*45
$GPRMC,145234.000,A,5230.6091,N,01322.2858,E,1.61,342.52,130912,,,A*68
$GPGGA,145235.000,5230.6097,N,01322.2858,E,1,04,1.7,80.5,M,44.8,M,,0000*66
$GPGSA,A,3,22,07,21,19,,,,,,,,,6.0,1.7,5.8*33
$GPRMC,145235.000,A,5230.6097,N,01322.2858,E,1.88,2.79,130912,,,A*66
$GPGGA,145236.000,5230.6104,N,01322.2858,E,1,04,1.7,80.0,M,44.8,M,,0000*6B
$GPGSA,A,3,22,07,21,19,,,,,,,,,6.0,1.7,5.8*33
$GPRMC,145236.000,A,5230.6104,N,01322.2858,E,2.25,358.33,130912,,,A*68
$GPGGA,145237.000,5230.6111,N,01322.2860,E,1,04,1.7,79.4,M,44.8,M,,0000*67
$GPGSA,A,3,22,07,21,19,,,,,,,,,6.0,1.7,5.8*33
$GPRMC,145237.000,A,5230.6111,N,01322.2860,E,2.17,11.53,130912,,,A*5F
$GPGGA,145238.000,5230.6119,N,01322.2859,E,1,04,3.3,78.4,M,44.8,M,,0000*6D
$GPGSA,A,3,07,03,21,19,,,,,,,,,3.5,3.3,1.0*3A
$GPRMC,145238.000,A,5230.6119,N,01322.2859,E,2.61,355.88,130912,,,A*66
$GPGGA,145239.000,5230.6126,N,01322.2860,E,1,03,5.5,77.5,M,44.8,M,,0000*63
$GPGSA,A,2,22,07,19,,,,,,,,,,5.6,5.5,1.0*3E
$GPGSV,3,1,11,06,77,276,,03,60,287,16,16,55,217,14,18,52,104,*7C
$GPGSV,3,2,11,21,41,069,14,22,37,164,13,19,30,289,21,07,14,310,23*7B
$GPGSV,3,3,11,15,13,058,,26,08,022,13,08,06,346,15*47
$GPRMC,145239.000,A,5230.6126,N,01322.2860,E,2.55,2.95,130912,,,A*6B
$GPGGA,145240.000,5230.6131,N,01322.2860,E,1,04,5.5,76.2,M,44.8,M,,0000*6A
$GPGSA,A,3,22,07,03,19,,,,,,,,,6.1,5.5,2.6*3D
$GPRMC,145240.000,A,5230.6131,N,01322.2860,E,1.64,0.65,130912,,,A*6F
$GPGGA,145241.000,5230.6133,N,01322.2860,E,1,03,6.1,75.0,M,44.8,M,,0000*68
$GPGSA,A,2,07,03,19,,,,,,,,,,6.2,6.1,1.0*3D
$GPRMC,145241.000,A,5230.6133,N,01322.2860,E,1.10,345.86,130912,,,A*60
$GPGGA,145242.000,5230.6136,N,01322.2859,E,1,04,3.3,74.0,M,44.8,M,,0000*65
$GPGSA,A,3,07,03,21,19,,,,,,,,,3.5,3.3,1.0*3A
$GPRMC,145242.000,A,5230.6136,N,01322.2859,E,1.06,356.09,130912,,,A*6E
$GPGGA,145243.000,5230.6141,N,01322.2861,E,1,04,3.3,73.0,M,44.8,M,,0000*68
$GPGSA,A,3,07,03,21,19,,,,,,,,,3.5,3.3,1.0*3A
$GPRMC,145243.000,A,5230.6141,N,01322.2861,E,1.51,14.26,130912,,,A*5E
$GPGGA,145244.000,5230.6145,N,01322.2863,E,1,04,3.3,71.9,M,44.8,M,,0000*62
$GPGSA,A,3,07,03,21,19,,,,,,,,,3.5,3.3,1.0*3A
$GPGSV,3,1,11,06,77,276,,03,60,287,15,16,55,217,14,18,52,104,*7F
$GPGSV,3,2,11,21,41,069,13,22,37,164,12,19,30,289,29,07,14,310,24*72
$GPGSV,3,3,11,15,13,058,,26,08,022,13,08,06,346,16*44
$GPRMC,145244.000,A,5230.6145,N,01322.2863,E,1.51,19.05,130912,,,A*53
$GPGGA,145245.000,5230.6145,N,01322.2863,E,1,03,4.3,70.9,M,44.8,M,,0000*62
$GPGSA,A,2,07,21,19,,,,,,,,,,4.4,4.3,1.0*39
$GPRMC,145250.000,A,5230.6141,N,01322.2872,E,1.05,67.40,130912,,,A*5B
$GPGGA,145251.000,5230.6140,N,01322.2878,E,1,03,2.2,60.6,M,44.8,M,,0000*61
$GPGSA,A,2,18,22,19,,,,,,,,,,2.4,2.2,1.0*35
$GPRMC,145251.000,A,5230.6140,N,01322.2878,E,0.91,71.96,130912,,,A*51
$GPGGA,145252.000,5230.6139,N,01322.2882,E,0,00,,59.1,M,44.8,M,,0000*48
$GPGSA,A,1,,,,,,,,,,,,,,,*1E
$GPRMC,145255.000,A,5230.6141,N,01322.2888,E,1.55,328.16,130912,,,A*65
$GPGGA,145256.000,5230.6145,N,01322.2883,E,0,00,,53.1,M,44.8,M,,0000*4C
$GPGSA,A,1,,,,,,,,,,,,,,,*1E
$GPRMC,145310.000,A,5230.6170,N,01322.2782,E,5.61,231.59,130912,,,A*63
$GPGGA,145311.000,5230.6148,N,01322.2742,E,0,00,,35.0,M,44.8,M,,0000*40
$GPGSA,A,1,,,,,,,,,,,,,,,*1E
$GPRMC,145318.000,A,5230.6032,N,01322.2553,E,1.39,136.58,130912,,,A*6E
$GPGGA,145319.000,5230.6041,N,01322.2585,E,1,03,6.2,30.1,M,44.8,M,,0000*65
$GPGSA,A,2,03,07,19,,,,,,,,,,6.3,6.2,1.0*3F
$GPGSV,3,1,11,06,77,276,,03,60,287,15,16,55,217,,18,52,104,*7A
$GPGSV,3,2,11,21,41,069,,22,37,164,,19,30,289,24,07,14,310,13*7A
$GPGSV,3,3,11,15,13,058,,26,08,022,,08,06,346,*41
$GPRMC,145319.000,A,5230.6041,N,01322.2585,E,1.86,87.00,130912,,,A*52
$GPGGA,145320.000,5230.6053,N,01322.2634,E,1,03,6.2,30.0,M,44.8,M,,0000*64
$GPGSA,A,2,03,07,19,,,,,,,,,,6.3,6.2,1.0*3F
$GPRMC,145320.000,A,5230.6053,N,01322.2634,E,3.62,88.17,130912,,,A*53
$GPGGA,145321.000,5230.6066,N,01322.2694,E,1,03,6.2,29.9,M,44.8,M,,0000*68
$GPGSA,A,2,03,07,19,,,,,,,,,,6.3,6.2,1.0*3F
$GPRMC,145321.000,A,5230.6066,N,01322.2694,E,4.71,90.06,130912,,,A*52
$GPGGA,145322.000,5230.6078,N,01322.2752,E,0,00,,29.8,M,44.8,M,,0000*46
$GPGSA,A,1,,,,,,,,,,,,,,,*1E
$GPRMC,145330.000,A,5230.6195,N,01322.2977,E,1.60,11.60,130912,,,A*51
$GPGGA,145331.000,5230.6221,N,01322.2982,E,1,04,2.8,37.5,M,44.8,M,,0000*6A
$GPGSA,A,3,18,21,07,19,,,,,,,,,2.9,2.8,1.0*37
$GPRMC,145331.000,A,5230.6221,N,01322.2982,E,2.28,1.77,130912,,,A*6E
$GPGGA,145332.000,5230.6244,N,01322.2985,E,1,03,4.5,39.0,M,44.8,M,,0000*6A
$GPGSA,A,2,18,07,19,,,,,,,,,,4.6,4.5,1.0*37
$GPRMC,145332.000,A,5230.6244,N,01322.2985,E,1.19,348.18,130912,,,A*6F
$GPGGA,145333.000,5230.6259,N,01322.2986,E,1,04,2.8,40.2,M,44.8,M,,0000*64
$GPGSA,A,3,18,21,07,19,,,,,,,,,2.9,2.8,1.0*37
$GPRMC,145333.000,A,5230.6259,N,01322.2986,E,0.84,227.76,130912,,,A*64
$GPGGA,145334.000,5230.6269,N,01322.2989,E,1,04,2.8,41.2,M,44.8,M,,0000*6E
$GPGSA,A,3,18,21,07,19,,,,,,,,,2.9,2.8,1.0*37
$GPGSV,3,1,11,06,77,276,,03,60,287,17,16,55,217,,18,52,104,15*7C
$GPGSV,3,2,11,21,41,069,25,22,37,164,,19,30,289,28,07,14,310,21*70
$GPGSV,3,3,11,15,13,058,,26,08,022,16,08,06,346,*46
$GPRMC,145334.000,A,5230.6269,N,01322.2989,E,1.89,185.17,130912,,,A*6F
$GPGGA,145335.000,5230.6278,N,01322.2991,E,1,04,2.8,42.1,M,44.8,M,,0000*66
$GPGSA,A,3,18,21,07,19,,,,,,,,,2.9,2.8,1.0*37
$GPRMC,145335.000,A,5230.6278,N,01322.2991,E,2.30,188.27,130912,,,A*68
$GPGGA,145336.000,5230.6285,N,01322.2993,E,1,04,2.8,42.7,M,44.8,M,,0000*63
$GPGSA,A,3,18,21,07,19,,,,,,,,,2.9,2.8,1.0*37
$GPRMC,145336.000,A,5230.6285,N,01322.2993,E,2.12,188.48,130912,,,A*62
$GPGGA,145337.000,5230.6293,N,01322.2993,E,1,04,2.8,43.3,M,44.8,M,,0000*60
$GPGSA,A,3,18,21,07,19,,,,,,,,,2.9,2.8,1.0*37
$GPRMC,145337.000,A,5230.6293,N,01322.2993,E,1.70,192.52,130912,,,A*63
$GPGGA,145338.000,5230.6303,N,01322.2990,E,1,04,2.8,43.9,M,44.8,M,,0000*6E
$GPGSA,A,3,18,21,07,19,,,,,,,,,2.9,2.8,1.0*37
$GPRMC,145338.000,A,5230.6303,N,01322.2990,E,1.36,244.52,130912,,,A*6D
$GPGGA,145339.000,5230.6317,N,01322.2987,E,1,04,2.8,44.4,M,44.8,M,,0000*66
$GPGSA,A,3,18,21,07,19,,,,,,,,,2.9,2.8,1.0*37
$GPGSV,3,1,11,06,77,276,,03,60,287,17,16,55,217,,18,52,104,15*7C
$GPGSV,3,2,11,21,41,069,19,22,37,164,,19,30,289,22,07,14,310,20*74
$GPGSV,3,3,11,15,13,058,,26,08,022,15,08,06,346,*45
$GPRMC,145339.000,A,5230.6317,N,01322.2987,E,1.48,316.64,130912,,,A*65
$GPGGA,145340.000,5230.6331,N,01322.2982,E,1,04,2.8,45.0,M,44.8,M,,0000*6C
$GPGSA,A,3,18,21,07,19,,,,,,,,,2.9,2.8,1.0*37
$GPRMC,145340.000,A,5230.6331,N,01322.2982,E,1.73,313.58,130912,,,A*68
$GPGGA,145341.000,5230.6346,N,01322.2980,E,1,04,2.8,45.5,M,44.8,M,,0000*6A
$GPGSA,A,3,18,21,07,19,,,,,,,,,2.9,2.8,1.0*37
$GPRMC,145341.000,A,5230.6346,N,01322.2980,E,1.74,340.15,130912,,,A*63
$GPGGA,145342.000,5230.6354,N,01322.2976,E,1,04,2.8,45.9,M,44.8,M,,0000*6F
$GPGSA,A,3,18,21,07,19,,,,,,,,,2.9,2.8,1.0*37
$GPRMC,145343.000,A,5230.6359,N,01322.2972,E,1.24,207.81,130912,,,A*68
$GPGGA,145344.000,5230.6365,N,01322.2975,E,1,04,2.8,46.2,M,44.8,M,,0000*60
$GPGSA,A,3,18,21,07,19,,,,,,,,,3.0,2.8,1.0*3F
$GPGSV,3,1,11,06,77,276,,03,60,287,18,16,55,217,,18,52,104,16*70
$GPGSV,3,2,11,21,41,069,18,22,37,164,,19,30,289,26,07,14,310,19*7B
$GPGSV,3,3,11,15,13,058,,26,08,022,15,08,06,346,*45
$GPRMC,145345.000,A,5230.6373,N,01322.2979,E,0.93,68.33,130912,,,A*52
$GPGGA,145346.000,5230.6381,N,01322.2981,E,1,04,2.8,46.8,M,44.8,M,,0000*69
$GPGSA,A,3,18,21,07,19,,,,,,,,,3.0,2.8,1.0*3F
$GPRMC,145348.000,A,5230.6394,N,01322.2983,E,0.85,55.73,130912,,,A*5E
$GPGGA,145349.000,5230.6402,N,01322.2983,E,1,04,2.8,47.8,M,44.8,M,,0000*69
$GPGSA,A,3,18,21,07,19,,,,,,,,,3.0,2.8,1.0*3F
$GPGSV,3,1,11,06,77,276,,03,60,287,18,16,55,217,,18,52,104,17*71
$GPGSV,3,2,11,21,41,069,20,22,37,164,,19,30,289,23,07,14,310,16*7A
$GPGSV,3,3,11,15,13,058,,26,08,022,14,08,06,346,*44
$GPRMC,145349.000,A,5230.6402,N,01322.2983,E,1.12,5.74,130912,,,A*6A
$GPGGA,145350.000,5230.6410,N,01322.2982,E,1,04,2.8,48.2,M,44.8,M,,0000*66
$GPGSA,A,3,18,21,07,19,,,,,,,,,3.0,2.8,1.0*3F
$GPRMC,145350.000,A,5230.6410,N,01322.2982,E,1.05,356.79,130912,,,A*6E
$GPGGA,145351.000,5230.6417,N,01322.2982,E,1,04,2.8,48.5,M,44.8,M,,0000*67
$GPGSA,A,3,18,21,07,19,,,,,,,,,3.0,2.8,1.0*3F
$GPRMC,145351.000,A,5230.6417,N,01322.2982,E,1.02,14.21,130912,,,A*57
$GPGGA,145352.000,5230.6423,N,01322.2983,E,1,03,4.4,48.6,M,44.8,M,,0000*6C
$GPGSA,A,2,21,07,19,,,,,,,,,,4.5,4.4,1.0*3F
$GPRMC,145352.000,A,5230.6423,N,01322.2983,E,1.21,14.55,130912,,,A*50
$GPGGA,145353.000,5230.6430,N,01322.2983,E,0,00,,48.8,M,44.8,M,,0000*4D
$GPGSA,A,1,,,,,,,,,,,,,,,*1E
$GPRMC,145354.000,A,5230.6428,N,01322.2980,E,1.04,199.03,130912,,,A*6E
$GPGGA,145355.000,5230.6426,N,01322.2976,E,0,00,,48.6,M,44.8,M,,0000*48
$GPGSA,A,1,,,,,,,,,,,,,,,*1E
$GPRMC,145403.000,A,5230.6415,N,01322.2947,E,1.05,179.95,130912,,,A*6E
$GPGGA,145404.000,5230.6416,N,01322.2943,E,1,04,2.8,36.9,M,44.8,M,,0000*69
$GPGSA,A,3,18,21,07,19,,,,,,,,,3.0,2.8,1.0*3F
$GPGSV,3,1,11,06,77,276,15,03,60,287,18,16,55,217,,18,52,104,19*7B
$GPGSV,3,2,11,21,41,069,13,22,37,164,,19,30,289,26,07,14,310,18*71
$GPGSV,3,3,11,15,13,058,,26,08,022,16,08,06,346,*46
$GPRMC,145405.000,A,5230.6423,N,01322.2942,E,1.45,15.43,130912,,,A*5C
$GPGGA,145406.000,5230.6430,N,01322.2942,E,0,00,,34.6,M,44.8,M,,0000*42
$GPGSA,A,1,,,,,,,,,,,,,,,*1E
$GPRMC,145408.000,A,5230.6443,N,01322.2945,E,1.41,43.95,130912,,,A*5C
$GPGGA,145409.000,5230.6446,N,01322.2946,E,1,04,2.8,32.3,M,44.8,M,,0000*6A
$GPGSA,A,3,18,21,07,19,,,,,,,,,3.0,2.8,1.0*3F
$GPGSV,3,1,11,06,77,276,15,03,60,287,19,16,55,217,,18,52,104,18*7B
$GPGSV,3,2,11,21,41,069,28,22,37,164,,19,30,289,27,07,14,310,17*77
$GPGSV,3,3,11,15,13,058,,26,08,022,23,08,06,346,15*44
$GPRMC,145413.000,A,5230.6454,N,01322.2950,E,0.82,17.71,130912,,,A*51
$GPGGA,145414.000,5230.6459,N,01322.2951,E,1,04,2.8,28.4,M,44.8,M,,0000*62
$GPGSA,A,3,18,21,07,19,,,,,,,,,3.0,2.8,1.0*3F
$GPGSV,3,1,11,06,77,276,15,03,60,287,18,16,55,217,,18,52,104,22*73
$GPGSV,3,2,11,21,41,069,30,22,37,164,,19,30,289,27,07,14,310,16*7F
$GPGSV,3,3,11,15,13,058,,26,08,022,24,08,06,346,14*42
$GPRMC,145414.000,A,5230.6459,N,01322.2951,E,1.65,355.73,130912,,,A*65
$GPGGA,145415.000,5230.6463,N,01322.2952,E,1,04,2.8,27.4,M,44.8,M,,0000*66
$GPGSA,A,3,18,21,07,19,,,,,,,,,3.0,2.8,1.0*3F
$GPRMC,145415.000,A,5230.6463,N,01322.2952,E,1.65,6.94,130912,,,A*62
$GPGGA,145416.000,5230.6463,N,01322.2953,E,1,04,2.8,26.4,M,44.8,M,,0000*65
$GPGSA,A,3,18,21,07,19,,,,,,,,,3.0,2.8,1.0*3F
$GPRMC,145418.000,A,5230.6467,N,01322.2955,E,1.69,12.32,130912,,,A*59
$GPGGA,145419.000,5230.6471,N,01322.2959,E,1,04,4.7,24.6,M,44.8,M,,0000*6A
$GPGSA,A,3,03,18,21,07,,,,,,,,,6.5,4.7,4.5*3D
$GPGSV,3,1,11,06,78,273,15,03,61,287,19,16,53,216,,18,52,102,22*78
$GPGSV,3,2,11,21,40,069,22,22,39,163,,19,32,290,18,07,14,309,16*7A
$GPGSV,3,3,11,15,13,057,,26,08,021,17,08,07,345,13*4B
$GPRMC,145419.000,A,5230.6471,N,01322.2959,E,2.07,30.16,130912,,,A*5E
$GPGGA,145420.000,5230.6474,N,01322.2961,E,1,04,2.8,24.4,M,44.8,M,,0000*65
$GPGSA,A,3,18,21,07,19,,,,,,,,,3.0,2.8,1.0*3F
$GPRMC,145420.000,A,5230.6474,N,01322.2961,E,1.45,33.40,130912,,,A*5F
$GPGGA,145421.000,5230.6474,N,01322.2961,E,1,05,1.5,24.1,M,44.8,M,,0000*6E
$GPGSA,A,3,18,21,07,19,16,,,,,,,,1.8,1.5,1.0*3C
$GPRMC,145424.000,A,5230.6462,N,01322.2960,E,1.45,176.56,130912,,,A*6A
$GPGGA,145425.000,5230.6454,N,01322.2960,E,1,05,1.5,21.7,M,44.8,M,,0000*6A
$GPGSA,A,3,18,21,07,19,16,,,,,,,,1.8,1.5,1.0*3C
$GPRMC,145425.000,A,5230.6454,N,01322.2960,E,1.69,172.44,130912,,,A*67
$GPGGA,145426.000,5230.6444,N,01322.2959,E,1,05,1.5,20.9,M,44.8,M,,0000*6D
$GPGSA,A,3,18,21,07,19,16,,,,,,,,1.8,1.5,1.0*3C
$GPRMC,145426.000,A,5230.6444,N,01322.2959,E,2.23,185.44,130912,,,A*6A
$GPGGA,145427.000,5230.6432,N,01322.2955,E,1,05,1.5,20.2,M,44.8,M,,0000*6A
$GPGSA,A,3,18,21,07,19,16,,,,,,,,1.8,1.5,1.0*3C
$GPRMC,145427.000,A,5230.6432,N,01322.2955,E,3.04,191.13,130912,,,A*65
$GPGGA,145428.000,5230.6422,N,01322.2952,E,1,04,2.8,19.4,M,44.8,M,,0000*60
$GPGSA,A,3,18,21,07,19,,,,,,,,,3.0,2.8,1.0*3F
$GPRMC,145428.000,A,5230.6422,N,01322.2952,E,2.33,194.81,130912,,,A*67
$GPGGA,145429.000,5230.6415,N,01322.2950,E,1,04,2.8,18.6,M,44.8,M,,0000*64
$GPGSA,A,3,18,21,07,19,,,,,,,,,3.0,2.8,1.0*3F
$GPGSV,3,1,11,06,78,273,,03,61,287,18,16,53,216,15,18,52,102,23*78
$GPGSV,3,2,11,21,40,069,28,22,39,163,,19,32,290,27,07,14,309,15*7F
$GPGSV,3,3,11,15,13,057,,26,08,021,15,08,07,345,12*48
$GPRMC,145429.000,A,5230.6415,N,01322.2950,E,1.33,204.66,130912,,,A*60
$GPGGA,145430.000,5230.6407,N,01322.2948,E,1,04,2.8,17.7,M,44.8,M,,0000*68
$GPGSA,A,3,18,21,07,19,,,,,,,,,3.0,2.8,1.0*3F
$GPRMC,145430.000,A,5230.6407,N,01322.2948,E,1.21,198.40,130912,,,A*63
$GPGGA,145431.000,5230.6402,N,01322.2949,E,1,05,1.5,16.7,M,44.8,M,,0000*63
$GPGSA,A,3,18,21,07,19,16,,,,,,,,1.8,1.5,1.0*3C
$GPRMC,145432.000,A,5230.6393,N,01322.2948,E,1.35,201.17,130912,,,A*6F
$GPGGA,145433.000,5230.6384,N,01322.2946,E,1,05,1.5,14.7,M,44.8,M,,0000*65
$GPGSA,A,3,18,21,07,19,16,,,,,,,,1.8,1.5,1.0*3C
$GPRMC,145433.000,A,5230.6384,N,01322.2946,E,1.85,198.36,130912,,,A*6D
$GPGGA,145434.000,5230.6374,N,01322.2944,E,1,04,1.6,13.8,M,44.8,M,,0000*65
$GPGSA,A,3,21,07,19,16,,,,,,,,,1.9,1.6,1.0*37
$GPGSV,3,1,11,06,78,273,13,03,61,287,17,16,53,216,13,18,52,102,13*70
$GPGSV,3,2,11,21,40,069,19,22,39,163,,19,32,290,21,07,14,309,15*7B
$GPGSV,3,3,11,15,13,057,,26,08,021,16,08,07,345,*48
$GPRMC,145434.000,A,5230.6374,N,01322.2944,E,2.18,198.71,130912,,,A*63
$GPGGA,145435.000,5230.6364,N,01322.2939,E,1,05,2.2,13.3,M,44.8,M,,0000*62
$GPGSA,A,3,21,07,19,16,06,,,,,,,,3.9,2.2,3.2*34
$GPRMC,145435.000,A,5230.6364,N,01322.2939,E,2.70,209.38,130912,,,A*61
$GPGGA,145436.000,5230.6357,N,01322.2935,E,1,05,2.2,13.2,M,44.8,M,,0000*6C
$GPGSA,A,3,21,07,19,16,06,,,,,,,,3.9,2.2,3.2*34
$GPRMC,145436.000,A,5230.6357,N,01322.2935,E,2.34,199.99,130912,,,A*6F
$GPGGA,145437.000,5230.6350,N,01322.2934,E,1,04,1.6,13.1,M,44.8,M,,0000*6E
$GPGSA,A,3,21,07,19,16,,,,,,,,,1.9,1.6,1.0*37
$GPRMC,145437.000,A,5230.6350,N,01322.2934,E,1.78,183.50,130912,,,A*6D
$GPGGA,145438.000,5230.6344,N,01322.2933,E,1,04,1.6,13.0,M,44.8,M,,0000*62
$GPGSA,A,3,21,07,19,16,,,,,,,,,1.9,1.6,1.0*37
$GPRMC,145438.000,A,5230.6344,N,01322.2933,E,1.69,177.22,130912,,,A*6E
$GPGGA,145439.000,5230.6338,N,01322.2934,E,1,04,1.6,12.8,M,44.8,M,,0000*66
$GPGSA,A,3,21,07,19,16,,,,,,,,,1.9,1.6,1.0*37
$GPGSV,3,1,11,06,78,273,15,03,61,287,18,16,53,216,13,18,52,102,13*79
$GPGSV,3,2,11,21,40,069,20,22,39,163,,19,32,290,21,07,14,309,14*70
$GPGSV,3,3,11,15,13,057,,26,08,021,16,08,07,345,*48
$GPRMC,145439.000,A,5230.6338,N,01322.2934,E,1.92,171.73,130912,,,A*65
$GPGGA,145440.000,5230.6330,N,01322.2934,E,1,04,1.6,12.6,M,44.8,M,,0000*6E
$GPGSA,A,3,21,07,19,16,,,,,,,,,1.9,1.6,1.0*37
$GPRMC,145440.000,A,5230.6330,N,01322.2934,E,2.25,172.10,130912,,,A*6A
$GPGGA,145441.000,5230.6323,N,01322.2935,E,1,03,1.9,12.3,M,44.8,M,,0000*61
$GPGSA,A,2,21,19,16,,,,,,,,,,2.2,1.9,1.0*36
$GPRMC,145441.000,A,5230.6323,N,01322.2935,E,2.33,168.65,130912,,,A*66
$GPGGA,145442.000,5230.6317,N,01322.2937,E,1,04,5.1,12.2,M,44.8,M,,0000*6D
$GPGSA,A,3,07,19,16,06,,,,,,,,,7.1,5.1,4.9*33
$GPRMC,145442.000,A,5230.6317,N,01322.2937,E,2.19,164.43,130912,,,A*60
$GPGGA,145443.000,5230.6311,N,01322.2939,E,0,00,,12.0,M,44.8,M,,0000*49
$GPGSA,A,1,,,,,,,,,,,,,,,*1E
$GPRMC,145452.000,A,5230.6312,N,01322.2932,E,1.04,356.45,130912,,,A*6B
$GPGGA,145453.000,5230.6319,N,01322.2928,E,1,04,3.6,14.6,M,44.8,M,,0000*6E
$GPGSA,A,3,21,19,15,06,,,,,,,,,3.7,3.6,1.0*3B
$GPRMC,145453.000,A,5230.6319,N,01322.2928,E,1.14,348.90,130912,,,A*6C
$GPGGA,145454.000,5230.6328,N,01322.2927,E,1,06,1.3,15.7,M,44.8,M,,0000*61
$GPGSA,A,3,18,21,19,15,22,06,,,,,,,2.5,1.3,2.1*34
$GPGSV,3,1,11,06,78,273,14,03,61,287,17,16,53,216,,18,52,102,16*70
$GPGSV,3,2,11,21,40,069,23,22,39,163,22,19,32,290,26,07,14,309,16*76
$GPGSV,3,3,11,15,13,057,14,26,08,021,17,08,07,345,21*4F
$GPRMC,145455.000,A,5230.6339,N,01322.2923,E,1.17,335.19,130912,,,A*6B
$GPGGA,145456.000,5230.6352,N,01322.2919,E,1,06,1.3,17.8,M,44.8,M,,0000*6E
$GPGSA,A,3,18,21,19,15,22,06,,,,,,,2.5,1.3,2.1*34
$GPRMC,145456.000,A,5230.6352,N,01322.2919,E,1.99,336.46,130912,,,A*63
$GPGGA,145457.000,5230.6366,N,01322.2916,E,1,06,1.3,19.2,M,44.8,M,,0000*63
$GPGSA,A,3,18,21,19,15,22,06,,,,,,,2.5,1.3,2.1*34
$GPRMC,145457.000,A,5230.6366,N,01322.2916,E,2.05,342.42,130912,,,A*6B
$GPGGA,145458.000,5230.6381,N,01322.2914,E,1,05,1.4,20.7,M,44.8,M,,0000*6C
$GPGSA,A,3,21,19,15,22,06,,,,,,,,2.6,1.4,2.2*3A
$GPRMC,145458.000,A,5230.6381,N,01322.2914,E,2.54,355.42,130912,,,A*6D
$GPGGA,145459.000,5230.6394,N,01322.2916,E,1,05,1.4,22.4,M,44.8,M,,0000*6A
$GPGSA,A,3,21,19,15,22,06,,,,,,,,2.6,1.4,2.2*3A
$GPGSV,3,1,11,06,78,273,13,03,61,287,17,16,53,216,,18,52,102,17*76
$GPGSV,3,2,11,21,40,069,15,22,39,163,19,19,32,290,19,07,14,309,17*76
$GPGSV,3,3,11,15,13,057,20,26,08,021,17,08,07,345,21*48
$GPRMC,145459.000,A,5230.6394,N,01322.2916,E,1.78,17.42,130912,,,A*52
$GPGGA,145500.000,5230.6407,N,01322.2920,E,1,05,1.4,24.3,M,44.8,M,,0000*6E
$GPGSA,A,3,21,19,15,22,06,,,,,,,,2.6,1.4,2.2*3A
$GPRMC,145500.000,A,5230.6407,N,01322.2920,E,2.33,28.81,130912,,,A*58
$GPGGA,145501.000,5230.6423,N,01322.2923,E,1,05,1.4,26.1,M,44.8,M,,0000*6A
$GPGSA,A,3,21,19,15,22,06,,,,,,,,2.6,1.4,2.2*3A
$GPRMC,145501.000,A,5230.6423,N,01322.2923,E,3.21,16.35,130912,,,A*5C
$GPGGA,145502.000,5230.6439,N,01322.2925,E,1,04,3.0,28.1,M,44.8,M,,0000*6D
$GPGSA,A,3,21,15,22,06,,,,,,,,,4.8,3.0,3.8*37
$GPRMC,145502.000,A,5230.6439,N,01322.2925,E,3.38,15.02,130912,,,A*5D
$GPGGA,145503.000,5230.6452,N,01322.2926,E,1,04,5.9,30.4,M,44.8,M,,0000*61
$GPGSA,A,3,18,21,15,06,,,,,,,,,8.9,5.9,6.7*36
$GPRMC,145503.000,A,5230.6452,N,01322.2926,E,2.81,17.77,130912,,,A*51
$GPGGA,145504.000,5230.6463,N,01322.2924,E,1,03,2.9,32.9,M,44.8,M,,0000*69
$GPGSA,A,2,18,15,06,,,,,,,,,,3.1,2.9,1.0*30
$GPGSV,3,1,11,06,78,273,14,03,61,287,16,16,53,216,11,18,52,102,17*70
$GPGSV,3,2,11,21,40,069,16,22,39,163,07,19,32,290,19,07,14,309,19*74
$GPGSV,3,3,11,15,13,057,21,26,08,021,17,08,07,345,21*49
$GPRMC,145504.000,A,5230.6463,N,01322.2924,E,2.23,5.25,130912,,,A*6A
$GPGGA,145505.000,5230.6470,N,01322.2921,E,1,05,4.8,35.3,M,44.8,M,,0000*63
$GPGSA,A,3,18,21,07,15,06,,,,,,,,6.5,4.8,4.4*32
$GPRMC,145505.000,A,5230.6470,N,01322.2921,E,0.86,352.64,130912,,,A*65
$GPGGA,145506.000,5230.6477,N,01322.2919,E,1,06,4.6,37.6,M,44.8,M,,0000*66
$GPGSA,A,3,03,18,21,07,15,06,,,,,,,6.2,4.6,4.1*3D
$GPRMC,145506.000,A,5230.6477,N,01322.2919,E,1.00,5.58,130912,,,A*6B
$GPGGA,145507.000,5230.6483,N,01322.2917,E,1,06,4.6,39.9,M,44.8,M,,0000*63
$GPGSA,A,3,03,18,21,07,15,06,,,,,,,6.2,4.6,4.1*3D
$GPRMC,145507.000,A,5230.6483,N,01322.2917,E,0.99,23.07,130912,,,A*50
$GPGGA,145508.000,5230.6488,N,01322.2916,E,1,04,5.8,42.1,M,44.8,M,,0000*6F
$GPGSA,A,3,18,21,07,15,,,,,,,,,8.8,5.8,6.6*36
$GPRMC,145514.000,A,5230.6497,N,01322.2897,E,0.86,26.14,130912,,,A*57
$GPGGA,145515.000,5230.6501,N,01322.2894,E,1,05,2.9,50.6,M,44.8,M,,0000*6B
$GPGSA,A,3,03,21,07,19,15,,,,,,,,3.1,2.9,1.0*31
$GPRMC,145515.000,A,5230.6501,N,01322.2894,E,1.26,17.88,130912,,,A*57
$GPGGA,145516.000,5230.6508,N,01322.2890,E,1,06,4.3,51.2,M,44.8,M,,0000*6F
$GPGSA,A,3,03,18,21,07,19,15,,,,,,,6.0,4.3,4.1*34
$GPRMC,145516.000,A,5230.6508,N,01322.2890,E,1.96,17.57,130912,,,A*50
$GPGGA,145517.000,5230.6514,N,01322.2888,E,1,05,4.7,51.9,M,44.8,M,,0000*66
$GPGSA,A,3,03,18,21,07,15,,,,,,,,6.5,4.7,4.5*39
$GPRMC,145517.000,A,5230.6514,N,01322.2888,E,2.01,35.54,130912,,,A*5B
$GPGGA,145518.000,5230.6522,N,01322.2883,E,1,06,4.6,53.0,M,44.8,M,,0000*6E
$GPGSA,A,3,03,18,21,07,15,06,,,,,,,6.2,4.6,4.1*3D
$GPRMC,145518.000,A,5230.6522,N,01322.2883,E,1.82,25.38,130912,,,A*59
$GPGGA,145519.000,5230.6528,N,01322.2875,E,0,06,,54.0,M,44.8,M,,0000*46
$GPGSA,A,1,03,21,07,19,15,06,,,,,,,,,*13
$GPGSV,3,1,11,06,78,273,16,03,61,287,18,16,53,216,12,18,52,102,19*71
$GPGSV,3,2,11,21,40,069,23,22,39,163,,19,32,290,20,07,14,309,25*70
$GPGSV,3,3,11,15,13,057,25,26,08,021,20,08,07,345,22*4A
$GPRMC,145522.000,A,5230.6540,N,01322.2850,E,1.41,350.04,130912,,,A*6B
$GPGGA,145523.000,5230.6547,N,01322.2838,E,1,05,2.9,57.9,M,44.8,M,,0000*62
$GPGSA,A,3,03,21,07,19,15,,,,,,,,3.1,2.9,1.0*31
$GPRMC,145523.000,A,5230.6547,N,01322.2838,E,2.42,341.59,130912,,,A*6B
$GPGGA,145524.000,5230.6553,N,01322.2824,E,1,05,2.9,58.5,M,44.8,M,,0000*6E
$GPGSA,A,3,03,21,07,19,15,,,,,,,,3.1,2.9,1.0*31
$GPGSV,3,1,11,06,78,273,16,03,61,287,21,16,53,216,12,18,52,102,18*7A
$GPGSV,3,2,11,21,40,069,22,22,39,163,,19,32,290,20,07,14,309,24*70
$GPGSV,3,3,11,15,13,057,26,26,08,021,21,08,07,345,22*48
$GPRMC,145524.000,A,5230.6553,N,01322.2824,E,2.64,338.67,130912,,,A*63
$GPGGA,145525.000,5230.6561,N,01322.2812,E,1,07,4.2,59.1,M,44.8,M,,0000*61
$GPGSA,A,3,03,18,21,07,19,15,06,,,,,,5.6,4.2,3.7*37
$GPRMC,145525.000,A,5230.6561,N,01322.2812,E,2.92,348.64,130912,,,A*6B
$GPGGA,145526.000,5230.6567,N,01322.2798,E,1,06,4.5,59.5,M,44.8,M,,0000*6B
$GPGSA,A,3,18,21,07,19,15,06,,,,,,,6.2,4.5,4.2*36
$GPRMC,145526.000,A,5230.6567,N,01322.2798,E,2.15,337.49,130912,,,A*6B
$GPGGA,145527.000,5230.6571,N,01322.2786,E,1,05,2.5,59.6,M,44.8,M,,0000*64
$GPGSA,A,3,21,07,19,15,06,,,,,,,,2.7,2.5,1.0*3F
$GPRMC,145527.000,A,5230.6571,N,01322.2786,E,1.31,346.61,130912,,,A*6B
$GPGGA,145528.000,5230.6575,N,01322.2774,E,1,05,2.5,59.5,M,44.8,M,,0000*61
$GPGSA,A,3,21,07,19,15,06,,,,,,,,2.7,2.5,1.0*3F
$GPRMC,145528.000,A,5230.6575,N,01322.2774,E,1.42,344.57,130912,,,A*6E
$GPGGA,145529.000,5230.6577,N,01322.2765,E,1,05,2.5,59.5,M,44.8,M,,0000*62
$GPGSA,A,3,21,07,19,15,06,,,,,,,,2.7,2.5,1.0*3F
$GPGSV,3,1,11,06,78,273,21,03,61,287,18,16,53,216,14,18,52,102,16*7C
$GPGSV,3,2,11,21,40,069,17,22,39,163,,19,32,290,21,07,14,309,24*77
$GPGSV,3,3,11,15,13,057,21,26,08,021,20,08,07,345,21*4D
$GPRMC,145529.000,A,5230.6577,N,01322.2765,E,0.84,3.09,130912,,,A*6D
$GPGGA,145530.000,5230.6576,N,01322.2753,E,1,06,2.0,59.3,M,44.8,M,,0000*6E
$GPGSA,A,3,21,07,19,15,16,06,,,,,,,3.3,2.0,2.6*3D
$GPRMC,145536.000,A,5230.6565,N,01322.2702,E,1.20,183.85,130912,,,A*63
$GPGGA,145537.000,5230.6564,N,01322.2693,E,1,07,2.0,59.2,M,44.8,M,,0000*67
$GPGSA,A,3,03,18,21,07,19,15,16,,,,,,3.3,2.0,2.7*30
$GPRMC,145541.000,A,5230.6576,N,01322.2664,E,1.49,323.34,130912,,,A*6D
$GPGGA,145542.000,5230.6579,N,01322.2655,E,1,06,2.0,60.6,M,44.8,M,,0000*6C
$GPGSA,A,3,03,18,21,07,15,16,,,,,,,3.3,2.0,2.7*38
$GPRMC,145542.000,A,5230.6579,N,01322.2655,E,0.89,316.91,130912,,,A*67
$GPGGA,145543.000,5230.6583,N,01322.2646,E,1,07,1.8,60.7,M,44.8,M,,0000*61
$GPGSA,A,3,03,18,21,07,15,16,06,,,,,,2.9,1.8,2.2*3B
$GPRMC,145543.000,A,5230.6583,N,01322.2646,E,1.21,321.79,130912,,,A*60
$GPGGA,145544.000,5230.6584,N,01322.2638,E,1,06,1.9,60.6,M,44.8,M,,0000*69
$GPGSA,A,3,03,21,07,15,16,06,,,,,,,2.9,1.9,2.2*33
$GPGSV,3,1,11,06,78,273,14,03,61,287,21,16,53,216,13,18,52,102,16*77
$GPGSV,3,2,11,21,40,069,20,22,39,163,,19,32,290,18,07,14,309,22*7F
$GPGSV,3,3,11,15,13,057,22,26,08,021,17,08,07,345,17*4F
$GPRMC,145545.000,A,5230.6588,N,01322.2631,E,1.25,337.78,130912,,,A*6F
$GPGGA,145546.000,5230.6593,N,01322.2626,E,1,07,2.0,60.0,M,44.8,M,,0000*6F
$GPGSA,A,3,18,21,07,19,15,16,06,,,,,,3.2,2.0,2.6*35
$GPRMC,145546.000,A,5230.6593,N,01322.2626,E,1.72,0.95,130912,,,A*66
$GPGGA,145547.000,5230.6598,N,01322.2623,E,1,05,6.0,59.6,M,44.8,M,,0000*6A
$GPGSA,A,3,18,21,07,19,15,,,,,,,,9.1,6.0,6.9*32
$GPRMC,145547.000,A,5230.6598,N,01322.2623,E,1.70,16.58,130912,,,A*5D
$GPGGA,145548.000,5230.6601,N,01322.2619,E,1,05,6.0,59.3,M,44.8,M,,0000*6A
$GPGSA,A,3,18,21,07,19,15,,,,,,,,9.1,6.0,6.9*32
$GPRMC,145548.000,A,5230.6601,N,01322.2619,E,1.12,8.77,130912,,,A*6E
$GPGGA,145549.000,5230.6603,N,01322.2613,E,1,05,6.0,58.8,M,44.8,M,,0000*69
$GPGSA,A,3,18,21,07,19,15,,,,,,,,9.1,6.0,6.9*32
$GPGSV,3,1,11,06,78,273,14,03,61,287,10,16,53,216,,18,52,102,17*76
$GPGSV,3,2,11,21,40,069,20,22,39,163,,19,32,290,24,07,14,309,22*70
$GPGSV,3,3,11,15,13,057,13,26,08,021,20,08,07,345,16*48
$GPRMC,145554.000,A,5230.6603,N,01322.2588,E,1.15,357.69,130912,,,A*6B
$GPGGA,145555.000,5230.6603,N,01322.2584,E,1,05,2.9,57.1,M,44.8,M,,0000*62
$GPGSA,A,3,03,21,07,19,15,,,,,,,,3.1,2.9,1.0*31
$GPRMC,145556.000,A,5230.6598,N,01322.2582,E,1.64,169.15,130912,,,A*60
$GPGGA,145557.000,5230.6591,N,01322.2581,E,1,06,4.4,56.2,M,44.8,M,,0000*67
$GPGSA,A,3,03,18,21,07,19,15,,,,,,,6.1,4.4,4.2*31
$GPRMC,145557.000,A,5230.6591,N,01322.2581,E,2.34,172.13,130912,,,A*61
$GPGGA,145558.000,5230.6583,N,01322.2579,E,1,08,1.8,55.5,M,44.8,M,,0000*6F
$GPGSA,A,3,03,18,21,07,19,15,16,06,,,,,2.8,1.8,2.2*32
$GPRMC,145558.000,A,5230.6583,N,01322.2579,E,2.45,171.91,130912,,,A*65
$GPGGA,145559.000,5230.6576,N,01322.2577,E,1,08,1.8,55.0,M,44.8,M,,0000*6F
$GPGSA,A,3,03,18,21,07,19,15,16,06,,,,,2.8,1.8,2.2*32
$GPGSV,3,1,11,06,78,273,14,03,61,287,21,16,53,216,13,18,52,102,17*76
$GPGSV,3,2,11,21,40,069,20,22,39,163,,19,32,290,22,07,14,309,24*70
$GPGSV,3,3,11,15,13,057,26,26,08,021,18,08,07,345,*42
$GPRMC,145559.000,A,5230.6576,N,01322.2577,E,1.70,172.05,130912,,,A*6B
$GPGGA,145600.000,5230.6573,N,01322.2575,E,1,05,2.9,54.9,M,44.8,M,,0000*60
$GPGSA,A,3,03,21,07,19,15,,,,,,,,3.1,2.9,1.0*31
$GPRMC,145608.000,A,5230.6581,N,01322.2561,E,1.14,18.63,130912,,,A*5C
$GPGGA,145609.000,5230.6584,N,01322.2558,E,1,09,1.1,55.7,M,44.8,M,,0000*66
$GPGSA,A,3,03,18,21,07,19,15,16,06,22,,,,2.0,1.1,1.7*35
$GPGSV,3,1,11,06,78,273,17,03,61,287,21,16,53,216,14,18,52,102,17*72
$GPGSV,3,2,11,21,40,069,24,22,39,163,13,19,32,290,17,07,14,309,22*76
$GPGSV,3,3,11,15,13,057,24,26,08,021,20,08,07,345,16*4C
$GPRMC,145609.000,A,5230.6584,N,01322.2558,E,1.16,345.46,130912,,,A*6C
$GPGGA,145610.000,5230.6588,N,01322.2558,E,1,09,1.1,55.4,M,44.8,M,,0000*61
$GPGSA,A,3,03,18,21,07,19,15,16,06,22,,,,2.0,1.1,1.7*35
$GPRMC,145610.000,A,5230.6588,N,01322.2558,E,0.93,7.60,130912,,,A*65
$GPGGA,145611.000,5230.6591,N,01322.2559,E,1,08,1.2,54.9,M,44.8,M,,0000*67
$GPGSA,A,3,03,21,07,19,15,16,06,22,,,,,2.1,1.2,1.7*3E
$GPRMC,145611.000,A,5230.6591,N,01322.2559,E,0.89,27.19,130912,,,A*5A
$GPGGA,145612.000,5230.6594,N,01322.2559,E,1,05,2.9,54.6,M,44.8,M,,0000*6B
$GPGSA,A,3,03,21,07,19,15,,,,,,,,3.1,2.9,1.0*31
$GPRMC,145621.000,A,5230.6626,N,01322.2560,E,0.84,321.53,130912,,,A*6A
$GPGGA,145622.000,5230.6629,N,01322.2560,E,1,06,1.9,55.3,M,44.8,M,,0000*63
$GPGSA,A,3,03,07,19,15,16,06,,,,,,,3.0,1.9,2.2*30
$GPRMC,145625.000,A,5230.6629,N,01322.2563,E,0.90,141.79,130912,,,A*6B
$GPGGA,145626.000,5230.6628,N,01322.2565,E,1,07,1.9,53.0,M,44.8,M,,0000*67
$GPGSA,A,3,03,18,07,19,15,16,06,,,,,,2.9,1.9,2.2*31
$GPRMC,145631.000,A,5230.6635,N,01322.2554,E,1.66,299.47,130912,,,A*64
$GPGGA,145632.000,5230.6639,N,01322.2549,E,1,06,4.5,52.9,M,44.8,M,,0000*6C
$GPGSA,A,3,03,18,21,07,19,15,,,,,,,6.2,4.5,4.3*32
$GPRMC,145632.000,A,5230.6639,N,01322.2549,E,1.81,321.78,130912,,,A*60
$GPGGA,145633.000,5230.6643,N,01322.2541,E,1,06,4.5,53.2,M,44.8,M,,0000*62
$GPGSA,A,3,03,18,21,07,19,15,,,,,,,6.2,4.5,4.3*32
$GPRMC,145633.000,A,5230.6643,N,01322.2541,E,2.09,321.41,130912,,,A*6D
$GPGGA,145634.000,5230.6649,N,01322.2536,E,1,06,2.1,53.9,M,44.8,M,,0000*66
$GPGSA,A,3,03,18,07,19,15,16,,,,,,,3.5,2.1,2.8*3B
$GPGSV,3,1,11,06,78,273,,03,61,287,18,16,53,216,12,18,52,102,17*78
$GPGSV,3,2,11,21,40,069,17,22,39,163,,19,32,290,22,07,14,309,21*71
$GPGSV,3,3,11,15,13,057,23,26,08,021,19,08,07,345,16*41
$GPRMC,145634.000,A,5230.6649,N,01322.2536,E,1.92,332.49,130912,,,A*6B
$GPGGA,145635.000,5230.6652,N,01322.2534,E,1,06,4.5,54.6,M,44.8,M,,0000*65
$GPGSA,A,3,03,18,21,07,19,15,,,,,,,6.3,4.5,4.3*33
$GPRMC,145635.000,A,5230.6652,N,01322.2534,E,0.84,341.89,130912,,,A*6C
$GPGGA,145636.000,5230.6654,N,01322.2533,E,1,04,4.1,55.5,M,44.8,M,,0000*63
$GPGSA,A,3,18,07,15,16,,,,,,,,,7.8,4.1,6.6*35
$GPRMC,145640.000,A,5230.6661,N,01322.2520,E,0.86,303.44,130912,,,A*6E
$GPGGA,145641.000,5230.6667,N,01322.2518,E,1,04,6.1,61.5,M,44.8,M,,0000*6F
$GPGSA,A,3,03,18,07,15,,,,,,,,,8.4,6.1,5.8*3D
$GPRMC,145641.000,A,5230.6667,N,01322.2518,E,1.68,353.72,130912,,,A*63
$GPGGA,145642.000,5230.6675,N,01322.2516,E,1,04,6.1,62.5,M,44.8,M,,0000*62
$GPGSA,A,3,03,18,07,15,,,,,,,,,8.4,6.1,5.8*3D
$GPRMC,145642.000,A,5230.6675,N,01322.2516,E,2.17,356.27,130912,,,A*63
$GPGGA,145643.000,5230.6685,N,01322.2514,E,1,05,5.4,63.3,M,44.8,M,,0000*6E
$GPGSA,A,3,03,18,07,19,15,,,,,,,,7.5,5.4,5.2*37
$GPRMC,145643.000,A,5230.6685,N,01322.2514,E,3.38,355.21,130912,,,A*66
$GPGGA,145644.000,5230.6696,N,01322.2512,E,1,04,6.1,63.9,M,44.8,M,,0000*60
$GPGSA,A,3,03,18,07,15,,,,,,,,,8.4,6.1,5.8*3D
$GPGSV,3,1,11,06,78,273,,03,61,287,16,16,53,216,12,18,52,102,15*74
$GPGSV,3,2,11,21,40,069,13,22,39,163,,19,32,290,12,07,14,309,21*76
$GPGSV,3,3,11,15,13,057,23,26,08,021,26,08,07,345,16*4D
$GPRMC,145644.000,A,5230.6696,N,01322.2512,E,3.45,353.34,130912,,,A*6D
$GPGGA,145645.000,5230.6706,N,01322.2508,E,1,04,6.1,64.4,M,44.8,M,,0000*68
$GPGSA,A,3,03,18,07,15,,,,,,,,,8.4,6.1,5.8*3D
$GPRMC,145645.000,A,5230.6706,N,01322.2508,E,3.07,344.99,130912,,,A*68
$GPGGA,145646.000,5230.6716,N,01322.2507,E,1,04,6.4,65.1,M,44.8,M,,0000*64
$GPGSA,A,3,18,21,07,15,,,,,,,,,9.8,6.4,7.4*3B
$GPRMC,145646.000,A,5230.6716,N,01322.2507,E,2.83,0.12,130912,,,A*68
$GPGGA,145647.000,5230.6721,N,01322.2506,E,1,03,2.4,65.5,M,44.8,M,,0000*67
$GPGSA,A,2,18,07,15,,,,,,,,,,2.6,2.4,1.0*3A
$GPRMC,145647.000,A,5230.6721,N,01322.2506,E,1.37,354.70,130912,,,A*66
$GPGGA,145648.000,5230.6724,N,01322.2505,E,1,03,3.6,66.0,M,44.8,M,,0000*6B
$GPGSA,A,2,18,21,07,,,,,,,,,,3.8,3.6,1.0*31
$GPRMC,145649.000,A,5230.6721,N,01322.2502,E,1.29,206.17,130912,,,A*64
$GPGGA,145650.000,5230.6718,N,01322.2499,E,0,00,,66.7,M,44.8,M,,0000*47
$GPGSA,A,1,,,,,,,,,,,,,,,*1E
$GPRMC,145651.000,A,5230.6711,N,01322.2485,E,3.67,227.64,130912,,,A*6F
$GPGGA,145652.000,5230.6703,N,01322.2470,E,0,00,,67.1,M,44.8,M,,0000*4F
$GPGSA,A,1,,,,,,,,,,,,,,,*1E
$GPRMC,145653.000,A,5230.6705,N,01322.2484,E,2.45,92.91,130912,,,A*5E
$GPGGA,145654.000,5230.6716,N,01322.2502,E,1,03,4.7,67.4,M,44.8,M,,0000*63
$GPGSA,A,2,21,07,19,,,,,,,,,,4.8,4.7,1.0*31
$GPGSV,3,1,11,06,78,273,,03,61,287,,16,53,216,,18,52,102,*74
$GPGSV,3,2,11,21,40,069,23,22,39,163,,19,32,290,17,07,14,309,15*77
$GPGSV,3,3,11,15,13,057,,26,08,021,13,08,07,345,*4D
$GPRMC,145654.000,A,5230.6716,N,01322.2502,E,3.49,51.44,130912,,,A*5E
$GPGGA,145655.000,5230.6723,N,01322.2512,E,1,03,4.7,67.5,M,44.8,M,,0000*64
$GPGSA,A,2,21,07,19,,,,,,,,,,4.8,4.7,1.0*31
$GPRMC,145655.000,A,5230.6723,N,01322.2512,E,1.87,34.20,130912,,,A*59
$GPGGA,145656.000,5230.6721,N,01322.2511,E,1,04,3.4,67.7,M,44.8,M,,0000*67
$GPGSA,A,3,21,07,19,03,,,,,,,,,3.6,3.4,1.0*3E
$GPRMC,145656.000,A,5230.6721,N,01322.2511,E,1.03,218.07,130912,,,A*6E
$GPGGA,145657.000,5230.6722,N,01322.2510,E,1,04,3.4,68.0,M,44.8,M,,0000*6C
$GPGSA,A,3,21,07,19,03,,,,,,,,,3.6,3.4,1.0*3E
$GPRMC,145658.000,A,5230.6724,N,01322.2509,E,1.05,336.86,130912,,,A*6E
$GPGGA,145659.000,5230.6723,N,01322.2510,E,1,06,4.6,68.9,M,44.8,M,,0000*6D
$GPGSA,A,3,06,21,07,19,18,03,,,,,,,6.1,4.6,3.9*3D
$GPGSV,3,1,11,06,78,273,23,03,61,287,22,16,53,216,,18,52,102,26*71
$GPGSV,3,2,11,21,40,069,22,22,39,163,,19,32,290,18,07,14,309,16*7A
$GPGSV,3,3,11,15,13,057,,26,08,021,13,08,07,345,*4D
$GPRMC,145659.000,A,5230.6723,N,01322.2510,E,0.87,352.54,130912,,,A*66
$GPGGA,145700.000,5230.6721,N,01322.2513,E,1,06,4.6,69.4,M,44.8,M,,0000*6D
$GPGSA,A,3,06,21,07,19,18,03,,,,,,,6.1,4.6,3.9*3D
$GPRMC,145700.000,A,5230.6721,N,01322.2513,E,1.12,9.61,130912,,,A*6C
$GPGGA,145701.000,5230.6710,N,01322.2514,E,1,06,4.6,69.2,M,44.8,M,,0000*6F
$GPGSA,A,3,06,21,07,19,18,03,,,,,,,6.1,4.6,3.9*3D
$GPRMC,145710.000,A,5230.6602,N,01322.2535,E,0.89,182.66,130912,,,A*6F
$GPGGA,145711.000,5230.6588,N,01322.2538,E,1,06,4.7,58.7,M,44.8,M,,0000*65
$GPGSA,A,3,06,21,07,19,18,03,,,,,,,6.1,4.7,3.9*3C
$GPRMC,145711.000,A,5230.6588,N,01322.2538,E,0.96,180.55,130912,,,A*6E
$GPGGA,145712.000,5230.6575,N,01322.2539,E,1,05,4.8,57.4,M,44.8,M,,0000*65
$GPGSA,A,3,21,07,19,18,03,,,,,,,,6.5,4.8,4.5*3A
$GPRMC,145712.000,A,5230.6575,N,01322.2539,E,1.22,192.63,130912,,,A*66
$GPGGA,145713.000,5230.6562,N,01322.2542,E,1,05,4.8,56.4,M,44.8,M,,0000*6F
$GPGSA,A,3,21,07,19,18,03,,,,,,,,6.5,4.8,4.5*3A
$GPRMC,145713.000,A,5230.6562,N,01322.2542,E,1.37,178.97,130912,,,A*66
$GPGGA,145714.000,5230.6550,N,01322.2545,E,1,06,4.7,55.7,M,44.8,M,,0000*62
$GPGSA,A,3,06,21,07,19,18,03,,,,,,,6.1,4.7,3.9*3C
$GPGSV,3,1,11,06,78,273,20,03,61,287,26,16,53,216,,18,52,102,30*71
$GPGSV,3,2,11,21,40,069,31,22,39,163,,19,32,290,24,07,14,309,21*73
$GPGSV,3,3,11,15,13,057,,26,08,021,15,08,07,345,*4B
$GPRMC,145714.000,A,5230.6550,N,01322.2545,E,1.43,181.15,130912,,,A*68
$GPGGA,145715.000,5230.6541,N,01322.2549,E,1,06,4.7,55.1,M,44.8,M,,0000*69
$GPGSA,A,3,06,21,07,19,18,03,,,,,,,6.1,4.7,3.9*3C
$GPRMC,145719.000,A,5230.6507,N,01322.2562,E,1.20,180.95,130912,,,A*6E
$GPGGA,145720.000,5230.6497,N,01322.2565,E,1,06,4.7,51.7,M,44.8,M,,0000*69
$GPGSA,A,3,06,21,07,19,18,03,,,,,,,6.2,4.7,4.0*31
$GPRMC,145720.000,A,5230.6497,N,01322.2565,E,1.27,178.12,130912,,,A*64
$GPGGA,145721.000,5230.6486,N,01322.2566,E,1,06,4.7,50.6,M,44.8,M,,0000*6B
$GPGSA,A,3,06,21,07,19,18,03,,,,,,,6.2,4.7,4.0*31
$GPRMC,145721.000,A,5230.6486,N,01322.2566,E,1.61,180.84,130912,,,A*6C
$GPGGA,145722.000,5230.6474,N,01322.2568,E,1,06,4.7,49.0,M,44.8,M,,0000*65
$GPGSA,A,3,06,21,07,19,18,03,,,,,,,6.2,4.7,4.0*31
$GPRMC,145722.000,A,5230.6474,N,01322.2568,E,1.87,176.38,130912,,,A*6A
$GPGGA,145723.000,5230.6462,N,01322.2569,E,1,06,4.7,47.5,M,44.8,M,,0000*69
$GPGSA,A,3,06,21,07,19,18,03,,,,,,,6.2,4.7,4.0*31
$GPRMC,145723.000,A,5230.6462,N,01322.2569,E,2.19,178.30,130912,,,A*6F
$GPGGA,145724.000,5230.6449,N,01322.2571,E,1,06,4.7,46.1,M,44.8,M,,0000*6B
$GPGSA,A,3,06,21,07,19,18,03,,,,,,,6.2,4.7,4.0*31
$GPGSV,3,1,11,06,80,269,15,03,62,286,24,18,52,100,32,16,52,214,*78
$GPGSV,3,2,11,22,40,163,,21,39,069,30,19,33,290,31,07,14,308,20*77
$GPGSV,3,3,11,15,14,055,,26,08,020,14,08,08,344,*40
$GPRMC,145724.000,A,5230.6449,N,01322.2571,E,2.30,178.29,130912,,,A*6B
$GPGGA,145725.000,5230.6438,N,01322.2571,E,1,06,4.7,44.9,M,44.8,M,,0000*66
$GPGSA,A,3,06,21,07,19,18,03,,,,,,,6.2,4.7,4.0*31
$GPRMC,145725.000,A,5230.6438,N,01322.2571,E,1.77,184.38,130912,,,A*6F
$GPGGA,145726.000,5230.6431,N,01322.2571,E,1,06,1.4,43.8,M,44.8,M,,0000*6C
$GPGSA,A,3,21,07,19,18,03,22,,,,,,,2.8,1.4,2.4*3D
$GPRMC,145726.000,A,5230.6431,N,01322.2571,E,0.90,186.77,130912,,,A*64
$GPGGA,145727.000,5230.6423,N,01322.2570,E,1,07,1.4,42.9,M,44.8,M,,0000*6E
$GPGSA,A,3,06,21,07,19,18,03,22,,,,,,2.4,1.4,1.9*39
$GPRMC,145727.000,A,5230.6423,N,01322.2570,E,1.24,188.94,130912,,,A*6A
$GPGGA,145728.000,5230.6415,N,01322.2571,E,1,07,1.4,42.1,M,44.8,M,,0000*6D
$GPGSA,A,3,06,21,07,19,18,03,22,,,,,,2.4,1.4,1.9*39
$GPRMC,145728.000,A,5230.6415,N,01322.2571,E,1.53,179.92,130912,,,A*69
$GPGGA,145729.000,5230.6404,N,01322.2569,E,1,06,4.7,41.4,M,44.8,M,,0000*64
$GPGSA,A,3,06,21,07,19,18,03,,,,,,,6.2,4.7,4.0*31
$GPGSV,3,1,11,06,80,269,24,03,62,286,20,18,52,100,25,16,52,214,*78
$GPGSV,3,2,11,22,40,163,12,21,39,069,29,19,33,290,31,07,14,308,19*76
$GPGSV,3,3,11,15,14,055,,26,08,020,15,08,08,344,*41
$GPRMC,145729.000,A,5230.6404,N,01322.2569,E,2.46,185.61,130912,,,A*69
$GPGGA,145730.000,5230.6397,N,01322.2569,E,1,06,4.7,40.7,M,44.8,M,,0000*63
$GPGSA,A,3,06,21,07,19,18,03,,,,,,,6.2,4.7,4.0*31
$GPRMC,145730.000,A,5230.6397,N,01322.2569,E,1.35,187.03,130912,,,A*6D
$GPGGA,145731.000,5230.6395,N,01322.2569,E,1,06,4.8,40.0,M,44.8,M,,0000*68
$GPGSA,A,3,06,21,07,19,18,03,,,,,,,6.2,4.8,4.0*3E
$GPRMC,145735.000,A,5230.6389,N,01322.2567,E,0.96,14.55,130912,,,A*59
$GPGGA,145736.000,5230.6390,N,01322.2568,E,1,06,4.8,37.7,M,44.8,M,,0000*6C
$GPGSA,A,3,06,21,07,19,18,03,,,,,,,6.2,4.8,4.0*3E
$GPRMC,145736.000,A,5230.6390,N,01322.2568,E,0.96,11.24,130912,,,A*5E
$GPGGA,145737.000,5230.6387,N,01322.2567,E,1,06,4.8,37.4,M,44.8,M,,0000*67
$GPGSA,A,3,06,21,07,19,18,03,,,,,,,6.2,4.8,4.0*3E
$GPRMC,145738.000,A,5230.6377,N,01322.2563,E,3.33,188.78,130912,,,A*66
$GPGGA,145739.000,5230.6365,N,01322.2559,E,1,06,4.8,37.7,M,44.8,M,,0000*6B
$GPGSA,A,3,06,21,07,19,18,03,,,,,,,6.2,4.8,4.0*3E
$GPGSV,3,1,11,06,80,269,20,03,62,286,23,18,52,100,20,16,52,214,*7A
$GPGSV,3,2,11,22,40,163,,21,39,069,23,19,33,290,21,07,14,308,17*70
$GPGSV,3,3,11,15,14,055,,26,08,020,15,08,08,344,*41
$GPRMC,145739.000,A,5230.6365,N,01322.2559,E,4.01,188.74,130912,,,A*67
$GPGGA,145740.000,5230.6355,N,01322.2554,E,1,06,4.8,38.1,M,44.8,M,,0000*62
$GPGSA,A,3,06,21,07,19,18,03,,,,,,,6.2,4.8,4.0*3E
$GPRMC,145740.000,A,5230.6355,N,01322.2554,E,3.80,188.46,130912,,,A*68
$GPGGA,145741.000,5230.6344,N,01322.2550,E,1,06,4.8,38.5,M,44.8,M,,0000*63
$GPGSA,A,3,06,21,07,19,18,03,,,,,,,6.2,4.8,4.0*3E
$GPRMC,145741.000,A,5230.6344,N,01322.2550,E,3.99,189.08,130912,,,A*6E
$GPGGA,145742.000,5230.6336,N,01322.2546,E,1,06,4.8,38.9,M,44.8,M,,0000*6E
$GPGSA,A,3,06,21,07,19,18,03,,,,,,,6.3,4.8,4.0*3F
$GPRMC,145742.000,A,5230.6336,N,01322.2546,E,2.62,190.95,130912,,,A*66
$GPGGA,145743.000,5230.6333,N,01322.2545,E,1,05,2.8,39.0,M,44.8,M,,0000*64
$GPGSA,A,3,06,21,07,19,03,,,,,,,,3.0,2.8,1.0*33
$GPRMC,145743.000,A,5230.6333,N,01322.2545,E,1.15,168.64,130912,,,A*6B
$GPGGA,145744.000,5230.6332,N,01322.2545,E,1,04,2.9,39.3,M,44.8,M,,0000*61
$GPGSA,A,3,06,21,07,03,,,,,,,,,3.0,2.9,1.0*3A
$GPGSV,3,1,11,06,80,269,20,03,62,286,24,18,52,100,09,16,52,214,*76
$GPGSV,3,2,11,22,40,163,,21,39,069,25,19,33,290,19,07,14,308,18*72
$GPGSV,3,3,11,15,14,055,,26,08,020,14,08,08,344,*40
$GPRMC,145745.000,A,5230.6335,N,01322.2545,E,0.86,14.49,130912,,,A*55
$GPGGA,145746.000,5230.6343,N,01322.2542,E,1,05,4.9,40.4,M,44.8,M,,0000*6C
$GPGSA,A,3,06,21,19,18,03,,,,,,,,6.5,4.9,4.3*3C
$GPRMC,145746.000,A,5230.6343,N,01322.2542,E,1.98,345.79,130912,,,A*6A
$GPGGA,145747.000,5230.6353,N,01322.2538,E,1,05,4.9,41.2,M,44.8,M,,0000*66
$GPGSA,A,3,06,21,19,18,03,,,,,,,,6.5,4.9,4.3*3C
$GPRMC,145747.000,A,5230.6353,N,01322.2538,E,2.58,342.88,130912,,,A*61
$GPGGA,145748.000,5230.6367,N,01322.2539,E,1,06,4.8,42.1,M,44.8,M,,0000*6D
$GPGSA,A,3,06,21,07,19,18,03,,,,,,,6.3,4.8,4.0*3F
$GPRMC,145748.000,A,5230.6367,N,01322.2539,E,3.17,0.47,130912,,,A*64
$GPGGA,145749.000,5230.6383,N,01322.2540,E,1,06,4.8,42.9,M,44.8,M,,0000*60
$GPGSA,A,3,06,21,07,19,18,03,,,,,,,6.3,4.8,4.0*3F
$GPGSV,3,1,11,06,80,269,20,03,62,286,20,18,52,100,22,16,52,214,*7B
$GPGSV,3,2,11,22,40,163,,21,39,069,22,19,33,290,18,07,14,308,23*7C
$GPGSV,3,3,11,15,14,055,,26,08,020,13,08,08,344,*47
$GPRMC,145749.000,A,5230.6383,N,01322.2540,E,3.74,2.62,130912,,,A*61
$GPGGA,145750.000,5230.6404,N,01322.2545,E,1,06,4.8,43.8,M,44.8,M,,0000*65
$GPGSA,A,3,06,21,07,19,18,03,,,,,,,6.3,4.8,4.0*3F
$GPRMC,145750.000,A,5230.6404,N,01322.2545,E,4.78,9.38,130912,,,A*6B
$GPGGA,145751.000,5230.6417,N,01322.2550,E,1,06,4.8,44.6,M,44.8,M,,0000*6B
$GPGSA,A,3,06,21,07,19,18,03,,,,,,,6.3,4.8,4.0*3F
$GPRMC,145751.000,A,5230.6417,N,01322.2550,E,3.27,18.14,130912,,,A*5F
$GPGGA,145752.000,5230.6425,N,01322.2551,E,1,06,4.8,45.1,M,44.8,M,,0000*6E
$GPGSA,A,3,06,21,07,19,18,03,,,,,,,6.3,4.8,4.0*3F
$GPRMC,145752.000,A,5230.6425,N,01322.2551,E,1.77,9.23,130912,,,A*6F
$GPGGA,145753.000,5230.6429,N,01322.2552,E,1,06,4.8,45.3,M,44.8,M,,0000*62
$GPGSA,A,3,06,21,07,19,18,03,,,,,,,6.3,4.8,4.0*3F
$GPRMC,145755.000,A,5230.6434,N,01322.2561,E,1.21,112.02,130912,,,A*60
$GPGGA,145756.000,5230.6436,N,01322.2569,E,1,04,3.0,45.3,M,44.8,M,,0000*6C
$GPGSA,A,3,06,21,07,19,,,,,,,,,3.1,3.0,1.0*38
$GPRMC,145756.000,A,5230.6436,N,01322.2569,E,1.48,90.00,130912,,,A*5F
$GPGGA,145757.000,5230.6430,N,01322.2577,E,1,05,5.2,45.0,M,44.8,M,,0000*62
$GPGSA,A,3,06,21,07,19,18,,,,,,,,7.1,5.2,4.8*3C
$GPRMC,145757.000,A,5230.6430,N,01322.2577,E,2.57,140.15,130912,,,A*62
$GPGGA,145758.000,5230.6422,N,01322.2583,E,1,06,4.9,44.5,M,44.8,M,,0000*68
$GPGSA,A,3,06,21,07,19,18,03,,,,,,,6.3,4.9,4.1*3F
$GPRMC,145758.000,A,5230.6422,N,01322.2583,E,2.86,156.29,130912,,,A*61
$GPGGA,145759.000,5230.6417,N,01322.2585,E,1,05,5.2,44.2,M,44.8,M,,0000*67
$GPGSA,A,3,06,21,07,19,18,,,,,,,,7.1,5.2,4.8*3C
$GPGSV,3,1,11,06,80,269,19,03,62,286,15,18,52,100,16,16,52,214,*70
$GPGSV,3,2,11,22,40,163,,21,39,069,23,19,33,290,22,07,14,308,17*73
$GPGSV,3,3,11,15,14,055,,26,08,020,,08,08,344,*45
$GPRMC,145759.000,A,5230.6417,N,01322.2585,E,1.53,152.16,130912,,,A*63
$GPGGA,145800.000,5230.6416,N,01322.2589,E,1,05,4.9,43.6,M,44.8,M,,0000*60
$GPGSA,A,3,21,07,19,18,03,,,,,,,,6.7,4.9,4.6*3A
$GPRMC,145800.000,A,5230.6416,N,01322.2589,E,1.02,74.10,130912,,,A*5A
$GPGGA,145801.000,5230.6418,N,01322.2594,E,1,03,4.8,43.1,M,44.8,M,,0000*63
$GPGSA,A,2,21,07,19,,,,,,,,,,4.9,4.8,1.0*3F
$GPRMC,145801.000,A,5230.6418,N,01322.2594,E,1.40,56.29,130912,,,A*55
$GPGGA,145802.000,5230.6415,N,01322.2598,E,1,06,4.9,42.3,M,44.8,M,,0000*66
$GPGSA,A,3,06,21,07,19,18,03,,,,,,,6.3,4.9,4.1*3F
$GPRMC,145802.000,A,5230.6415,N,01322.2598,E,1.08,99.86,130912,,,A*5D
$GPGGA,145803.000,5230.6410,N,01322.2600,E,1,06,4.9,41.3,M,44.8,M,,0000*63
$GPGSA,A,3,06,21,07,19,18,03,,,,,,,6.4,4.9,4.1*38
$GPRMC,145804.000,A,5230.6399,N,01322.2601,E,2.28,171.99,130912,,,A*63
$GPGGA,145805.000,5230.6387,N,01322.2599,E,1,06,4.9,39.1,M,44.8,M,,0000*62
$GPGSA,A,3,06,21,07,19,18,03,,,,,,,6.4,4.9,4.1*38
$GPRMC,145805.000,A,5230.6387,N,01322.2599,E,3.19,181.04,130912,,,A*67
$GPGGA,145806.000,5230.6376,N,01322.2596,E,1,06,4.9,38.3,M,44.8,M,,0000*63
$GPGSA,A,3,06,21,07,19,18,03,,,,,,,6.4,4.9,4.1*38
$GPRMC,145806.000,A,5230.6376,N,01322.2596,E,2.95,187.49,130912,,,A*6F
$GPGGA,145807.000,5230.6366,N,01322.2592,E,1,06,4.9,37.8,M,44.8,M,,0000*63
$GPGSA,A,3,06,21,07,19,18,03,,,,,,,6.4,4.9,4.1*38
$GPRMC,145807.000,A,5230.6366,N,01322.2592,E,2.87,186.19,130912,,,A*6C
$GPGGA,145808.000,5230.6360,N,01322.2589,E,1,06,4.9,37.6,M,44.8,M,,0000*6E
$GPGSA,A,3,06,21,07,19,18,03,,,,,,,6.4,4.9,4.1*38
$GPRMC,145808.000,A,5230.6360,N,01322.2589,E,1.79,188.26,130912,,,A*6F
$GPGGA,145809.000,5230.6357,N,01322.2586,E,1,06,4.9,37.7,M,44.8,M,,0000*65
$GPGSA,A,3,06,21,07,19,18,03,,,,,,,6.4,4.9,4.1*38
$GPGSV,3,1,11,06,80,269,20,03,62,286,26,18,52,100,22,16,52,214,*7D
$GPGSV,3,2,11,22,40,163,,21,39,069,32,19,33,290,21,07,14,308,24*70
$GPGSV,3,3,11,15,14,055,,26,08,020,,08,08,344,*45
$GPRMC,145809.000,A,5230.6357,N,01322.2586,E,1.13,188.74,130912,,,A*6E
$GPGGA,145810.000,5230.6353,N,01322.2583,E,1,06,4.9,37.6,M,44.8,M,,0000*6D
$GPGSA,A,3,06,21,07,19,18,03,,,,,,,6.4,4.9,4.1*38
$GPRMC,145810.000,A,5230.6353,N,01322.2583,E,1.18,180.49,130912,,,A*6A
$GPGGA,145811.000,5230.6348,N,01322.2580,E,1,06,4.9,37.6,M,44.8,M,,0000*65
$GPGSA,A,3,06,21,07,19,18,03,,,,,,,6.4,4.9,4.1*38
$GPRMC,145811.000,A,5230.6348,N,01322.2580,E,1.21,187.75,130912,,,A*60
$GPGGA,145812.000,5230.6346,N,01322.2578,E,1,06,4.9,37.7,M,44.8,M,,0000*6E
$GPGSA,A,3,06,21,07,19,18,03,,,,,,,6.4,4.9,4.1*38
$GPRMC,145817.000,A,5230.6364,N,01322.2572,E,1.53,22.63,130912,,,A*59
$GPGGA,145818.000,5230.6373,N,01322.2572,E,1,06,4.9,42.2,M,44.8,M,,0000*6F
$GPGSA,A,3,06,21,07,19,18,03,,,,,,,6.4,4.9,4.1*38
$GPRMC,145818.000,A,5230.6373,N,01322.2572,E,1.40,12.39,130912,,,A*5E
$GPGGA,145819.000,5230.6381,N,01322.2569,E,1,04,3.5,43.3,M,44.8,M,,0000*60
$GPGSA,A,3,21,07,19,03,,,,,,,,,3.6,3.5,1.0*3F
$GPGSV,3,1,11,06,80,269,18,03,62,286,21,18,52,100,18,16,52,214,*78
$GPGSV,3,2,11,22,40,163,,21,39,069,25,19,33,290,27,07,14,308,22*76
$GPGSV,3,3,11,15,14,055,,26,08,020,,08,08,344,*45
$GPRMC,145819.000,A,5230.6381,N,01322.2569,E,1.40,348.87,130912,,,A*61
$GPGGA,145820.000,5230.6387,N,01322.2568,E,1,05,5.0,44.5,M,44.8,M,,0000*6E
$GPGSA,A,3,21,07,19,18,03,,,,,,,,6.8,5.0,4.6*3D
$GPRMC,145820.000,A,5230.6387,N,01322.2568,E,0.97,13.64,130912,,,A*57
$GPGGA,145821.000,5230.6390,N,01322.2569,E,1,06,5.0,45.5,M,44.8,M,,0000*6A
$GPGSA,A,3,06,21,07,19,18,03,,,,,,,6.4,5.0,4.1*30
$GPRMC,145822.000,A,5230.6387,N,01322.2568,E,0.84,184.17,130912,,,A*6C
$GPGGA,145823.000,5230.6385,N,01322.2569,E,1,05,5.4,47.3,M,44.8,M,,0000*6F
$GPGSA,A,3,06,21,07,19,18,,,,,,,,7.3,5.4,4.9*39
$GPRMC,145823.000,A,5230.6385,N,01322.2569,E,0.86,144.97,130912,,,A*68
$GPGGA,145824.000,5230.6381,N,01322.2571,E,1,04,4.2,48.1,M,44.8,M,,0000*6E
$GPGSA,A,3,06,07,19,18,,,,,,,,,4.3,4.2,1.0*32
$GPGSV,3,1,11,06,80,269,19,03,62,286,19,18,52,100,24,16,52,214,*7D
$GPGSV,3,2,11,22,40,163,,21,39,069,19,19,33,290,14,07,14,308,17*7F
$GPGSV,3,3,11,15,14,055,,26,08,020,11,08,08,344,*45
$GPRMC,145824.000,A,5230.6381,N,01322.2571,E,1.54,161.24,130912,,,A*63
$GPGGA,145825.000,5230.6376,N,01322.2569,E,0,04,,49.3,M,44.8,M,,0000*44
$GPGSA,A,1,06,19,18,03,,,,,,,,,,,*1A
$GPRMC,145826.000,A,5230.6372,N,01322.2564,E,1.75,216.38,130912,,,A*64
$GPGGA,145827.000,5230.6365,N,01322.2552,E,1,06,5.0,52.0,M,44.8,M,,0000*6D
$GPGSA,A,3,06,21,07,19,18,03,,,,,,,6.5,5.0,4.1*31
$GPRMC,145827.000,A,5230.6365,N,01322.2552,E,3.39,223.70,130912,,,A*66
$GPGGA,145828.000,5230.6361,N,01322.2545,E,1,06,5.0,53.8,M,44.8,M,,0000*69
$GPGSA,A,3,06,21,07,19,18,03,,,,,,,6.5,5.0,4.1*31
$GPRMC,145828.000,A,5230.6361,N,01322.2545,E,2.04,223.77,130912,,,A*63
$GPGGA,145829.000,5230.6362,N,01322.2540,E,1,06,5.0,55.6,M,44.8,M,,0000*66
$GPGSA,A,3,06,21,07,19,18,03,,,,,,,6.5,5.0,4.1*31
$GPGSV,3,1,11,06,80,269,24,03,62,286,22,18,52,100,23,16,52,214,*7C
$GPGSV,3,2,11,22,40,163,,21,39,069,22,19,33,290,20,07,14,308,17*70
$GPGSV,3,3,11,15,14,055,,26,08,020,11,08,08,344,*45
$GPRMC,145829.000,A,5230.6362,N,01322.2540,E,0.90,264.66,130912,,,A*68
$GPGGA,145830.000,5230.6363,N,01322.2537,E,1,06,5.0,57.2,M,44.8,M,,0000*69
$GPGSA,A,3,06,21,07,19,18,03,,,,,,,6.5,5.0,4.1*31
$GPRMC,145831.000,A,5230.6370,N,01322.2538,E,0.86,12.10,130912,,,A*58
$GPGGA,145832.000,5230.6379,N,01322.2543,E,1,06,5.0,60.1,M,44.8,M,,0000*64
$GPGSA,A,3,06,21,07,19,18,03,,,,,,,6.5,5.0,4.1*31
$GPRMC,145832.000,A,5230.6379,N,01322.2543,E,1.84,32.00,130912,,,A*5E
$GPGGA,145833.000,5230.6384,N,01322.2547,E,1,06,5.0,60.9,M,44.8,M,,0000*6B
$GPGSA,A,3,06,21,07,19,18,03,,,,,,,6.5,5.0,4.1*31
$GPRMC,145833.000,A,5230.6384,N,01322.2547,E,1.35,46.95,130912,,,A*5C
$GPGGA,145834.000,5230.6385,N,01322.2548,E,1,06,5.0,61.3,M,44.8,M,,0000*69
$GPGSA,A,3,06,21,07,19,18,03,,,,,,,6.5,5.0,4.1*31
$GPGSV,3,1,11,06,80,269,23,03,62,286,27,18,52,100,26,16,52,214,*7B
$GPGSV,3,2,11,22,40,163,,21,39,069,25,19,33,290,28,07,14,308,20*7B
$GPGSV,3,3,11,15,14,055,,26,08,020,,08,08,344,*45
$GPRMC,145837.000,A,5230.6385,N,01322.2548,E,0.87,70.21,130912,,,A*54
$GPGGA,145838.000,5230.6384,N,01322.2549,E,1,06,5.0,61.8,M,44.8,M,,0000*6E
$GPGSA,A,3,06,21,07,19,18,03,,,,,,,6.5,5.0,4.2*32
$GPRMC,145846.000,A,5230.6357,N,01322.2537,E,1.18,181.70,130912,,,A*69
$GPGGA,145847.000,5230.6350,N,01322.2536,E,1,07,1.4,55.6,M,44.8,M,,0000*6F
$GPGSA,A,3,06,21,07,19,18,03,22,,,,,,2.4,1.4,1.9*39
$GPRMC,145847.000,A,5230.6350,N,01322.2536,E,1.76,178.49,130912,,,A*6A
$GPGGA,145848.000,5230.6347,N,01322.2537,E,1,07,1.4,55.2,M,44.8,M,,0000*63
$GPGSA,A,3,06,21,07,19,18,03,22,,,,,,2.4,1.4,1.9*39
$GPRMC,145848.000,A,5230.6347,N,01322.2537,E,0.90,169.05,130912,,,A*63
$GPGGA,145849.000,5230.6345,N,01322.2535,E,1,06,5.1,54.6,M,44.8,M,,0000*67
$GPGSA,A,3,06,21,07,19,18,03,,,,,,,6.6,5.1,4.2*30
$GPGSV,3,1,11,06,80,269,22,03,62,286,29,18,52,100,22,16,52,214,*70
$GPGSV,3,2,11,22,40,163,,21,39,069,26,19,33,290,24,07,14,308,22*76
$GPGSV,3,3,11,15,14,055,,26,08,020,15,08,08,344,15*45
$GPRMC,145850.000,A,5230.6342,N,01322.2534,E,0.93,182.91,130912,,,A*67
$GPGGA,145851.000,5230.6342,N,01322.2532,E,1,06,5.1,54.4,M,44.8,M,,0000*6C
$GPGSA,A,3,06,21,07,19,18,03,,,,,,,6.6,5.1,4.2*30
$GPRMC,145853.000,A,5230.6351,N,01322.2534,E,1.56,23.57,130912,,,A*5E
$GPGGA,145854.000,5230.6361,N,01322.2536,E,1,05,5.1,54.9,M,44.8,M,,0000*62
$GPGSA,A,3,06,21,19,18,03,,,,,,,,6.8,5.1,4.5*3E
$GPGSV,3,1,11,06,80,269,18,03,62,286,29,18,52,100,28,16,52,214,*73
$GPGSV,3,2,11,22,40,163,,21,39,069,19,19,33,290,34,07,14,308,10*7A
$GPGSV,3,3,11,15,14,055,,26,08,020,13,08,08,344,15*43
$GPRMC,145854.000,A,5230.6361,N,01322.2536,E,2.73,18.60,130912,,,A*50
$GPGGA,145855.000,5230.6375,N,01322.2539,E,1,05,5.1,55.4,M,44.8,M,,0000*65
$GPGSA,A,3,06,21,19,18,03,,,,,,,,6.8,5.1,4.5*3E
$GPRMC,145855.000,A,5230.6375,N,01322.2539,E,3.58,12.10,130912,,,A*5E
$GPGGA,145856.000,5230.6390,N,01322.2542,E,1,05,5.1,56.2,M,44.8,M,,0000*64
$GPGSA,A,3,06,21,19,18,03,,,,,,,,6.9,5.1,4.5*3F
$GPRMC,145856.000,A,5230.6390,N,01322.2542,E,3.22,11.26,130912,,,A*51
$GPGGA,145857.000,5230.6397,N,01322.2542,E,1,06,1.5,56.5,M,44.8,M,,0000*66
$GPGSA,A,3,06,21,19,18,03,22,,,,,,,3.0,1.5,2.7*37
$GPRMC,145857.000,A,5230.6397,N,01322.2542,E,1.11,9.60,130912,,,A*6E
$GPGGA,145858.000,5230.6398,N,01322.2542,E,1,06,1.5,56.1,M,44.8,M,,0000*62
$GPGSA,A,3,06,21,19,18,03,22,,,,,,,3.0,1.5,2.7*37
$GPRMC,145903.000,A,5230.6392,N,01322.2545,E,1.24,191.78,130912,,,A*63
$GPGGA,145904.000,5230.6386,N,01322.2544,E,1,06,5.1,50.3,M,44.8,M,,0000*67
$GPGSA,A,3,06,21,07,19,18,03,,,,,,,6.6,5.1,4.2*30
$GPGSV,3,1,11,06,80,269,21,03,62,286,26,18,52,100,27,16,52,214,*79
$GPGSV,3,2,11,22,40,163,12,21,39,069,27,19,33,290,25,07,14,308,20*77
$GPGSV,3,3,11,15,14,055,,26,08,020,14,08,08,344,18*49
$GPRMC,145904.000,A,5230.6386,N,01322.2544,E,2.09,183.18,130912,,,A*69
$GPGGA,145905.000,5230.6382,N,01322.2543,E,1,05,2.8,49.0,M,44.8,M,,0000*63
$GPGSA,A,3,06,21,07,19,03,,,,,,,,3.0,2.8,1.0*33
$GPRMC,145905.000,A,5230.6382,N,01322.2543,E,1.66,181.12,130912,,,A*69
$GPGGA,145906.000,5230.6380,N,01322.2544,E,1,05,4.0,47.8,M,44.8,M,,0000*6D
$GPGSA,A,3,06,07,19,18,03,,,,,,,,4.1,4.0,1.0*31
$GPRMC,145906.000,A,5230.6380,N,01322.2544,E,1.23,176.80,130912,,,A*6D
$GPGGA,145907.000,5230.6378,N,01322.2545,E,1,06,5.1,46.7,M,44.8,M,,0000*67
$GPGSA,A,3,06,21,07,19,18,03,,,,,,,6.7,5.1,4.2*31
$GPRMC,145907.000,A,5230.6378,N,01322.2545,E,1.26,177.62,130912,,,A*62
$GPGGA,145908.000,5230.6372,N,01322.2544,E,1,06,5.2,45.6,M,44.8,M,,0000*62
$GPGSA,A,3,06,21,07,19,18,03,,,,,,,6.7,5.2,4.2*32
$GPRMC,145908.000,A,5230.6372,N,01322.2544,E,2.36,182.08,130912,,,A*62
$GPGGA,145909.000,5230.6362,N,01322.2544,E,1,06,5.2,44.6,M,44.8,M,,0000*63
$GPGSA,A,3,06,21,07,19,18,03,,,,,,,6.7,5.2,4.2*32
$GPGSV,3,1,11,06,80,269,22,03,62,286,27,18,52,100,25,16,52,214,*79
$GPGSV,3,2,11,22,40,163,,21,39,069,24,19,33,290,27,07,14,308,20*75
$GPGSV,3,3,11,15,14,055,,26,08,020,14,08,08,344,17*46
$GPRMC,145909.000,A,5230.6362,N,01322.2544,E,3.09,182.64,130912,,,A*65
$GPGGA,145910.000,5230.6353,N,01322.2541,E,1,06,5.2,43.7,M,44.8,M,,0000*6A
$GPGSA,A,3,06,21,07,19,18,03,,,,,,,6.7,5.2,4.2*32
$GPRMC,145910.000,A,5230.6353,N,01322.2541,E,3.20,189.05,130912,,,A*6D
$GPGGA,145911.000,5230.6340,N,01322.2536,E,1,05,5.6,42.9,M,44.8,M,,0000*61
$GPGSA,A,3,06,21,07,18,03,,,,,,,,7.2,5.6,4.6*3E
$GPRMC,145911.000,A,5230.6340,N,01322.2536,E,4.18,190.41,130912,,,A*6A
$GPGGA,145912.000,5230.6329,N,01322.2531,E,1,06,5.2,42.2,M,44.8,M,,0000*66
$GPGSA,A,3,06,21,07,19,18,03,,,,,,,6.7,5.2,4.2*32
$GPRMC,145912.000,A,5230.6329,N,01322.2531,E,3.56,194.25,130912,,,A*6A
$GPGGA,145913.000,5230.6321,N,01322.2528,E,1,06,2.0,41.5,M,44.8,M,,0000*66
$GPGSA,A,3,06,21,07,19,18,16,,,,,,,3.6,2.0,3.0*32
$GPRMC,145913.000,A,5230.6321,N,01322.2528,E,2.16,189.81,130912,,,A*6C
$GPGGA,145914.000,5230.6320,N,01322.2528,E,1,07,1.8,41.2,M,44.8,M,,0000*6D
$GPGSA,A,3,06,21,07,19,18,03,16,,,,,,3.0,1.8,2.4*39
$GPGSV,3,1,11,06,80,269,23,03,62,286,20,18,52,100,25,16,52,214,13*7D
$GPGSV,3,2,11,22,40,163,,21,39,069,24,19,33,290,26,07,14,308,20*74
$GPGSV,3,3,11,15,14,055,,26,08,020,15,08,08,344,17*47
$GPRMC,145916.000,A,5230.6325,N,01322.2530,E,1.12,24.96,130912,,,A*53
$GPGGA,145917.000,5230.6329,N,01322.2532,E,1,07,1.8,41.6,M,44.8,M,,0000*68
$GPGSA,A,3,06,21,07,19,18,03,16,,,,,,3.0,1.8,2.4*39
$GPRMC,145917.000,A,5230.6329,N,01322.2532,E,1.16,26.34,130912,,,A*52
$GPGGA,145918.000,5230.6332,N,01322.2534,E,1,05,2.2,41.4,M,44.8,M,,0000*62
$GPGSA,A,3,06,07,19,18,16,,,,,,,,3.8,2.2,3.0*3D
$GPRMC,145918.000,A,5230.6332,N,01322.2534,E,1.08,29.07,130912,,,A*51
$GPGGA,145919.000,5230.6337,N,01322.2537,E,1,07,1.8,41.3,M,44.8,M,,0000*69
$GPGSA,A,3,06,21,07,19,18,03,16,,,,,,3.0,1.8,2.4*39
$GPGSV,3,1,11,06,80,269,27,03,62,286,17,18,52,100,24,16,52,214,13*7C
$GPGSV,3,2,11,22,40,163,,21,39,069,08,19,33,290,28,07,14,308,21*75
$GPGSV,3,3,11,15,14,055,,26,08,020,14,08,08,344,*40
$GPRMC,145919.000,A,5230.6337,N,01322.2537,E,2.10,19.06,130912,,,A*5E
$GPGGA,145920.000,5230.6345,N,01322.2539,E,1,06,1.8,41.5,M,44.8,M,,0000*6F
$GPGSA,A,3,06,21,07,18,03,16,,,,,,,3.0,1.8,2.4*31
$GPRMC,145920.000,A,5230.6345,N,01322.2539,E,2.57,13.34,130912,,,A*57
$GPGGA,145921.000,5230.6349,N,01322.2545,E,1,07,1.8,41.5,M,44.8,M,,0000*68
$GPGSA,A,3,06,21,07,19,18,03,16,,,,,,3.0,1.8,2.4*39
$GPRMC,145921.000,A,5230.6349,N,01322.2545,E,1.81,41.24,130912,,,A*5F
$GPGGA,145922.000,5230.6352,N,01322.2552,E,1,07,1.8,41.3,M,44.8,M,,0000*61
$GPGSA,A,3,06,21,07,19,18,03,16,,,,,,3.0,1.8,2.4*39
$GPRMC,145922.000,A,5230.6352,N,01322.2552,E,1.51,62.54,130912,,,A*5B
$GPGGA,145923.000,5230.6354,N,01322.2552,E,1,06,5.2,41.1,M,44.8,M,,0000*6B
$GPGSA,A,3,06,21,07,19,18,03,,,,,,,6.7,5.2,4.3*33
$GPRMC,145925.000,A,5230.6358,N,01322.2545,E,0.98,319.83,130912,,,A*61
$GPGGA,145926.000,5230.6364,N,01322.2542,E,1,06,5.2,40.6,M,44.8,M,,0000*6A
$GPGSA,A,3,06,21,07,19,18,03,,,,,,,6.8,5.2,4.3*3C
$GPRMC,145926.000,A,5230.6364,N,01322.2542,E,1.93,350.34,130912,,,A*61
$GPGGA,145927.000,5230.6372,N,01322.2544,E,1,06,5.2,40.3,M,44.8,M,,0000*6F
$GPGSA,A,3,06,21,07,19,18,03,,,,,,,6.8,5.2,4.3*3C
$GPRMC,145927.000,A,5230.6372,N,01322.2544,E,2.75,17.36,130912,,,A*58
$GPGGA,145928.000,5230.6378,N,01322.2547,E,1,05,5.3,40.2,M,44.8,M,,0000*6A
$GPGSA,A,3,21,07,19,18,03,,,,,,,,7.1,5.3,4.7*37
$GPRMC,145928.000,A,5230.6378,N,01322.2547,E,2.17,28.31,130912,,,A*51
$GPGGA,145929.000,5230.6383,N,01322.2549,E,1,05,5.3,40.4,M,44.8,M,,0000*67
$GPGSA,A,3,21,07,19,18,03,,,,,,,,7.1,5.3,4.7*37
$GPGSV,3,1,11,06,80,269,10,03,62,286,21,18,52,100,21,16,52,214,12*79
$GPGSV,3,2,11,22,40,163,,21,39,069,21,19,33,290,26,07,14,308,18*7A
$GPGSV,3,3,11,15,14,055,,26,08,020,15,08,08,344,*41
$GPRMC,145929.000,A,5230.6383,N,01322.2549,E,1.35,27.65,130912,,,A*57
$GPGGA,145930.000,5230.6384,N,01322.2551,E,1,05,5.3,40.4,M,44.8,M,,0000*61
$GPGSA,A,3,21,07,19,18,03,,,,,,,,7.1,5.3,4.7*37
$GPRMC,145931.000,A,5230.6381,N,01322.2551,E,0.99,174.06,130912,,,A*60
$GPGGA,145932.000,5230.6377,N,01322.2553,E,1,05,5.3,40.6,M,44.8,M,,0000*6F
$GPGSA,A,3,21,07,19,18,03,,,,,,,,7.1,5.3,4.7*37
$GPRMC,145932.000,A,5230.6377,N,01322.2553,E,1.26,167.99,130912,,,A*69
$GPGGA,145933.000,5230.6374,N,01322.2554,E,1,06,5.3,40.8,M,44.8,M,,0000*67
$GPGSA,A,3,06,21,07,19,18,03,,,,,,,6.8,5.3,4.3*3D
$GPRMC,145933.000,A,5230.6374,N,01322.2554,E,1.01,174.72,130912,,,A*6E
$GPGGA,145934.000,5230.6370,N,01322.2554,E,1,05,5.3,40.8,M,44.8,M,,0000*67
$GPGSA,A,3,21,07,19,18,03,,,,,,,,7.1,5.3,4.7*37
$GPGSV,3,1,11,06,80,269,14,03,62,286,20,18,52,100,20,16,52,214,*7E
$GPGSV,3,2,11,22,40,163,,21,39,069,21,19,33,290,20,07,14,308,18*7C
$GPGSV,3,3,11,15,14,055,,26,08,020,15,08,08,344,*41
$GPRMC,145934.000,A,5230.6370,N,01322.2554,E,0.82,182.41,130912,,,A*6E
$GPGGA,145935.000,5230.6371,N,01322.2558,E,1,05,5.3,40.9,M,44.8,M,,0000*6A
$GPGSA,A,3,21,07,19,18,03,,,,,,,,7.1,5.3,4.7*37
$GPRMC,145936.000,A,5230.6373,N,01322.2563,E,0.81,43.63,130912,,,A*54
$GPGGA,145937.000,5230.6376,N,01322.2567,E,1,04,3.1,41.2,M,44.8,M,,0000*6C
$GPGSA,A,3,21,07,19,18,,,,,,,,,3.3,3.1,1.0*34
$GPRMC,145937.000,A,5230.6376,N,01322.2567,E,1.47,8.39,130912,,,A*6F
$GPGGA,145938.000,5230.6378,N,01322.2570,E,1,05,5.3,41.0,M,44.8,M,,0000*6C
$GPGSA,A,3,21,07,19,18,03,,,,,,,,7.1,5.3,4.7*37
$GPRMC,145938.000,A,5230.6378,N,01322.2570,E,0.85,15.32,130912,,,A*50
$GPGGA,145939.000,5230.6379,N,01322.2574,E,1,05,5.4,41.3,M,44.8,M,,0000*6C
$GPGSA,A,3,21,07,19,18,03,,,,,,,,7.2,5.4,4.7*33
$GPGSV,3,1,11,06,80,269,14,03,62,286,18,18,52,100,20,16,52,214,*75
$GPGSV,3,2,11,22,40,163,,21,39,069,21,19,33,290,26,07,14,308,18*7A
$GPGSV,3,3,11,15,14,055,,26,08,020,15,08,08,344,*41
$GPRMC,145949.000,A,5230.6387,N,01322.2583,E,0.94,182.31,130912,,,A*66
$GPGGA,145950.000,5230.6387,N,01322.2581,E,1,06,5.3,58.8,M,44.8,M,,0000*6F
$GPGSA,A,3,06,21,07,19,18,03,,,,,,,6.9,5.3,4.4*3B
$GPRMC,145951.000,A,5230.6391,N,01322.2581,E,1.12,12.20,130912,,,A*5D
$GPGGA,145952.000,5230.6400,N,01322.2583,E,1,06,5.4,61.0,M,44.8,M,,0000*62
$GPGSA,A,3,06,21,07,19,18,03,,,,,,,6.9,5.4,4.4*3C
$GPRMC,145952.000,A,5230.6400,N,01322.2583,E,2.59,17.30,130912,,,A*5B
$GPGGA,145953.000,5230.6406,N,01322.2582,E,1,06,5.4,61.8,M,44.8,M,,0000*6C
$GPGSA,A,3,06,21,07,19,18,03,,,,,,,6.9,5.4,4.4*3C
$GPRMC,145953.000,A,5230.6406,N,01322.2582,E,1.77,9.60,130912,,,A*68
$GPGGA,145954.000,5230.6413,N,01322.2582,E,1,06,5.4,62.6,M,44.8,M,,0000*62
$GPGSA,A,3,06,21,07,19,18,03,,,,,,,6.9,5.4,4.4*3C
$GPGSV,3,1,11,06,80,269,23,03,62,286,31,18,52,100,20,16,52,214,*7A
$GPGSV,3,2,11,22,40,163,,21,39,069,25,19,33,290,23,07,14,308,20*70
$GPGSV,3,3,11,15,14,055,,26,08,020,12,08,08,344,*46
$GPRMC,145954.000,A,5230.6413,N,01322.2582,E,2.03,7.60,130912,,,A*65
$GPGGA,145955.000,5230.6421,N,01322.2581,E,1,05,5.4,63.6,M,44.8,M,,0000*63
$GPGSA,A,3,21,07,19,18,03,,,,,,,,7.2,5.4,4.8*3C
$GPRMC,145955.000,A,5230.6421,N,01322.2581,E,1.86,4.62,130912,,,A*69
$GPGGA,145956.000,5230.6429,N,01322.2579,E,1,05,5.4,65.0,M,44.8,M,,0000*6F
$GPGSA,A,3,21,07,19,18,03,,,,,,,,7.2,5.4,4.8*3C
$GPRMC,145956.000,A,5230.6429,N,01322.2579,E,1.65,357.14,130912,,,A*6C
$GPGGA,145957.000,5230.6437,N,01322.2577,E,1,06,5.4,66.6,M,44.8,M,,0000*69
$GPGSA,A,3,06,21,07,19,18,03,,,,,,,6.9,5.4,4.4*3C
$GPRMC,145957.000,A,5230.6437,N,01322.2577,E,1.61,354.40,130912,,,A*6A
$GPGGA,145958.000,5230.6439,N,01322.2576,E,1,05,5.4,68.0,M,44.8,M,,0000*62
$GPGSA,A,3,06,21,19,18,03,,,,,,,,7.2,5.4,4.8*3D
$GPRMC,145959.000,A,5230.6436,N,01322.2571,E,1.54,209.71,130912,,,A*6E
$GPGGA,150000.000,5230.6424,N,01322.2565,E,1,04,5.4,69.9,M,44.8,M,,0000*65
$GPGSA,A,3,21,19,18,03,,,,,,,,,7.8,5.4,5.6*3E
$GPRMC,150000.000,A,5230.6424,N,01322.2565,E,4.01,194.67,130912,,,A*6C
$GPGGA,150001.000,5230.6409,N,01322.2559,E,1,05,5.4,70.5,M,44.8,M,,0000*61
$GPGSA,A,3,21,07,19,18,03,,,,,,,,7.3,5.4,4.8*3D
$GPRMC,150001.000,A,5230.6409,N,01322.2559,E,4.79,191.50,130912,,,A*63
$GPGGA,150002.000,5230.6396,N,01322.2551,E,1,05,5.5,70.8,M,44.8,M,,0000*67
$GPGSA,A,3,21,07,19,18,03,,,,,,,,7.3,5.5,4.8*3C
$GPRMC,150002.000,A,5230.6396,N,01322.2551,E,4.17,197.98,130912,,,A*63
$GPGGA,150003.000,5230.6392,N,01322.2544,E,1,05,5.5,70.8,M,44.8,M,,0000*66
$GPGSA,A,3,21,07,19,18,03,,,,,,,,7.3,5.5,4.8*3C
$GPRMC,150003.000,A,5230.6392,N,01322.2544,E,1.75,224.48,130912,,,A*65
$GPGGA,150004.000,5230.6397,N,01322.2541,E,1,05,5.5,70.5,M,44.8,M,,0000*6C
$GPGSA,A,3,21,07,19,18,03,,,,,,,,7.3,5.5,4.8*3C
$GPGSV,3,1,11,06,80,269,17,03,62,286,24,18,52,100,20,16,52,214,*79
$GPGSV,3,2,11,22,40,163,,21,39,069,21,19,33,290,23,07,14,308,14*73
$GPGSV,3,3,11,15,14,055,,26,08,020,14,08,08,344,*40
$GPRMC,150004.000,A,5230.6397,N,01322.2541,E,1.34,342.11,130912,,,A*6A
