$GPGGA,111915.000,6416.3416,N,02104.1976,W,1,09,0.9,133.5,M,60.5,M,,0000*4E
$GPGSA,A,3,14,12,23,29,31,30,25,04,02,,,,1.6,0.9,1.3*32
$GPGSV,3,1,12,31,69,240,30,25,56,098,23,29,55,138,35,30,26,255,32*77
$GPGSV,3,2,12,02,26,051,32,12,18,082,36,23,18,328,29,14,12,194,24*7B
$GPGSV,3,3,12,04,10,010,28,20,09,303,30,32,06,276,23,10,04,029,*77
$GPRMC,111915.000,A,6416.3416,N,02104.1976,W,29.49,312.43,290812,,,A*4A
$GPGGA,111916.000,6416.3472,N,02104.2114,W,1,09,0.9,133.3,M,60.5,M,,0000*46
$GPGSA,A,3,14,12,23,29,31,30,25,04,02,,,,1.6,0.9,1.3*32
$GPRMC,111916.000,A,6416.3472,N,02104.2114,W,29.54,313.15,290812,,,A*4A
$GPGGA,111917.000,6416.3529,N,02104.2251,W,1,09,0.9,133.1,M,60.5,M,,0000*48
$GPGSA,A,3,14,12,23,29,31,30,25,04,02,,,,1.6,0.9,1.3*32
$GPRMC,111917.000,A,6416.3529,N,02104.2251,W,29.73,313.87,290812,,,A*48
$GPGGA,111918.000,6416.3586,N,02104.2389,W,1,09,0.9,132.9,M,60.5,M,,0000*4F
$GPGSA,A,3,14,12,23,29,31,30,25,04,02,,,,1.6,0.9,1.3*32
$GPRMC,111918.000,A,6416.3586,N,02104.2389,W,30.12,314.22,290812,,,A*41
$GPGGA,111919.000,6416.3645,N,02104.2527,W,1,09,0.9,132.7,M,60.5,M,,0000*4E
$GPGSA,A,3,14,12,23,29,31,30,25,04,02,,,,1.6,0.9,1.3*32
$GPRMC,111919.000,A,6416.3645,N,02104.2527,W,30.31,314.68,290812,,,A*41
$GPGGA,111920.000,6416.3705,N,02104.2664,W,1,09,0.9,132.5,M,60.5,M,,0000*47
$GPGSA,A,3,14,12,23,29,31,30,25,04,02,,,,1.6,0.9,1.3*32
$GPGSV,3,1,12,31,69,240,22,25,56,098,30,29,55,138,36,30,26,255,31*76
$GPGSV,3,2,12,02,26,051,38,12,18,082,36,23,18,328,33,14,12,194,25*7B
$GPGSV,3,3,12,04,10,010,21,20,09,303,21,32,06,276,24,10,04,029,*79
$GPRMC,111920.000,A,6416.3705,N,02104.2664,W,30.43,315.17,290812,,,A*46
$GPGGA,111921.000,6416.3765,N,02104.2798,W,1,09,0.9,132.2,M,60.5,M,,0000*45
$GPGSA,A,3,14,12,23,29,31,30,25,04,02,,,,1.6,0.9,1.3*32
$GPRMC,111921.000,A,6416.3765,N,02104.2798,W,30.43,316.28,290812,,,A*4C
$GPGGA,111922.000,6416.3825,N,02104.2932,W,1,09,0.9,131.9,M,60.5,M,,0000*4B
$GPGSA,A,3,14,12,23,29,31,30,25,04,02,,,,1.6,0.9,1.3*32
$GPRMC,111922.000,A,6416.3825,N,02104.2932,W,30.10,315.98,290812,,,A*44
$GPGGA,111923.000,6416.3885,N,02104.3065,W,1,09,0.9,131.5,M,60.5,M,,0000*46
$GPGSA,A,3,14,12,23,29,31,30,25,04,02,,,,1.6,0.9,1.3*32
$GPRMC,111923.000,A,6416.3885,N,02104.3065,W,30.02,316.17,290812,,,A*42
$GPGGA,111924.000,6416.3944,N,02104.3196,W,1,09,0.9,131.1,M,60.5,M,,0000*44
$GPGSA,A,3,14,12,23,29,31,30,25,04,02,,,,1.6,0.9,1.3*32
$GPRMC,111924.000,A,6416.3944,N,02104.3196,W,29.90,316.52,290812,,,A*46
$GPGGA,111925.000,6416.4005,N,02104.3325,W,1,09,0.9,130.7,M,60.5,M,,0000*43
$GPGSA,A,3,14,12,23,29,31,30,25,04,02,,,,1.6,0.9,1.3*32
$GPGSV,3,1,12,31,69,240,18,25,56,098,30,29,55,138,37,30,26,255,34*7B
$GPGSV,3,2,12,02,26,051,38,12,18,082,28,23,18,328,34,14,12,194,28*7E
$GPGSV,3,3,12,04,10,010,28,20,09,303,22,32,06,276,,10,04,029,*75
$GPRMC,111925.000,A,6416.4005,N,02104.3325,W,29.86,317.40,290812,,,A*43
$GPGGA,111926.000,6416.4066,N,02104.3451,W,1,09,0.9,130.2,M,60.5,M,,0000*44
$GPGSA,A,3,14,12,23,29,31,30,25,04,02,,,,1.6,0.9,1.3*32
$GPRMC,111926.000,A,6416.4066,N,02104.3451,W,29.74,318.35,290812,,,A*41
$GPGGA,111927.000,6416.4129,N,02104.3571,W,1,08,1.3,129.7,M,60.5,M,,0000*4B
$GPGSA,A,3,12,23,29,31,30,25,04,02,,,,,2.4,1.3,2.1*3C
$GPRMC,111927.000,A,6416.4129,N,02104.3571,W,29.56,320.12,290812,,,A*47
$GPGGA,111928.000,6416.4192,N,02104.3686,W,1,08,1.3,129.3,M,60.5,M,,0000*4B
$GPGSA,A,3,12,23,29,31,30,25,04,02,,,,,2.4,1.3,2.1*3C
$GPRMC,111928.000,A,6416.4192,N,02104.3686,W,29.01,321.84,290812,,,A*4F
$GPGGA,111929.000,6416.4258,N,02104.3791,W,1,09,0.9,128.7,M,60.5,M,,0000*47
$GPGSA,A,3,14,12,23,29,31,30,25,04,02,,,,1.6,0.9,1.3*32
$GPRMC,111929.000,A,6416.4258,N,02104.3791,W,29.00,325.31,290812,,,A*47
$GPGGA,111930.000,6416.4325,N,02104.3886,W,1,08,1.0,128.2,M,60.5,M,,0000*41
$GPGSA,A,3,14,12,29,31,30,25,04,02,,,,,1.7,1.0,1.3*3A
$GPGSV,3,1,12,31,69,240,26,25,56,098,34,29,55,138,31,30,26,255,36*76
$GPGSV,3,2,12,02,26,051,33,12,18,082,35,23,18,328,,14,12,194,34*73
$GPGSV,3,3,12,04,10,010,29,20,09,303,27,32,06,276,30,10,04,029,*72
$GPRMC,111930.000,A,6416.4325,N,02104.3886,W,28.51,328.69,290812,,,A*48
$GPGGA,111931.000,6416.4393,N,02104.3973,W,1,09,0.9,127.7,M,60.5,M,,0000*45
$GPGSA,A,3,14,12,23,29,31,30,25,04,02,,,,1.6,0.9,1.3*32
$GPRMC,111931.000,A,6416.4393,N,02104.3973,W,28.16,331.11,290812,,,A*4B
$GPGGA,111932.000,6416.4462,N,02104.4061,W,1,09,0.9,127.4,M,60.5,M,,0000*41
$GPGSA,A,3,14,12,23,29,31,30,25,04,02,,,,1.6,0.9,1.3*32
$GPRMC,111932.000,A,6416.4462,N,02104.4061,W,28.47,331.28,290812,,,A*42
$GPGGA,111933.000,6416.4532,N,02104.4145,W,1,09,0.9,127.2,M,60.5,M,,0000*45
$GPGSA,A,3,14,12,23,29,31,30,25,04,02,,,,1.6,0.9,1.3*32
$GPRMC,111933.000,A,6416.4532,N,02104.4145,W,28.66,332.94,290812,,,A*47
$GPGGA,111934.000,6416.4604,N,02104.4220,W,1,09,0.9,127.1,M,60.5,M,,0000*47
$GPGSA,A,3,14,12,23,29,31,30,25,04,02,,,,1.6,0.9,1.3*32
$GPRMC,111934.000,A,6416.4604,N,02104.4220,W,28.57,335.88,290812,,,A*4E
$GPGGA,111935.000,6416.4677,N,02104.4286,W,1,09,0.9,127.2,M,60.5,M,,0000*4D
$GPGSA,A,3,14,12,23,29,31,30,25,04,02,,,,1.6,0.9,1.3*32
$GPGSV,3,1,12,31,69,240,25,25,56,098,39,29,55,138,29,30,26,255,36*71
$GPGSV,3,2,12,02,26,051,28,12,18,082,31,23,18,328,26,14,12,194,34*79
$GPGSV,3,3,12,04,10,010,31,20,09,303,23,32,06,276,33,10,04,029,*7C
$GPRMC,111935.000,A,6416.4677,N,02104.4286,W,28.41,338.81,290812,,,A*44
$GPGGA,111936.000,6416.4752,N,02104.4345,W,1,08,1.0,127.3,M,60.5,M,,0000*4E
$GPGSA,A,3,14,12,29,31,30,25,04,02,,,,,1.7,1.0,1.3*3A
$GPRMC,111936.000,A,6416.4752,N,02104.4345,W,28.57,341.63,290812,,,A*4A
$GPGGA,111937.000,6416.4828,N,02104.4394,W,1,09,0.9,127.5,M,60.5,M,,0000*4E
$GPGSA,A,3,14,12,23,29,31,30,25,04,02,,,,1.6,0.9,1.3*32
$GPRMC,111937.000,A,6416.4828,N,02104.4394,W,28.57,344.51,290812,,,A*41
$GPGGA,111938.000,6416.4905,N,02104.4440,W,1,09,0.9,127.6,M,60.5,M,,0000*42
$GPGSA,A,3,14,12,23,29,31,30,25,04,02,,,,1.6,0.9,1.3*32
$GPRMC,111938.000,A,6416.4905,N,02104.4440,W,28.83,345.99,290812,,,A*42
$GPGGA,111939.000,6416.4982,N,02104.4481,W,1,09,0.9,127.8,M,60.5,M,,0000*4F
$GPGSA,A,3,14,12,23,29,31,30,25,04,02,,,,1.6,0.9,1.3*32
$GPRMC,111939.000,A,6416.4982,N,02104.4481,W,28.82,347.19,290812,,,A*4A
$GPGGA,111940.000,6416.5061,N,02104.4519,W,1,08,0.9,127.9,M,60.5,M,,0000*44
$GPGSA,A,3,14,12,23,29,31,30,25,04,,,,,1.6,0.9,1.3*30
$GPGSV,3,1,12,31,69,240,26,25,56,098,40,29,55,138,33,30,26,255,40*76
$GPGSV,3,2,12,02,26,051,,12,18,082,33,23,18,328,23,14,12,194,28*79
$GPGSV,3,3,12,04,10,010,24,20,09,303,28,32,06,276,28,10,04,029,*79
$GPRMC,111940.000,A,6416.5061,N,02104.4519,W,28.94,348.38,290812,,,A*4A
$GPGGA,111941.000,6416.5138,N,02104.4549,W,1,08,0.9,128.3,M,60.5,M,,0000*48
$GPGSA,A,3,14,12,23,29,31,30,25,04,,,,,1.6,0.9,1.3*30
$GPRMC,111941.000,A,6416.5138,N,02104.4549,W,28.48,350.88,290812,,,A*40
$GPGGA,111942.000,6416.5218,N,02104.4567,W,1,09,0.9,128.6,M,60.5,M,,0000*42
$GPGSA,A,3,14,12,23,29,31,30,25,04,02,,,,1.6,0.9,1.3*32
$GPRMC,111942.000,A,6416.5218,N,02104.4567,W,29.08,355.07,290812,,,A*49
$GPGGA,111943.000,6416.5299,N,02104.4571,W,1,09,0.9,128.8,M,60.5,M,,0000*43
$GPGSA,A,3,14,12,23,29,31,30,25,04,02,,,,1.6,0.9,1.3*32
$GPRMC,111943.000,A,6416.5299,N,02104.4571,W,29.35,359.08,290812,,,A*4B
$GPGGA,111944.000,6416.5380,N,02104.4570,W,1,09,0.9,129.0,M,60.5,M,,0000*45
$GPGSA,A,3,14,12,23,29,31,30,25,04,02,,,,1.6,0.9,1.3*32
$GPRMC,111944.000,A,6416.5380,N,02104.4570,W,29.44,0.56,290812,,,A*46
$GPGGA,111945.000,6416.5462,N,02104.4569,W,1,08,0.9,129.2,M,60.5,M,,0000*44
$GPGSA,A,3,14,12,23,31,30,25,04,02,,,,,1.7,0.9,1.4*3F
$GPGSV,3,1,12,31,69,240,26,25,56,098,41,29,55,138,,30,26,255,33*73
$GPGSV,3,2,12,02,26,051,38,12,18,082,33,23,18,328,31,14,12,194,32*7A
$GPGSV,3,3,12,04,10,010,23,20,09,303,29,32,06,276,26,10,04,029,*71
$GPRMC,111945.000,A,6416.5462,N,02104.4569,W,29.63,0.85,290812,,,A*4F
$GPGGA,111946.000,6416.5543,N,02104.4571,W,1,09,0.9,129.4,M,60.5,M,,0000*4B
$GPGSA,A,3,14,12,23,29,31,30,25,04,02,,,,1.6,0.9,1.3*32
$GPRMC,111946.000,A,6416.5543,N,02104.4571,W,29.55,359.33,290812,,,A*40
$GPGGA,111947.000,6416.5626,N,02104.4584,W,1,09,0.9,129.6,M,60.5,M,,0000*42
$GPGSA,A,3,14,12,23,29,31,30,25,04,02,,,,1.6,0.9,1.3*32
$GPRMC,111947.000,A,6416.5626,N,02104.4584,W,29.92,356.43,290812,,,A*48
$GPGGA,111948.000,6416.5708,N,02104.4606,W,1,09,0.9,129.8,M,60.5,M,,0000*47
$GPGSA,A,3,14,12,23,29,31,30,25,04,02,,,,1.6,0.9,1.3*32
$GPRMC,111948.000,A,6416.5708,N,02104.4606,W,29.98,353.25,290812,,,A*4C
$GPGGA,111949.000,6416.5790,N,02104.4640,W,1,09,0.9,129.9,M,60.5,M,,0000*44
$GPGSA,A,3,14,12,23,29,31,30,25,04,02,,,,1.6,0.9,1.3*32
$GPRMC,111949.000,A,6416.5790,N,02104.4640,W,30.12,349.65,290812,,,A*4B
$GPGGA,111950.000,6416.5870,N,02104.4687,W,1,09,0.9,130.0,M,60.5,M,,0000*47
$GPGSA,A,3,14,12,23,29,31,30,25,04,02,,,,1.6,0.9,1.3*32
$GPGSV,3,1,12,31,69,240,25,25,56,098,41,29,55,138,31,30,26,255,35*74
$GPGSV,3,2,12,02,26,051,35,12,18,082,34,23,18,328,16,14,12,194,31*76
$GPGSV,3,3,12,04,10,010,25,20,09,303,21,32,06,276,26,10,04,029,*7F
$GPRMC,111950.000,A,6416.5870,N,02104.4687,W,30.17,345.29,290812,,,A*48
$GPGGA,111951.000,6416.5947,N,02104.4751,W,1,09,0.9,130.1,M,60.5,M,,0000*48
$GPGSA,A,3,14,12,23,29,31,30,25,04,02,,,,1.6,0.9,1.3*32
$GPRMC,111951.000,A,6416.5947,N,02104.4751,W,29.62,339.93,290812,,,A*46
$GPGGA,111952.000,6416.6022,N,02104.4828,W,1,09,0.9,130.2,M,60.5,M,,0000*40
$GPGSA,A,3,14,12,23,29,31,30,25,04,02,,,,1.6,0.9,1.3*32
$GPRMC,111952.000,A,6416.6022,N,02104.4828,W,29.72,335.34,290812,,,A*4D
$GPGGA,111953.000,6416.6095,N,02104.4919,W,1,09,0.9,130.2,M,60.5,M,,0000*4E
$GPGSA,A,3,14,12,23,29,31,30,25,04,02,,,,1.6,0.9,1.3*32
$GPRMC,111953.000,A,6416.6095,N,02104.4919,W,30.01,331.24,290812,,,A*4A
$GPGGA,111954.000,6416.6167,N,02104.5019,W,1,09,0.9,130.2,M,60.5,M,,0000*4D
$GPGSA,A,3,14,12,23,29,31,30,25,04,02,,,,1.6,0.9,1.3*32
$GPRMC,111954.000,A,6416.6167,N,02104.5019,W,30.46,328.43,290812,,,A*43
$GPGGA,111955.000,6416.6237,N,02104.5127,W,1,09,0.9,130.2,M,60.5,M,,0000*46
$GPGSA,A,3,14,12,23,29,31,30,25,04,02,,,,1.6,0.9,1.3*32
$GPGSV,3,1,12,31,69,240,25,25,56,098,33,29,55,138,30,30,26,255,34*71
$GPGSV,3,2,12,02,26,051,35,12,18,082,32,23,18,328,30,14,12,194,31*74
$GPGSV,3,3,12,04,10,010,29,20,09,303,23,32,06,276,31,10,04,029,*77
$GPRMC,111955.000,A,6416.6237,N,02104.5127,W,30.64,325.90,290812,,,A*4B
$GPGGA,111956.000,6416.6304,N,02104.5247,W,1,09,0.9,130.1,M,60.5,M,,0000*42
$GPGSA,A,3,14,12,23,29,31,30,25,04,02,,,,1.6,0.9,1.3*32
$GPRMC,111956.000,A,6416.6304,N,02104.5247,W,30.72,321.60,290812,,,A*40
$GPGGA,111957.000,6416.6366,N,02104.5378,W,1,09,0.9,130.0,M,60.5,M,,0000*4B
$GPGSA,A,3,14,12,23,29,31,30,25,04,02,,,,1.6,0.9,1.3*32
$GPRMC,111957.000,A,6416.6366,N,02104.5378,W,30.55,316.95,290812,,,A*43
$GPGGA,111958.000,6416.6420,N,02104.5522,W,1,09,0.9,129.9,M,60.5,M,,0000*49
$GPGSA,A,3,14,12,23,29,31,30,25,04,02,,,,1.6,0.9,1.3*32
$GPRMC,111958.000,A,6416.6420,N,02104.5522,W,30.02,310.32,290812,,,A*49
$GPGGA,111959.000,6416.6468,N,02104.5677,W,1,09,0.9,129.9,M,60.5,M,,0000*47
$GPGSA,A,3,14,12,23,29,31,30,25,04,02,,,,1.6,0.9,1.3*32
$GPRMC,111959.000,A,6416.6468,N,02104.5677,W,29.86,305.08,290812,,,A*4E
$GPGGA,112000.000,6416.6513,N,02104.5838,W,1,08,1.0,129.9,M,60.5,M,,0000*40
$GPGSA,A,3,14,12,29,31,30,25,04,02,,,,,1.7,1.0,1.3*3A
$GPGSV,3,1,12,31,69,240,36,25,56,098,25,29,55,138,28,30,26,255,29*71
$GPGSV,3,2,12,02,26,051,38,12,18,082,33,23,18,328,,14,12,194,31*7B
$GPGSV,3,3,12,04,10,010,31,20,09,303,29,32,06,276,25,10,04,029,*71
$GPRMC,112000.000,A,6416.6513,N,02104.5838,W,29.95,302.30,290812,,,A*4E
$GPGGA,112001.000,6416.6555,N,02104.6003,W,1,09,0.9,129.8,M,60.5,M,,0000*48
$GPGSA,A,3,14,12,23,29,31,30,25,04,02,,,,1.6,0.9,1.3*32
$GPRMC,112001.000,A,6416.6555,N,02104.6003,W,30.04,300.18,290812,,,A*46
$GPGGA,112002.000,6416.6596,N,02104.6170,W,1,09,0.9,129.6,M,60.5,M,,0000*4F
$GPGSA,A,3,14,12,23,29,31,30,25,04,02,,,,1.6,0.9,1.3*32
$GPRMC,112002.000,A,6416.6596,N,02104.6170,W,29.99,298.99,290812,,,A*4A
$GPGGA,112003.000,6416.6636,N,02104.6336,W,1,09,0.9,129.4,M,60.5,M,,0000*45
$GPGSA,A,3,14,12,23,29,31,30,25,04,02,,,,1.6,0.9,1.3*32
$GPRMC,112003.000,A,6416.6636,N,02104.6336,W,29.79,298.64,290812,,,A*4E
$GPGGA,112004.000,6416.6675,N,02104.6500,W,1,09,0.9,129.0,M,60.5,M,,0000*42
$GPGSA,A,3,14,12,23,29,31,30,25,04,02,,,,1.6,0.9,1.3*32
$GPRMC,112004.000,A,6416.6675,N,02104.6500,W,29.26,298.60,290812,,,A*43
$GPGGA,112005.000,6416.6713,N,02104.6661,W,1,09,0.9,128.6,M,60.5,M,,0000*41
$GPGSA,A,3,14,12,23,29,31,30,25,04,02,,,,1.6,0.9,1.3*32
$GPGSV,3,1,12,31,70,238,25,25,55,098,24,29,55,138,36,30,26,255,30*71
$GPGSV,3,2,12,02,26,050,40,23,18,327,37,12,18,082,34,14,11,194,36*7D
$GPGSV,3,3,12,04,10,010,31,20,08,302,28,32,05,276,17,10,04,029,*72
$GPRMC,112005.000,A,6416.6713,N,02104.6661,W,28.61,298.60,290812,,,A*45
$GPGGA,112006.000,6416.6752,N,02104.6818,W,1,09,0.9,128.2,M,60.5,M,,0000*43
$GPGSA,A,3,14,12,23,29,31,30,25,04,02,,,,1.6,0.9,1.3*32
$GPRMC,112006.000,A,6416.6752,N,02104.6818,W,28.07,299.21,290812,,,A*47
$GPGGA,112007.000,6416.6789,N,02104.6973,W,1,09,0.9,127.9,M,60.5,M,,0000*4C
$GPGSA,A,3,14,12,23,29,31,30,25,04,02,,,,1.6,0.9,1.3*32
$GPRMC,112007.000,A,6416.6789,N,02104.6973,W,27.79,299.21,290812,,,A*4A
$GPGGA,112008.000,6416.6827,N,02104.7127,W,1,09,0.9,127.5,M,60.5,M,,0000*4C
$GPGSA,A,3,14,12,23,29,31,30,25,04,02,,,,1.6,0.9,1.3*32
$GPRMC,112008.000,A,6416.6827,N,02104.7127,W,27.64,299.11,290812,,,A*49
$GPGGA,112009.000,6416.6864,N,02104.7283,W,1,09,0.9,127.1,M,60.5,M,,0000*43
$GPGSA,A,3,14,12,23,29,31,30,25,04,02,,,,1.6,0.9,1.3*32
$GPRMC,112009.000,A,6416.6864,N,02104.7283,W,27.68,298.73,290812,,,A*4B
$GPGGA,112010.000,6416.6900,N,02104.7439,W,1,09,0.9,126.8,M,60.5,M,,0000*47
$GPGSA,A,3,14,12,23,29,31,30,25,04,02,,,,1.6,0.9,1.3*32
$GPGSV,3,1,12,31,70,238,27,25,55,098,25,29,55,138,35,30,26,255,22*72
$GPGSV,3,2,12,02,26,050,40,23,18,327,36,12,18,082,33,14,11,194,35*78
$GPGSV,3,3,12,04,10,010,32,20,08,302,12,32,05,276,18,10,04,029,*77
$GPRMC,112010.000,A,6416.6900,N,02104.7439,W,27.78,298.39,290812,,,A*48
$GPGGA,112011.000,6416.6938,N,02104.7596,W,1,09,0.9,126.5,M,60.5,M,,0000*44
$GPGSA,A,3,14,12,23,29,31,30,25,04,02,,,,1.6,0.9,1.3*32
$GPRMC,112011.000,A,6416.6938,N,02104.7596,W,27.99,298.50,290812,,,A*46
$GPGGA,112012.000,6416.6975,N,02104.7754,W,1,09,0.9,126.2,M,60.5,M,,0000*45
$GPGSA,A,3,14,12,23,29,31,30,25,04,02,,,,1.6,0.9,1.3*32
$GPRMC,112012.000,A,6416.6975,N,02104.7754,W,28.21,298.98,290812,,,A*48
$GPGGA,112013.000,6416.7014,N,02104.7911,W,1,09,0.9,125.8,M,60.5,M,,0000*4D
$GPGSA,A,3,14,12,23,29,31,30,25,04,02,,,,1.6,0.9,1.3*32
$GPRMC,112013.000,A,6416.7014,N,02104.7911,W,28.17,299.61,290812,,,A*4B
$GPGGA,112014.000,6416.7052,N,02104.8068,W,1,09,0.9,125.5,M,60.5,M,,0000*4D
$GPGSA,A,3,14,12,23,29,31,30,25,04,02,,,,1.6,0.9,1.3*32
$GPRMC,112014.000,A,6416.7052,N,02104.8068,W,28.14,299.62,290812,,,A*46
$GPGGA,112015.000,6416.7090,N,02104.8224,W,1,09,0.9,125.2,M,60.5,M,,0000*4F
$GPGSA,A,3,14,12,23,29,31,30,25,04,02,,,,1.6,0.9,1.3*32
$GPGSV,3,1,12,31,70,238,27,25,55,098,25,29,55,137,34,30,26,255,23*7D
$GPGSV,3,2,12,02,26,050,40,23,18,327,36,12,18,082,33,14,11,194,31*7C
$GPGSV,3,3,12,04,09,009,33,20,08,302,20,32,05,276,18,10,04,029,*77
$GPRMC,112015.000,A,6416.7090,N,02104.8224,W,27.99,299.12,290812,,,A*4E
$GPGGA,112016.000,6416.7127,N,02104.8381,W,1,09,0.9,124.9,M,60.5,M,,0000*45
$GPGSA,A,3,14,12,23,29,31,30,25,04,02,,,,1.6,0.9,1.3*32
$GPRMC,112016.000,A,6416.7127,N,02104.8381,W,27.81,298.51,290812,,,A*41
$GPGGA,112017.000,6416.7163,N,02104.8537,W,1,09,0.9,124.5,M,60.5,M,,0000*43
$GPGSA,A,3,14,12,23,29,31,30,25,04,02,,,,1.6,0.9,1.3*32
$GPRMC,112017.000,A,6416.7163,N,02104.8537,W,27.72,298.48,290812,,,A*4F
$GPGGA,112018.000,6416.7200,N,02104.8692,W,1,09,0.9,124.2,M,60.5,M,,0000*41
$GPGSA,A,3,14,12,23,29,31,30,25,04,02,,,,1.6,0.9,1.3*32
$GPRMC,112018.000,A,6416.7200,N,02104.8692,W,27.60,298.52,290812,,,A*42
$GPGGA,112019.000,6416.7236,N,02104.8846,W,1,09,0.9,123.9,M,60.5,M,,0000*4E
$GPGSA,A,3,14,12,23,29,31,30,25,04,02,,,,1.6,0.9,1.3*32
$GPRMC,112019.000,A,6416.7236,N,02104.8846,W,27.40,298.46,290812,,,A*46
$GPGGA,112020.000,6416.7271,N,02104.8999,W,1,09,0.9,123.6,M,60.5,M,,0000*4B
$GPGSA,A,3,14,12,23,29,31,30,25,04,02,,,,1.6,0.9,1.3*32
$GPGSV,3,1,12,31,70,238,27,25,55,098,25,29,55,137,35,30,26,255,24*7B
$GPGSV,3,2,12,02,26,050,40,23,18,327,36,12,18,082,34,14,11,194,31*7B
$GPGSV,3,3,12,04,09,009,32,20,08,302,27,32,05,276,19,10,04,029,*70
$GPRMC,112020.000,A,6416.7271,N,02104.8999,W,27.05,298.19,290812,,,A*47
$GPGGA,112021.000,6416.7306,N,02104.9150,W,1,09,0.9,123.3,M,60.5,M,,0000*42
$GPGSA,A,3,14,12,23,29,31,30,25,04,02,,,,1.6,0.9,1.3*32
$GPRMC,112021.000,A,6416.7306,N,02104.9150,W,26.71,297.96,290812,,,A*41
$GPGGA,112022.000,6416.7341,N,02104.9299,W,1,09,0.9,123.0,M,60.5,M,,0000*47
$GPGSA,A,3,14,12,23,29,31,30,25,04,02,,,,1.6,0.9,1.3*32
$GPRMC,112022.000,A,6416.7341,N,02104.9299,W,26.30,298.29,290812,,,A*49
$GPGGA,112023.000,6416.7375,N,02104.9445,W,1,09,0.9,122.6,M,60.5,M,,0000*41
$GPGSA,A,3,14,12,23,29,31,30,25,04,02,,,,1.6,0.9,1.3*32
$GPRMC,112023.000,A,6416.7375,N,02104.9445,W,25.92,298.48,290812,,,A*44
$GPGGA,112024.000,6416.7406,N,02104.9590,W,1,08,0.9,122.3,M,60.5,M,,0000*48
$GPGSA,A,3,14,12,23,29,31,30,04,02,,,,,1.7,0.9,1.4*33
$GPRMC,112024.000,A,6416.7406,N,02104.9590,W,25.28,296.56,290812,,,A*49
$GPGGA,112025.000,6416.7435,N,02104.9733,W,1,09,0.9,122.0,M,60.5,M,,0000*40
$GPGSA,A,3,14,12,23,29,31,30,25,04,02,,,,1.6,0.9,1.3*32
$GPGSV,3,1,12,31,70,238,25,25,55,098,19,29,55,137,33,30,26,255,25*71
$GPGSV,3,2,12,02,26,050,38,23,18,327,36,12,18,082,34,14,11,194,35*70
$GPGSV,3,3,12,04,09,009,28,20,08,302,26,32,05,276,29,10,04,029,*79
$GPRMC,112025.000,A,6416.7435,N,02104.9733,W,24.60,294.59,290812,,,A*43
$GPGGA,112026.000,6416.7460,N,02104.9875,W,1,09,0.9,121.7,M,60.5,M,,0000*4A
$GPGSA,A,3,14,12,23,29,31,30,25,04,02,,,,1.6,0.9,1.3*32
$GPRMC,112026.000,A,6416.7460,N,02104.9875,W,23.96,292.69,290812,,,A*46
$GPGGA,112027.000,6416.7484,N,02105.0017,W,1,09,0.9,121.4,M,60.5,M,,0000*46
$GPGSA,A,3,14,12,23,29,31,30,25,04,02,,,,1.6,0.9,1.3*32
$GPRMC,112027.000,A,6416.7484,N,02105.0017,W,23.56,290.56,290812,,,A*4B
$GPGGA,112028.000,6416.7504,N,02105.0159,W,1,08,0.9,121.2,M,60.5,M,,0000*4C
$GPGSA,A,3,14,12,23,29,31,30,25,04,,,,,1.6,0.9,1.3*30
$GPRMC,112028.000,A,6416.7504,N,02105.0159,W,23.18,287.95,290812,,,A*45
$GPGGA,112029.000,6416.7521,N,02105.0300,W,1,08,0.9,121.0,M,60.5,M,,0000*46
$GPGSA,A,3,14,12,23,29,31,30,25,04,,,,,1.6,0.9,1.3*30
$GPRMC,112029.000,A,6416.7521,N,02105.0300,W,22.66,285.77,290812,,,A*4B
$GPGGA,112030.000,6416.7536,N,02105.0441,W,1,09,0.9,120.8,M,60.5,M,,0000*42
$GPGSA,A,3,14,12,23,29,31,30,25,04,02,,,,1.6,0.9,1.3*32
$GPGSV,3,1,12,31,70,238,35,25,55,098,31,29,55,137,32,30,26,255,30*7F
$GPGSV,3,2,12,02,26,050,32,23,18,327,29,12,18,082,30,14,11,194,33*76
$GPGSV,3,3,12,04,09,009,31,20,08,302,31,32,05,276,32,10,04,029,*7D
$GPRMC,112030.000,A,6416.7536,N,02105.0441,W,22.50,283.58,290812,,,A*49
$GPGGA,112031.000,6416.7550,N,02105.0583,W,1,09,0.9,120.7,M,60.5,M,,0000*43
$GPGSA,A,3,14,12,23,29,31,30,25,04,02,,,,1.6,0.9,1.3*32
$GPRMC,112031.000,A,6416.7550,N,02105.0583,W,22.50,282.91,290812,,,A*43
$GPGGA,112032.000,6416.7564,N,02105.0725,W,1,09,0.9,120.5,M,60.5,M,,0000*4B
$GPGSA,A,3,14,12,23,29,31,30,25,04,02,,,,1.6,0.9,1.3*32
$GPRMC,112032.000,A,6416.7564,N,02105.0725,W,22.36,282.26,290812,,,A*45
$GPGGA,112033.000,6416.7575,N,02105.0861,W,1,09,0.9,120.4,M,60.5,M,,0000*44
$GPGSA,A,3,14,12,23,29,31,30,25,04,02,,,,1.6,0.9,1.3*32
$GPRMC,112033.000,A,6416.7575,N,02105.0861,W,21.45,280.52,290812,,,A*4D
$GPGGA,112034.000,6416.7583,N,02105.0996,W,1,09,0.9,120.4,M,60.5,M,,0000*43
$GPGSA,A,3,14,12,23,29,31,30,25,04,02,,,,1.6,0.9,1.3*32
$GPRMC,112034.000,A,6416.7583,N,02105.0996,W,20.87,278.01,290812,,,A*44
$GPGGA,112035.000,6416.7589,N,02105.1125,W,1,09,0.9,120.4,M,60.5,M,,0000*49
$GPGSA,A,3,14,12,23,29,31,30,25,04,02,,,,1.6,0.9,1.3*32
$GPGSV,3,1,12,31,70,238,35,25,55,098,26,29,55,137,28,30,26,255,31*73
$GPGSV,3,2,12,02,26,050,34,23,18,327,23,12,18,082,20,14,11,194,33*7B
$GPGSV,3,3,12,04,09,009,29,20,08,302,31,32,05,276,36,10,04,029,*70
$GPRMC,112035.000,A,6416.7589,N,02105.1125,W,19.97,275.64,290812,,,A*4B
$GPGGA,112036.000,6416.7594,N,02105.1248,W,1,09,0.9,120.5,M,60.5,M,,0000*4F
$GPGSA,A,3,14,12,23,29,31,30,25,04,02,,,,1.6,0.9,1.3*32
$GPRMC,112036.000,A,6416.7594,N,02105.1248,W,18.96,274.22,290812,,,A*4F
$GPGGA,112037.000,6416.7597,N,02105.1369,W,1,09,0.9,120.7,M,60.5,M,,0000*4D
$GPGSA,A,3,14,12,23,29,31,30,25,04,02,,,,1.6,0.9,1.3*32
$GPRMC,112037.000,A,6416.7597,N,02105.1369,W,18.58,272.86,290812,,,A*45
$GPGGA,112038.000,6416.7599,N,02105.1488,W,1,09,0.9,120.9,M,60.5,M,,0000*4A
$GPGSA,A,3,14,12,23,29,31,30,25,04,02,,,,1.6,0.9,1.3*32
$GPRMC,112038.000,A,6416.7599,N,02105.1488,W,18.12,271.89,290812,,,A*4E
$GPGGA,112039.000,6416.7602,N,02105.1602,W,1,09,0.9,121.1,M,60.5,M,,0000*43
$GPGSA,A,3,14,12,23,29,31,30,25,04,02,,,,1.6,0.9,1.3*32
$GPRMC,112039.000,A,6416.7602,N,02105.1602,W,17.51,272.56,290812,,,A*47
$GPGGA,112040.000,6416.7605,N,02105.1712,W,1,09,0.9,121.5,M,60.5,M,,0000*4E
$GPGSA,A,3,14,12,23,29,31,30,25,04,02,,,,1.6,0.9,1.3*32
$GPGSV,3,1,12,31,70,238,35,25,55,098,28,29,55,137,35,30,26,255,31*71
$GPGSV,3,2,12,02,26,050,33,23,18,327,29,12,18,082,21,14,11,194,25*70
$GPGSV,3,3,12,04,09,009,28,20,08,302,34,32,05,276,31,10,04,029,*73
$GPRMC,112040.000,A,6416.7605,N,02105.1712,W,16.78,272.62,290812,,,A*43
$GPGGA,112041.000,6416.7608,N,02105.1821,W,1,09,0.9,121.8,M,60.5,M,,0000*40
$GPGSA,A,3,14,12,23,29,31,30,25,04,02,,,,1.6,0.9,1.3*32
$GPRMC,112041.000,A,6416.7608,N,02105.1821,W,16.58,272.54,290812,,,A*47
$GPGGA,112042.000,6416.7611,N,02105.1928,W,1,09,0.9,122.2,M,60.5,M,,0000*4A
$GPGSA,A,3,14,12,23,29,31,30,25,04,02,,,,1.6,0.9,1.3*32
$GPRMC,112042.000,A,6416.7611,N,02105.1928,W,16.27,273.06,290812,,,A*4A
$GPGGA,112043.000,6416.7614,N,02105.2029,W,1,09,0.9,122.6,M,60.5,M,,0000*41
$GPGSA,A,3,14,12,23,29,31,30,25,04,02,,,,1.6,0.9,1.3*32
$GPRMC,112043.000,A,6416.7614,N,02105.2029,W,15.30,273.01,290812,,,A*47
$GPGGA,112044.000,6416.7617,N,02105.2124,W,1,09,0.9,123.1,M,60.5,M,,0000*4F
$GPGSA,A,3,14,12,23,29,31,30,25,04,02,,,,1.6,0.9,1.3*32
$GPRMC,112044.000,A,6416.7617,N,02105.2124,W,14.43,273.41,290812,,,A*4E
$GPGGA,112045.000,6416.7619,N,02105.2209,W,1,09,0.9,123.5,M,60.5,M,,0000*48
$GPGSA,A,3,14,12,23,29,31,30,25,04,02,,,,1.6,0.9,1.3*32
$GPGSV,3,1,12,31,70,237,35,29,55,137,34,25,55,098,28,30,27,255,27*79
$GPGSV,3,2,12,02,26,050,33,23,18,327,27,12,18,082,22,14,11,194,24*7C
$GPGSV,3,3,12,04,09,009,27,20,08,302,29,32,05,276,31,10,04,029,*70
$GPRMC,112045.000,A,6416.7619,N,02105.2209,W,12.89,272.42,290812,,,A*4F
$GPGGA,112046.000,6416.7620,N,02105.2289,W,1,09,0.9,123.9,M,60.5,M,,0000*45
$GPGSA,A,3,14,12,23,29,31,30,25,04,02,,,,1.6,0.9,1.3*32
$GPRMC,112046.000,A,6416.7620,N,02105.2289,W,11.94,270.62,290812,,,A*41
$GPGGA,112047.000,6416.7620,N,02105.2365,W,1,09,0.9,124.4,M,60.5,M,,0000*4D
$GPGSA,A,3,14,12,23,29,31,30,25,04,02,,,,1.6,0.9,1.3*32
$GPRMC,112047.000,A,6416.7620,N,02105.2365,W,11.42,270.58,290812,,,A*41
$GPGGA,112048.000,6416.7621,N,02105.2442,W,1,09,0.9,124.8,M,60.5,M,,0000*4D
$GPGSA,A,3,14,12,23,29,31,30,25,04,02,,,,1.6,0.9,1.3*32
$GPRMC,112048.000,A,6416.7621,N,02105.2442,W,11.63,270.41,290812,,,A*46
$GPGGA,112049.000,6416.7621,N,02105.2519,W,1,09,0.9,125.3,M,60.5,M,,0000*49
$GPGSA,A,3,14,12,23,29,31,30,25,04,02,,,,1.6,0.9,1.3*32
$GPRMC,112049.000,A,6416.7621,N,02105.2519,W,11.55,270.74,290812,,,A*4B
$GPGGA,112050.000,6416.7622,N,02105.2587,W,1,09,0.9,125.8,M,60.5,M,,0000*4E
$GPGSA,A,3,14,12,23,29,31,30,25,04,02,,,,1.6,0.9,1.3*32
$GPGSV,3,1,12,31,70,237,36,29,55,137,33,25,55,098,33,30,27,255,26*76
$GPGSV,3,2,12,02,26,050,31,23,18,327,34,12,18,082,18,14,11,194,24*75
$GPGSV,3,3,12,04,09,009,27,20,08,302,37,32,05,276,31,10,04,029,*7F
$GPRMC,112050.000,A,6416.7622,N,02105.2587,W,10.22,270.82,290812,,,A*4F
$GPGGA,112051.000,6416.7622,N,02105.2651,W,1,09,0.9,126.3,M,60.5,M,,0000*4F
$GPGSA,A,3,14,12,23,29,31,30,25,04,02,,,,1.6,0.9,1.3*32
$GPRMC,112051.000,A,6416.7622,N,02105.2651,W,9.54,270.14,290812,,,A*70
$GPGGA,112052.000,6416.7621,N,02105.2715,W,1,09,0.9,126.8,M,60.5,M,,0000*45
$GPGSA,A,3,14,12,23,29,31,30,25,04,02,,,,1.6,0.9,1.3*32
$GPRMC,112052.000,A,6416.7621,N,02105.2715,W,9.61,270.45,290812,,,A*73
$GPGGA,112053.000,6416.7621,N,02105.2782,W,1,09,0.9,127.4,M,60.5,M,,0000*47
$GPGSA,A,3,14,12,23,29,31,30,25,04,02,,,,1.6,0.9,1.3*32
$GPRMC,112053.000,A,6416.7621,N,02105.2782,W,10.05,270.56,290812,,,A*44
$GPGGA,112054.000,6416.7621,N,02105.2852,W,1,09,0.9,127.9,M,60.5,M,,0000*4F
$GPGSA,A,3,14,12,23,29,31,30,25,04,02,,,,1.6,0.9,1.3*32
$GPRMC,112054.000,A,6416.7621,N,02105.2852,W,10.56,269.51,290812,,,A*48
$GPGGA,112055.000,6416.7620,N,02105.2925,W,1,09,0.9,128.4,M,60.5,M,,0000*4C
$GPGSA,A,3,14,12,23,29,31,30,25,04,02,,,,1.6,0.9,1.3*32
$GPGSV,3,1,12,31,70,237,36,29,55,137,33,25,55,098,33,30,27,255,27*77
$GPGSV,3,2,12,02,26,050,31,23,18,327,30,12,18,082,22,14,11,194,21*7D
$GPGSV,3,3,12,04,09,009,29,20,08,302,31,32,05,276,31,10,04,029,*77
$GPRMC,112055.000,A,6416.7620,N,02105.2925,W,11.08,268.57,290812,,,A*44
$GPGGA,112056.000,6416.7619,N,02105.3002,W,1,09,0.9,128.8,M,60.5,M,,0000*44
$GPGSA,A,3,14,12,23,29,31,30,25,04,02,,,,1.6,0.9,1.3*32
$GPRMC,112056.000,A,6416.7619,N,02105.3002,W,11.73,269.39,290812,,,A*45
$GPGGA,112057.000,6416.7619,N,02105.3081,W,1,09,0.9,129.3,M,60.5,M,,0000*44
$GPGSA,A,3,14,12,23,29,31,30,25,04,02,,,,1.6,0.9,1.3*32
$GPRMC,112057.000,A,6416.7619,N,02105.3081,W,12.04,270.92,290812,,,A*45
$GPGGA,112058.000,6416.7619,N,02105.3160,W,1,09,0.9,129.7,M,60.5,M,,0000*41
$GPGSA,A,3,14,12,23,29,31,30,25,04,02,,,,1.6,0.9,1.3*32
$GPRMC,112058.000,A,6416.7619,N,02105.3160,W,12.06,271.05,290812,,,A*49
$GPGGA,112059.000,6416.7619,N,02105.3240,W,1,09,0.9,130.1,M,60.5,M,,0000*4F
$GPGSA,A,3,14,12,23,29,31,30,25,04,02,,,,1.6,0.9,1.3*32
$GPRMC,112059.000,A,6416.7619,N,02105.3240,W,12.21,270.99,290812,,,A*48
$GPGGA,112100.000,6416.7619,N,02105.3322,W,1,09,0.9,130.4,M,60.5,M,,0000*42
$GPGSA,A,3,14,12,23,29,31,30,25,04,02,,,,1.6,0.9,1.3*32
$GPGSV,3,1,12,31,70,237,36,29,55,137,33,25,55,098,29,30,27,255,26*7D
$GPGSV,3,2,12,02,26,050,31,23,18,327,32,12,18,082,21,14,11,194,28*75
$GPGSV,3,3,12,04,09,009,32,20,08,302,30,32,05,276,33,10,04,029,*7E
$GPRMC,112100.000,A,6416.7619,N,02105.3322,W,12.68,271.08,290812,,,A*44
$GPGGA,112101.000,6416.7619,N,02105.3410,W,1,09,0.9,130.9,M,60.5,M,,0000*48
$GPGSA,A,3,14,12,23,29,31,30,25,04,02,,,,1.6,0.9,1.3*32
$GPRMC,112101.000,A,6416.7619,N,02105.3410,W,13.46,271.77,290812,,,A*46
$GPGGA,112102.000,6416.7619,N,02105.3499,W,1,09,0.9,131.3,M,60.5,M,,0000*41
$GPGSA,A,3,14,12,23,29,31,30,25,04,02,,,,1.6,0.9,1.3*32
$GPRMC,112102.000,A,6416.7619,N,02105.3499,W,13.65,271.41,290812,,,A*40
$GPGGA,112103.000,6416.7620,N,02105.3589,W,1,09,0.9,131.7,M,60.5,M,,0000*4E
$GPGSA,A,3,14,12,23,29,31,30,25,04,02,,,,1.6,0.9,1.3*32
$GPRMC,112103.000,A,6416.7620,N,02105.3589,W,13.79,271.52,290812,,,A*44
$GPGGA,112104.000,6416.7621,N,02105.3678,W,1,09,0.9,132.2,M,60.5,M,,0000*43
$GPGSA,A,3,14,12,23,29,31,30,25,04,02,,,,1.6,0.9,1.3*32
$GPRMC,112104.000,A,6416.7621,N,02105.3678,W,13.66,272.20,290812,,,A*47
$GPGGA,112105.000,6416.7621,N,02105.3766,W,1,09,0.9,132.8,M,60.5,M,,0000*46
$GPGSA,A,3,14,12,23,29,31,30,25,04,02,,,,1.6,0.9,1.3*32
$GPGSV,3,1,12,31,70,237,36,29,55,137,33,25,55,098,29,30,27,255,26*7D
$GPGSV,3,2,12,02,26,050,26,23,18,327,33,12,18,082,22,14,11,194,20*79
$GPGSV,3,3,12,04,09,009,31,20,08,302,28,32,05,276,32,10,04,029,*75
$GPRMC,112105.000,A,6416.7621,N,02105.3766,W,13.58,271.43,290812,,,A*43
$GPGGA,112106.000,6416.7621,N,02105.3855,W,1,09,0.9,133.2,M,60.5,M,,0000*41
$GPGSA,A,3,14,12,23,29,31,30,25,04,02,,,,1.6,0.9,1.3*32
$GPRMC,112106.000,A,6416.7621,N,02105.3855,W,13.72,270.98,290812,,,A*40
$GPGGA,112107.000,6416.7622,N,02105.3942,W,1,09,0.9,133.6,M,60.5,M,,0000*40
$GPGSA,A,3,14,12,23,29,31,30,25,04,02,,,,1.6,0.9,1.3*32
$GPRMC,112107.000,A,6416.7622,N,02105.3942,W,13.47,273.09,290812,,,A*48
$GPGGA,112108.000,6416.7623,N,02105.4030,W,1,09,0.9,133.9,M,60.5,M,,0000*4A
$GPGSA,A,3,14,12,23,29,31,30,25,04,02,,,,1.6,0.9,1.3*32
$GPRMC,112108.000,A,6416.7623,N,02105.4030,W,13.68,273.75,290812,,,A*4B
$GPGGA,112109.000,6416.7624,N,02105.4118,W,1,09,0.9,134.0,M,60.5,M,,0000*49
$GPGSA,A,3,14,12,23,29,31,30,25,04,02,,,,1.6,0.9,1.3*32
$GPRMC,112109.000,A,6416.7624,N,02105.4118,W,13.73,272.54,290812,,,A*4E
$GPGGA,112110.000,6416.7624,N,02105.4207,W,1,08,0.9,134.3,M,60.5,M,,0000*4E
$GPGSA,A,3,14,12,23,31,30,25,04,02,,,,,1.6,0.9,1.4*3E
$GPGSV,3,1,12,31,70,237,36,29,55,137,,25,55,098,30,30,27,256,28*78
$GPGSV,3,2,12,02,26,049,28,23,18,327,34,12,17,082,22,14,11,194,26*71
$GPGSV,3,3,12,04,09,009,32,20,08,302,31,32,05,276,32,10,05,028,*7E
$GPRMC,112110.000,A,6416.7624,N,02105.4207,W,13.80,270.93,290812,,,A*4E
$GPGGA,112111.000,6416.7622,N,02105.4296,W,1,09,0.9,134.6,M,60.5,M,,0000*45
$GPGSA,A,3,14,12,23,29,31,30,25,04,02,,,,1.6,0.9,1.3*32
$GPRMC,112111.000,A,6416.7622,N,02105.4296,W,13.96,267.29,290812,,,A*41
$GPGGA,112112.000,6416.7620,N,02105.4385,W,1,09,0.9,134.9,M,60.5,M,,0000*48
$GPGSA,A,3,14,12,23,29,31,30,25,04,02,,,,1.6,0.9,1.3*32
$GPRMC,112112.000,A,6416.7620,N,02105.4385,W,14.02,267.51,290812,,,A*46
$GPGGA,112113.000,6416.7617,N,02105.4473,W,1,08,0.9,135.2,M,60.5,M,,0000*48
$GPGSA,A,3,14,12,23,29,31,30,25,02,,,,,1.6,0.9,1.4*31
$GPRMC,112113.000,A,6416.7617,N,02105.4473,W,13.93,266.58,290812,,,A*4A
$GPGGA,112114.000,6416.7614,N,02105.4560,W,1,08,0.9,135.5,M,60.5,M,,0000*48
$GPGSA,A,3,14,12,23,29,31,30,25,02,,,,,1.6,0.9,1.4*31
$GPRMC,112114.000,A,6416.7614,N,02105.4560,W,13.67,266.98,290812,,,A*4A
$GPGGA,112115.000,6416.7613,N,02105.4643,W,1,08,0.9,135.8,M,60.5,M,,0000*41
$GPGSA,A,3,14,12,23,29,31,30,25,02,,,,,1.6,0.9,1.4*31
$GPGSV,3,1,12,31,70,236,37,29,55,137,31,25,55,098,34,30,27,256,35*72
$GPGSV,3,2,12,02,26,049,30,23,18,327,34,12,17,083,21,14,11,194,24*78
$GPGSV,3,3,12,04,09,009,27,20,08,302,,32,05,276,26,10,05,028,*7D
$GPRMC,112115.000,A,6416.7613,N,02105.4643,W,13.11,269.36,290812,,,A*44
$GPGGA,112116.000,6416.7613,N,02105.4722,W,1,08,0.9,136.2,M,60.5,M,,0000*4D
$GPGSA,A,3,14,12,23,29,31,30,25,02,,,,,1.6,0.9,1.4*31
$GPRMC,112116.000,A,6416.7613,N,02105.4722,W,12.32,270.81,290812,,,A*45
$GPGGA,112117.000,6416.7611,N,02105.4796,W,1,08,0.9,136.4,M,60.5,M,,0000*47
$GPGSA,A,3,14,12,23,29,31,30,25,02,,,,,1.6,0.9,1.4*31
$GPRMC,112117.000,A,6416.7611,N,02105.4796,W,11.61,266.66,290812,,,A*42
$GPGGA,112118.000,6416.7602,N,02105.4864,W,1,08,0.9,136.7,M,60.5,M,,0000*4B
$GPGSA,A,3,14,12,23,29,31,30,25,02,,,,,1.6,0.9,1.4*31
$GPRMC,112118.000,A,6416.7602,N,02105.4864,W,11.13,253.45,290812,,,A*4F
$GPGGA,112119.000,6416.7585,N,02105.4919,W,1,08,0.9,137.0,M,60.5,M,,0000*4B
$GPGSA,A,3,14,12,23,29,31,30,25,02,,,,,1.6,0.9,1.4*31
$GPRMC,112119.000,A,6416.7585,N,02105.4919,W,10.30,235.59,290812,,,A*44
$GPGGA,112120.000,6416.7564,N,02105.4961,W,1,08,0.9,137.1,M,60.5,M,,0000*40
$GPGSA,A,3,14,12,23,29,31,30,25,02,,,,,1.6,0.9,1.4*31
$GPGSV,3,1,12,31,70,236,38,29,55,137,35,25,55,098,34,30,27,256,32*7E
$GPGSV,3,2,12,02,26,049,31,23,18,327,33,12,17,083,32,14,11,194,26*7E
$GPGSV,3,3,12,04,09,009,31,20,08,302,29,32,05,276,31,10,05,028,*77
$GPRMC,112120.000,A,6416.7564,N,02105.4961,W,9.90,220.36,290812,,,A*71
$GPGGA,112121.000,6416.7539,N,02105.4988,W,1,08,0.9,137.2,M,60.5,M,,0000*4D
$GPGSA,A,3,14,12,23,29,31,30,25,02,,,,,1.6,0.9,1.4*31
$GPRMC,112121.000,A,6416.7539,N,02105.4988,W,10.13,203.63,290812,,,A*4D
$GPGGA,112122.000,6416.7507,N,02105.5009,W,1,08,0.9,137.1,M,60.5,M,,0000*41
$GPGSA,A,3,14,12,23,29,31,30,25,02,,,,,1.6,0.9,1.4*31
$GPRMC,112122.000,A,6416.7507,N,02105.5009,W,11.81,195.64,290812,,,A*43
$GPGGA,112123.000,6416.7471,N,02105.5033,W,1,08,0.9,137.0,M,60.5,M,,0000*48
$GPGSA,A,3,14,12,23,29,31,30,25,02,,,,,1.6,0.9,1.4*31
$GPRMC,112123.000,A,6416.7471,N,02105.5033,W,13.25,196.31,290812,,,A*44
$GPGGA,112124.000,6416.7432,N,02105.5064,W,1,08,0.9,136.9,M,60.5,M,,0000*42
$GPGSA,A,3,14,12,23,29,31,30,25,02,,,,,1.6,0.9,1.4*31
$GPRMC,112124.000,A,6416.7432,N,02105.5064,W,14.61,199.47,290812,,,A*4F
$GPGGA,112125.000,6416.7393,N,02105.5101,W,1,08,0.9,136.8,M,60.5,M,,0000*4C
$GPGSA,A,3,14,12,23,29,31,30,25,02,,,,,1.6,0.9,1.4*31
$GPGSV,3,1,12,31,70,236,43,29,55,137,42,25,55,098,34,30,27,256,28*79
$GPGSV,3,2,12,02,26,049,30,23,18,327,31,12,17,083,35,14,11,194,27*7B
$GPGSV,3,3,12,04,09,009,26,20,08,302,26,32,05,276,15,10,05,028,*78
$GPRMC,112125.000,A,6416.7393,N,02105.5101,W,15.23,202.98,290812,,,A*44
$GPGGA,112126.000,6416.7356,N,02105.5140,W,1,08,0.9,136.8,M,60.5,M,,0000*43
$GPGSA,A,3,14,12,23,29,31,30,25,02,,,,,1.6,0.9,1.4*31
$GPRMC,112126.000,A,6416.7356,N,02105.5140,W,14.74,205.11,290812,,,A*4E
$GPGGA,112127.000,6416.7318,N,02105.5182,W,1,06,1.2,136.8,M,60.5,M,,0000*42
$GPGSA,A,3,14,23,29,31,25,02,,,,,,,1.9,1.2,1.5*35
$GPRMC,112127.000,A,6416.7318,N,02105.5182,W,15.10,207.09,290812,,,A*43
$GPGGA,112128.000,6416.7279,N,02105.5228,W,1,07,1.0,136.8,M,60.5,M,,0000*4B
$GPGSA,A,3,14,23,29,31,30,25,02,,,,,,1.8,1.0,1.5*35
$GPRMC,112128.000,A,6416.7279,N,02105.5228,W,15.81,207.63,290812,,,A*4D
$GPGGA,112129.000,6416.7237,N,02105.5281,W,1,08,0.9,136.9,M,60.5,M,,0000*45
$GPGSA,A,3,14,12,23,29,31,30,25,02,,,,,1.6,0.9,1.4*31
$GPRMC,112129.000,A,6416.7237,N,02105.5281,W,16.96,209.88,290812,,,A*4B
$GPGGA,112130.000,6416.7195,N,02105.5335,W,1,08,0.9,137.0,M,60.5,M,,0000*40
$GPGSA,A,3,14,12,23,29,31,30,25,02,,,,,1.6,0.9,1.4*31
$GPGSV,3,1,12,31,70,236,37,29,55,137,41,25,55,098,33,30,27,256,19*7C
$GPGSV,3,2,12,02,26,049,30,23,18,327,24,12,17,083,38,14,11,194,26*73
$GPGSV,3,3,12,04,09,009,26,20,08,302,32,32,05,276,21,10,05,028,*7A
$GPRMC,112130.000,A,6416.7195,N,02105.5335,W,17.34,210.07,290812,,,A*40
$GPGGA,112131.000,6416.7152,N,02105.5393,W,1,08,0.9,137.0,M,60.5,M,,0000*46
$GPGSA,A,3,14,12,23,29,31,30,25,02,,,,,1.6,0.9,1.4*31
$GPRMC,112131.000,A,6416.7152,N,02105.5393,W,17.84,211.38,290812,,,A*40
$GPGGA,112132.000,6416.7109,N,02105.5455,W,1,08,0.9,137.1,M,60.5,M,,0000*47
$GPGSA,A,3,14,12,23,29,31,30,25,02,,,,,1.6,0.9,1.4*31
$GPRMC,112132.000,A,6416.7109,N,02105.5455,W,18.41,212.66,290812,,,A*4E
$GPGGA,112133.000,6416.7064,N,02105.5520,W,1,08,0.9,137.1,M,60.5,M,,0000*4F
$GPGSA,A,3,14,12,23,29,31,30,25,02,,,,,1.6,0.9,1.4*31
$GPRMC,112133.000,A,6416.7064,N,02105.5520,W,18.79,213.53,290812,,,A*4A
$GPGGA,112134.000,6416.7019,N,02105.5586,W,1,08,0.9,137.1,M,60.5,M,,0000*4E
$GPGSA,A,3,14,12,23,29,31,30,25,02,,,,,1.6,0.9,1.4*31
$GPRMC,112134.000,A,6416.7019,N,02105.5586,W,19.37,213.40,290812,,,A*42
$GPGGA,112135.000,6416.6972,N,02105.5653,W,1,08,0.9,137.1,M,60.5,M,,0000*41
$GPGSA,A,3,14,12,23,29,31,30,25,02,,,,,1.6,0.9,1.4*31
$GPGSV,3,1,12,31,70,236,37,29,55,137,34,25,55,098,33,30,27,256,29*7D
$GPGSV,3,2,12,02,26,049,30,23,18,327,38,12,17,083,37,14,11,194,20*77
$GPGSV,3,3,12,04,09,009,27,20,08,302,35,32,05,276,30,10,05,028,*7C
$GPRMC,112135.000,A,6416.6972,N,02105.5653,W,19.69,212.94,290812,,,A*4E
$GPGGA,112136.000,6416.6925,N,02105.5721,W,1,08,0.9,137.0,M,60.5,M,,0000*45
$GPGSA,A,3,14,12,23,29,31,30,25,02,,,,,1.6,0.9,1.4*31
$GPRMC,112136.000,A,6416.6925,N,02105.5721,W,19.85,213.09,290812,,,A*4C
$GPGGA,112137.000,6416.6878,N,02105.5789,W,1,08,0.9,137.0,M,60.5,M,,0000*4F
$GPGSA,A,3,14,12,23,29,31,30,25,02,,,,,1.6,0.9,1.4*31
$GPRMC,112137.000,A,6416.6878,N,02105.5789,W,19.81,213.72,290812,,,A*4E
$GPGGA,112138.000,6416.6832,N,02105.5859,W,1,08,0.9,137.0,M,60.5,M,,0000*4C
$GPGSA,A,3,14,12,23,29,31,30,25,02,,,,,1.6,0.9,1.4*31
$GPRMC,112138.000,A,6416.6832,N,02105.5859,W,20.06,214.01,290812,,,A*4B
$GPGGA,112139.000,6416.6783,N,02105.5929,W,1,08,0.9,137.0,M,60.5,M,,0000*4E
$GPGSA,A,3,14,12,23,29,31,30,25,02,,,,,1.6,0.9,1.4*31
$GPRMC,112139.000,A,6416.6783,N,02105.5929,W,20.49,213.16,290812,,,A*43
$GPGGA,112140.000,6416.6734,N,02105.6000,W,1,08,0.9,137.0,M,60.5,M,,0000*4D
$GPGSA,A,3,14,12,23,29,31,30,25,02,,,,,1.6,0.9,1.4*31
$GPGSV,3,1,12,31,70,236,38,29,55,137,33,25,55,098,31,30,27,256,28*76
$GPGSV,3,2,12,02,26,049,28,23,18,327,38,12,17,083,34,14,11,194,24*79
$GPGSV,3,3,12,04,09,009,26,20,08,302,35,32,05,276,31,10,05,028,*7C
$GPRMC,112140.000,A,6416.6734,N,02105.6000,W,20.77,213.03,290812,,,A*49
$GPGGA,112141.000,6416.6686,N,02105.6070,W,1,08,0.9,136.9,M,60.5,M,,0000*4B
$GPGSA,A,3,14,12,23,29,31,30,25,02,,,,,1.6,0.9,1.4*31
$GPRMC,112141.000,A,6416.6686,N,02105.6070,W,20.49,213.14,290812,,,A*4C
$GPGGA,112142.000,6416.6639,N,02105.6138,W,1,08,0.9,136.9,M,60.5,M,,0000*41
$GPGSA,A,3,14,12,23,29,31,30,25,02,,,,,1.6,0.9,1.4*31
$GPRMC,112142.000,A,6416.6639,N,02105.6138,W,19.74,213.46,290812,,,A*45
$GPGGA,112143.000,6416.6594,N,02105.6203,W,1,08,0.9,136.9,M,60.5,M,,0000*4F
$GPGSA,A,3,14,12,23,29,31,30,25,02,,,,,1.6,0.9,1.4*31
$GPRMC,112143.000,A,6416.6594,N,02105.6203,W,18.86,213.44,290812,,,A*45
$GPGGA,112144.000,6416.6550,N,02105.6266,W,1,08,0.9,136.8,M,60.5,M,,0000*42
$GPGSA,A,3,14,12,23,29,31,30,25,02,,,,,1.6,0.9,1.4*31
$GPRMC,112144.000,A,6416.6550,N,02105.6266,W,18.51,212.92,290812,,,A*49
$GPGGA,112145.000,6416.6506,N,02105.6329,W,1,08,0.9,136.8,M,60.5,M,,0000*4A
$GPGSA,A,3,14,12,23,29,31,30,25,02,,,,,1.6,0.9,1.4*31
$GPGSV,3,1,12,31,70,236,38,29,55,137,33,25,55,098,31,30,27,256,29*77
$GPGSV,3,2,12,02,26,049,28,23,18,327,37,12,17,083,34,14,11,194,24*76
$GPGSV,3,3,12,04,09,009,28,20,08,302,35,32,05,276,35,10,05,028,*76
$GPRMC,112145.000,A,6416.6506,N,02105.6329,W,18.40,212.88,290812,,,A*4A
$GPGGA,112146.000,6416.6462,N,02105.6393,W,1,08,0.9,136.7,M,60.5,M,,0000*44
$GPGSA,A,3,14,12,23,29,31,30,25,02,,,,,1.6,0.9,1.4*31
$GPRMC,112146.000,A,6416.6462,N,02105.6393,W,18.83,212.90,290812,,,A*4D
$GPGGA,112147.000,6416.6415,N,02105.6459,W,1,08,0.9,136.6,M,60.5,M,,0000*45
$GPGSA,A,3,14,12,23,29,31,30,25,02,,,,,1.6,0.9,1.4*31
$GPRMC,112147.000,A,6416.6415,N,02105.6459,W,19.64,212.16,290812,,,A*4B
$GPGGA,112148.000,6416.6366,N,02105.6526,W,1,08,0.9,136.5,M,60.5,M,,0000*43
$GPGSA,A,3,14,12,23,29,31,30,25,02,,,,,1.6,0.9,1.4*31
$GPRMC,112148.000,A,6416.6366,N,02105.6526,W,20.44,211.94,290812,,,A*4F
$GPGGA,112149.000,6416.6315,N,02105.6597,W,1,08,0.9,136.4,M,60.5,M,,0000*4D
$GPGSA,A,3,14,12,23,29,31,30,25,02,,,,,1.6,0.9,1.4*31
$GPRMC,112149.000,A,6416.6315,N,02105.6597,W,21.28,211.75,290812,,,A*44
$GPGGA,112150.000,6416.6264,N,02105.6670,W,1,08,0.9,136.3,M,60.5,M,,0000*4F
$GPGSA,A,3,14,12,23,29,31,30,25,02,,,,,1.6,0.9,1.4*31
$GPGSV,3,1,12,31,70,236,38,29,55,137,34,25,55,098,30,30,27,256,28*70
$GPGSV,3,2,12,02,26,049,28,23,18,327,30,12,17,083,33,14,11,194,25*77
$GPGSV,3,3,12,04,09,009,29,20,08,302,34,32,05,276,30,10,05,028,*73
$GPRMC,112150.000,A,6416.6264,N,02105.6670,W,21.62,212.66,290812,,,A*4E
$GPGGA,112151.000,6416.6213,N,02105.6744,W,1,08,0.9,136.2,M,60.5,M,,0000*49
$GPGSA,A,3,14,12,23,29,31,30,25,02,,,,,1.6,0.9,1.4*31
$GPRMC,112151.000,A,6416.6213,N,02105.6744,W,21.56,213.04,290812,,,A*4B
$GPGGA,112152.000,6416.6162,N,02105.6817,W,1,08,0.9,136.0,M,60.5,M,,0000*44
$GPGSA,A,3,14,12,23,29,31,30,25,02,,,,,1.6,0.9,1.4*31
$GPRMC,112152.000,A,6416.6162,N,02105.6817,W,21.43,212.50,290812,,,A*40
$GPGGA,112153.000,6416.6111,N,02105.6888,W,1,08,0.9,135.9,M,60.5,M,,0000*4D
$GPGSA,A,3,14,12,23,29,31,30,25,02,,,,,1.6,0.9,1.4*31
$GPRMC,112153.000,A,6416.6111,N,02105.6888,W,21.40,212.05,290812,,,A*40
$GPGGA,112154.000,6416.6061,N,02105.6958,W,1,08,0.9,135.8,M,60.5,M,,0000*41
$GPGSA,A,3,14,12,23,29,31,30,25,02,,,,,1.6,0.9,1.4*31
$GPRMC,112154.000,A,6416.6061,N,02105.6958,W,21.01,212.10,290812,,,A*4C
$GPGGA,112155.000,6416.6012,N,02105.7028,W,1,08,0.9,135.6,M,60.5,M,,0000*45
$GPGSA,A,3,14,12,23,29,31,30,25,02,,,,,1.6,0.9,1.4*31
$GPGSV,3,1,12,31,70,236,38,29,55,137,35,25,55,098,30,30,27,256,27*7E
$GPGSV,3,2,12,02,26,049,24,23,18,327,30,12,17,083,33,14,11,194,26*78
$GPGSV,3,3,12,04,09,009,29,20,08,302,34,32,05,276,30,10,05,028,*73
$GPRMC,112155.000,A,6416.6012,N,02105.7028,W,20.49,212.78,290812,,,A*45
$GPGGA,112156.000,6416.5964,N,02105.7099,W,1,08,0.9,135.4,M,60.5,M,,0000*45
$GPGSA,A,3,14,12,23,29,31,30,25,02,,,,,1.6,0.9,1.4*31
$GPRMC,112156.000,A,6416.5964,N,02105.7099,W,20.40,213.00,290812,,,A*40
$GPGGA,112157.000,6416.5916,N,02105.7168,W,1,08,0.9,135.3,M,60.5,M,,0000*49
$GPGSA,A,3,14,12,23,29,31,30,25,02,,,,,1.6,0.9,1.4*31
$GPRMC,112157.000,A,6416.5916,N,02105.7168,W,20.21,213.11,290812,,,A*4C
$GPGGA,112158.000,6416.5870,N,02105.7237,W,1,08,0.9,135.1,M,60.5,M,,0000*4C
$GPGSA,A,3,14,12,23,29,31,30,25,02,,,,,1.6,0.9,1.4*31
$GPRMC,112158.000,A,6416.5870,N,02105.7237,W,19.80,213.17,290812,,,A*4C
$GPGGA,112159.000,6416.5824,N,02105.7305,W,1,08,0.9,135.0,M,60.5,M,,0000*4D
$GPGSA,A,3,14,12,23,29,31,30,25,02,,,,,1.6,0.9,1.4*31
$GPRMC,112159.000,A,6416.5824,N,02105.7305,W,19.51,213.31,290812,,,A*44
$GPGGA,112200.000,6416.5779,N,02105.7371,W,1,07,1.3,134.9,M,60.5,M,,0000*4A
$GPGSA,A,3,14,12,29,31,30,25,02,,,,,,1.9,1.3,1.4*34
$GPGSV,3,1,12,31,70,236,38,29,55,137,35,25,55,098,33,30,27,256,31*7A
$GPGSV,3,2,12,02,26,049,24,23,18,327,,12,17,083,38,14,11,194,26*70
$GPGSV,3,3,12,04,09,009,28,20,08,302,35,32,05,276,26,10,05,028,*74
$GPRMC,112200.000,A,6416.5779,N,02105.7371,W,18.94,213.72,290812,,,A*40
$GPGGA,112201.000,6416.5739,N,02105.7436,W,1,08,0.9,134.7,M,60.5,M,,0000*41
$GPGSA,A,3,14,12,23,29,31,30,25,02,,,,,1.6,0.9,1.4*31
$GPRMC,112201.000,A,6416.5739,N,02105.7436,W,17.45,215.78,290812,,,A*4E
$GPGGA,112202.000,6416.5705,N,02105.7492,W,1,08,0.9,134.6,M,60.5,M,,0000*42
$GPGSA,A,3,14,12,23,29,31,30,25,02,,,,,1.6,0.9,1.4*31
$GPRMC,112202.000,A,6416.5705,N,02105.7492,W,15.03,216.38,290812,,,A*4B
$GPGGA,112203.000,6416.5678,N,02105.7539,W,1,08,0.9,134.3,M,60.5,M,,0000*4D
$GPGSA,A,3,14,12,23,29,31,30,25,02,,,,,1.6,0.9,1.4*31
$GPRMC,112203.000,A,6416.5678,N,02105.7539,W,12.00,216.60,290812,,,A*48
$GPGGA,112204.000,6416.5658,N,02105.7571,W,1,08,0.9,133.9,M,60.5,M,,0000*49
$GPGSA,A,3,14,12,23,29,31,30,25,02,,,,,1.6,0.9,1.4*31
$GPRMC,112204.000,A,6416.5658,N,02105.7571,W,8.44,216.15,290812,,,A*78
$GPGGA,112205.000,6416.5646,N,02105.7592,W,1,08,0.9,133.4,M,60.5,M,,0000*47
$GPGSA,A,3,14,12,23,29,31,30,25,02,,,,,1.6,0.9,1.4*31
$GPGSV,3,1,12,31,70,236,38,29,55,137,32,25,55,098,30,30,27,256,17*7A
$GPGSV,3,2,12,02,26,049,24,23,18,327,35,12,17,083,31,14,11,194,17*7D
$GPGSV,3,3,12,04,09,009,27,20,08,302,25,32,05,276,23,10,05,028,*7F
$GPRMC,112205.000,A,6416.5646,N,02105.7592,W,5.28,215.34,290812,,,A*7C
$GPGGA,112206.000,6416.5640,N,02105.7600,W,1,08,0.9,132.8,M,60.5,M,,0000*47
$GPGSA,A,3,14,12,23,29,31,30,25,02,,,,,1.6,0.9,1.4*31
$GPRMC,112206.000,A,6416.5640,N,02105.7600,W,1.99,211.62,290812,,,A*78
$GPGGA,112207.000,6416.5639,N,02105.7602,W,1,08,0.9,132.2,M,60.5,M,,0000*40
$GPGSA,A,3,14,12,23,29,31,30,25,02,,,,,1.6,0.9,1.4*31
$GPRMC,112329.000,A,6416.5689,N,02105.7558,W,1.39,204.86,290812,,,A*7B
$GPGGA,112330.000,6416.5682,N,02105.7567,W,1,08,0.9,135.8,M,60.5,M,,0000*48
$GPGSA,A,3,14,12,23,29,31,30,25,02,,,,,1.6,0.9,1.3*36
$GPGSV,3,1,12,31,70,236,38,29,55,137,37,25,55,098,34,30,27,256,34*7A
$GPGSV,3,2,12,02,26,049,25,23,18,327,35,12,17,083,21,14,11,194,27*7E
$GPGSV,3,3,12,04,09,009,23,20,08,302,22,32,05,276,16,10,05,028,*7A
$GPRMC,112330.000,A,6416.5682,N,02105.7567,W,2.73,208.54,290812,,,A*7A
$GPGGA,112331.000,6416.5672,N,02105.7581,W,1,08,0.9,135.4,M,60.5,M,,0000*42
$GPGSA,A,3,14,12,23,29,31,30,25,02,,,,,1.6,0.9,1.3*36
$GPRMC,112331.000,A,6416.5672,N,02105.7581,W,4.10,210.16,290812,,,A*70
$GPGGA,112332.000,6416.5658,N,02105.7600,W,1,08,0.9,135.1,M,60.5,M,,0000*46
$GPGSA,A,3,14,12,23,29,31,30,25,02,,,,,1.6,0.9,1.3*36
$GPRMC,112332.000,A,6416.5658,N,02105.7600,W,5.80,211.73,290812,,,A*7B
$GPGGA,112333.000,6416.5643,N,02105.7623,W,1,08,0.9,134.8,M,60.5,M,,0000*44
$GPGSA,A,3,14,12,23,29,31,30,25,02,,,,,1.6,0.9,1.3*36
$GPRMC,112333.000,A,6416.5643,N,02105.7623,W,6.59,212.52,290812,,,A*76
$GPGGA,112334.000,6416.5627,N,02105.7646,W,1,08,0.9,134.5,M,60.5,M,,0000*4F
$GPGSA,A,3,14,12,23,29,31,30,25,02,,,,,1.6,0.9,1.3*36
$GPRMC,112334.000,A,6416.5627,N,02105.7646,W,6.81,211.64,290812,,,A*73
$GPGGA,112335.000,6416.5610,N,02105.7672,W,1,08,0.9,134.3,M,60.5,M,,0000*4B
$GPGSA,A,3,14,12,23,29,31,30,25,02,,,,,1.6,0.9,1.3*36
$GPGSV,3,1,12,31,70,236,39,29,55,137,37,25,55,098,33,30,27,256,28*71
$GPGSV,3,2,12,02,26,049,25,23,18,327,30,12,17,083,25,14,11,194,20*78
$GPGSV,3,3,12,04,09,009,24,20,08,302,28,32,05,276,15,10,05,028,*74
$GPRMC,112335.000,A,6416.5610,N,02105.7672,W,7.19,212.80,290812,,,A*78
$GPGGA,112336.000,6416.5591,N,02105.7700,W,1,08,0.9,134.1,M,60.5,M,,0000*44
$GPGSA,A,3,14,12,23,29,31,30,25,02,,,,,1.6,0.9,1.3*36
$GPRMC,112336.000,A,6416.5591,N,02105.7700,W,8.22,212.67,290812,,,A*7B
$GPGGA,112337.000,6416.5569,N,02105.7733,W,1,08,0.9,133.9,M,60.5,M,,0000*4D
$GPGSA,A,3,14,12,23,29,31,30,25,02,,,,,1.6,0.9,1.3*36
$GPRMC,112337.000,A,6416.5569,N,02105.7733,W,9.42,212.61,290812,,,A*7C
$GPGGA,112338.000,6416.5544,N,02105.7770,W,1,08,0.9,133.8,M,60.5,M,,0000*4B
$GPGSA,A,3,14,12,23,29,31,30,25,02,,,,,1.6,0.9,1.3*36
$GPRMC,112338.000,A,6416.5544,N,02105.7770,W,10.79,212.18,290812,,,A*45
$GPGGA,112339.000,6416.5517,N,02105.7811,W,1,08,0.9,133.6,M,60.5,M,,0000*4A
$GPGSA,A,3,14,12,23,29,31,30,25,02,,,,,1.6,0.9,1.3*36
$GPRMC,112339.000,A,6416.5517,N,02105.7811,W,11.62,213.09,290812,,,A*40
$GPGGA,112340.000,6416.5488,N,02105.7855,W,1,08,0.9,133.5,M,60.5,M,,0000*40
$GPGSA,A,3,14,12,23,29,31,30,25,02,,,,,1.6,0.9,1.3*36
$GPGSV,3,1,12,31,70,236,41,29,55,137,36,25,55,098,34,30,27,256,31*70
$GPGSV,3,2,12,02,26,049,20,23,18,327,34,12,17,083,30,14,11,194,26*7B
$GPGSV,3,3,12,04,09,009,32,20,08,302,32,32,05,276,14,10,05,028,*79
$GPRMC,112340.000,A,6416.5488,N,02105.7855,W,12.68,212.72,290812,,,A*4D
$GPGGA,112341.000,6416.5455,N,02105.7902,W,1,08,0.9,133.3,M,60.5,M,,0000*44
$GPGSA,A,3,14,12,23,29,31,30,25,02,,,,,1.6,0.9,1.3*36
$GPRMC,112341.000,A,6416.5455,N,02105.7902,W,13.75,212.21,290812,,,A*44
$GPGGA,112342.000,6416.5422,N,02105.7952,W,1,08,0.9,133.1,M,60.5,M,,0000*40
$GPGSA,A,3,14,12,23,29,31,30,25,02,,,,,1.6,0.9,1.3*36
$GPRMC,112342.000,A,6416.5422,N,02105.7952,W,14.43,212.45,290812,,,A*42
$GPGGA,112343.000,6416.5387,N,02105.8004,W,1,08,0.9,133.0,M,60.5,M,,0000*4D
$GPGSA,A,3,14,12,23,29,31,30,25,02,,,,,1.6,0.9,1.3*36
$GPRMC,112343.000,A,6416.5387,N,02105.8004,W,14.76,213.14,290812,,,A*4D
$GPGGA,112344.000,6416.5351,N,02105.8058,W,1,08,0.9,132.9,M,60.5,M,,0000*40
$GPGSA,A,3,14,12,23,29,31,30,25,02,,,,,1.6,0.9,1.3*36
$GPRMC,112344.000,A,6416.5351,N,02105.8058,W,15.65,212.94,290812,,,A*42
$GPGGA,112345.000,6416.5314,N,02105.8113,W,1,08,0.9,132.8,M,60.5,M,,0000*4F
$GPGSA,A,3,14,12,23,29,31,30,25,02,,,,,1.6,0.9,1.3*36
$GPGSV,3,1,12,31,70,236,41,29,55,137,36,25,55,098,34,30,27,256,32*73
$GPGSV,3,2,12,02,26,049,27,23,18,327,33,12,17,083,30,14,11,194,24*79
$GPGSV,3,3,12,04,09,009,26,20,08,302,30,32,05,276,12,10,05,028,*78
$GPRMC,112345.000,A,6416.5314,N,02105.8113,W,15.89,212.23,290812,,,A*42
$GPGGA,112346.000,6416.5276,N,02105.8169,W,1,08,0.9,132.7,M,60.5,M,,0000*4B
$GPGSA,A,3,14,12,23,29,31,30,25,02,,,,,1.6,0.9,1.3*36
$GPRMC,112346.000,A,6416.5276,N,02105.8169,W,16.12,212.85,290812,,,A*44
$GPGGA,112347.000,6416.5236,N,02105.8230,W,1,08,0.9,132.7,M,60.5,M,,0000*41
$GPGSA,A,3,14,12,23,29,31,30,25,02,,,,,1.6,0.9,1.3*36
$GPRMC,112347.000,A,6416.5236,N,02105.8230,W,17.37,212.86,290812,,,A*4B
$GPGGA,112348.000,6416.5193,N,02105.8295,W,1,08,0.9,132.6,M,60.5,M,,0000*4C
$GPGSA,A,3,14,12,23,29,31,30,25,02,,,,,1.6,0.9,1.3*36
$GPRMC,112348.000,A,6416.5193,N,02105.8295,W,18.44,213.32,290812,,,A*42
$GPGGA,112349.000,6416.5149,N,02105.8363,W,1,08,0.9,132.5,M,60.5,M,,0000*41
$GPGSA,A,3,14,12,23,29,31,30,25,02,,,,,1.6,0.9,1.3*36
$GPRMC,112349.000,A,6416.5149,N,02105.8363,W,19.13,213.61,290812,,,A*49
$GPGGA,112350.000,6416.5104,N,02105.8434,W,1,08,0.9,132.4,M,60.5,M,,0000*44
$GPGSA,A,3,14,12,23,29,31,30,25,02,,,,,1.6,0.9,1.3*36
$GPGSV,3,1,12,31,70,236,41,29,55,137,37,25,55,098,33,30,27,256,32*75
$GPGSV,3,2,12,02,26,049,26,23,18,327,33,12,17,083,30,14,11,194,24*78
$GPGSV,3,3,12,04,09,009,26,20,08,302,19,32,05,276,,10,05,028,*70
$GPRMC,112350.000,A,6416.5104,N,02105.8434,W,19.47,214.19,290812,,,A*44
$GPGGA,112351.000,6416.5058,N,02105.8503,W,1,08,0.9,132.2,M,60.5,M,,0000*4E
$GPGSA,A,3,14,12,23,29,31,30,25,02,,,,,1.6,0.9,1.3*36
$GPRMC,112351.000,A,6416.5058,N,02105.8503,W,19.81,213.19,290812,,,A*45
$GPGGA,112352.000,6416.5011,N,02105.8573,W,1,08,0.9,132.0,M,60.5,M,,0000*45
$GPGSA,A,3,14,12,23,29,31,30,25,02,,,,,1.6,0.9,1.3*36
$GPRMC,112352.000,A,6416.5011,N,02105.8573,W,20.07,212.77,290812,,,A*41
$GPGGA,112353.000,6416.4963,N,02105.8644,W,1,08,0.9,131.8,M,60.5,M,,0000*45
$GPGSA,A,3,14,12,23,29,31,30,25,02,,,,,1.6,0.9,1.3*36
$GPRMC,112353.000,A,6416.4963,N,02105.8644,W,20.32,212.76,290812,,,A*4D
$GPGGA,112354.000,6416.4915,N,02105.8716,W,1,08,0.9,131.6,M,60.5,M,,0000*4B
$GPGSA,A,3,14,12,23,29,31,30,25,02,,,,,1.6,0.9,1.3*36
$GPRMC,112354.000,A,6416.4915,N,02105.8716,W,20.64,212.61,290812,,,A*48
$GPGGA,112355.000,6416.4866,N,02105.8789,W,1,08,0.9,131.4,M,60.5,M,,0000*4B
$GPGSA,A,3,14,12,23,29,31,30,25,02,,,,,1.6,0.9,1.3*36
$GPGSV,3,1,12,31,70,236,41,29,55,137,37,25,55,098,34,30,27,256,33*73
$GPGSV,3,2,12,02,26,049,25,23,18,327,33,12,17,083,31,14,11,194,25*7B
$GPGSV,3,3,12,04,09,009,27,20,08,302,24,32,05,276,,10,05,028,*7F
$GPRMC,112355.000,A,6416.4866,N,02105.8789,W,20.79,212.88,290812,,,A*41
$GPGGA,112356.000,6416.4816,N,02105.8864,W,1,08,0.9,131.1,M,60.5,M,,0000*46
$GPGSA,A,3,14,12,23,29,31,30,25,02,,,,,1.6,0.9,1.3*36
$GPRMC,112356.000,A,6416.4816,N,02105.8864,W,21.33,213.16,290812,,,A*40
$GPGGA,112357.000,6416.4767,N,02105.8942,W,1,08,0.9,130.9,M,60.5,M,,0000*42
$GPGSA,A,3,14,12,23,29,31,30,25,02,,,,,1.6,0.9,1.3*36
$GPRMC,112357.000,A,6416.4767,N,02105.8942,W,21.44,214.17,290812,,,A*4B
$GPGGA,112358.000,6416.4717,N,02105.9022,W,1,08,0.9,130.7,M,60.5,M,,0000*4A
$GPGSA,A,3,14,12,23,29,31,30,25,02,,,,,1.6,0.9,1.3*36
$GPRMC,112358.000,A,6416.4717,N,02105.9022,W,21.80,214.55,290812,,,A*43
$GPGGA,112359.000,6416.4667,N,02105.9102,W,1,08,0.9,130.5,M,60.5,M,,0000*4C
$GPGSA,A,3,14,12,23,29,31,30,25,02,,,,,1.6,0.9,1.3*36
$GPRMC,112359.000,A,6416.4667,N,02105.9102,W,21.87,215.03,290812,,,A*42
$GPGGA,112400.000,6416.4617,N,02105.9187,W,1,08,0.9,130.2,M,60.5,M,,0000*4A
$GPGSA,A,3,14,12,23,29,31,30,25,02,,,,,1.6,0.9,1.3*36
$GPGSV,3,1,12,31,70,236,41,29,55,137,37,25,55,098,31,30,27,256,32*77
$GPGSV,3,2,12,02,26,049,26,23,18,327,33,12,17,083,29,14,11,194,24*70
$GPGSV,3,3,12,04,09,009,27,20,08,302,20,32,05,276,,10,05,028,*7B
$GPRMC,112400.000,A,6416.4617,N,02105.9187,W,22.14,216.48,290812,,,A*46
$GPGGA,112401.000,6416.4568,N,02105.9277,W,1,08,0.9,129.9,M,60.5,M,,0000*4F
$GPGSA,A,3,14,12,23,29,31,30,25,02,,,,,1.6,0.9,1.3*36
$GPRMC,112401.000,A,6416.4568,N,02105.9277,W,22.42,218.52,290812,,,A*46
$GPGGA,112402.000,6416.4520,N,02105.9370,W,1,08,0.9,129.6,M,60.5,M,,0000*49
$GPGSA,A,3,14,12,23,29,31,30,25,02,,,,,1.6,0.9,1.3*36
$GPRMC,112402.000,A,6416.4520,N,02105.9370,W,22.50,220.20,290812,,,A*42
$GPGGA,112403.000,6416.4472,N,02105.9468,W,1,08,0.9,129.3,M,60.5,M,,0000*45
$GPGSA,A,3,14,12,23,29,31,30,25,02,,,,,1.6,0.9,1.3*36
$GPRMC,112403.000,A,6416.4472,N,02105.9468,W,22.84,221.99,290812,,,A*41
$GPGGA,112404.000,6416.4425,N,02105.9570,W,1,08,0.9,129.0,M,60.5,M,,0000*4B
$GPGSA,A,3,14,12,23,29,31,30,25,02,,,,,1.6,0.9,1.3*36
$GPRMC,112404.000,A,6416.4425,N,02105.9570,W,23.24,223.59,290812,,,A*49
$GPGGA,112405.000,6416.4379,N,02105.9677,W,1,08,0.9,128.7,M,60.5,M,,0000*46
$GPGSA,A,3,14,12,23,29,31,30,25,02,,,,,1.6,0.9,1.3*36
$GPGSV,3,1,12,31,70,236,41,29,55,137,36,25,55,098,20,30,27,256,25*70
$GPGSV,3,2,12,02,26,049,23,23,18,327,34,12,17,083,34,14,11,194,29*73
$GPGSV,3,3,12,04,09,009,24,20,08,302,26,32,05,276,,10,05,028,*7E
$GPRMC,112405.000,A,6416.4379,N,02105.9677,W,23.43,225.53,290812,,,A*4F
$GPGGA,112406.000,6416.4336,N,02105.9790,W,1,08,0.9,128.3,M,60.5,M,,0000*42
$GPGSA,A,3,14,12,23,29,31,30,25,02,,,,,1.6,0.9,1.3*36
$GPRMC,112406.000,A,6416.4336,N,02105.9790,W,23.50,228.44,290812,,,A*46
$GPGGA,112407.000,6416.4294,N,02105.9908,W,1,08,0.9,128.0,M,60.5,M,,0000*46
$GPGSA,A,3,14,12,23,29,31,30,25,02,,,,,1.6,0.9,1.3*36
$GPRMC,112407.000,A,6416.4294,N,02105.9908,W,23.78,231.07,290812,,,A*44
$GPGGA,112408.000,6416.4253,N,02106.0030,W,1,07,1.0,127.7,M,60.5,M,,0000*45
$GPGSA,A,3,14,12,23,29,31,30,25,,,,,,1.7,1.0,1.4*3A
$GPRMC,112408.000,A,6416.4253,N,02106.0030,W,23.87,232.66,290812,,,A*4C
$GPGGA,112409.000,6416.4213,N,02106.0152,W,1,08,0.9,127.4,M,60.5,M,,0000*41
$GPGSA,A,3,14,12,23,29,31,30,25,02,,,,,1.6,0.9,1.3*36
$GPRMC,112409.000,A,6416.4213,N,02106.0152,W,23.88,233.20,290812,,,A*40
$GPGGA,112410.000,6416.4171,N,02106.0275,W,1,08,0.9,127.1,M,60.5,M,,0000*4D
$GPGSA,A,3,14,12,23,29,31,30,25,02,,,,,1.6,0.9,1.3*36
$GPGSV,3,1,12,31,70,236,40,29,55,137,36,25,55,098,21,30,27,256,29*7C
$GPGSV,3,2,12,02,26,049,14,23,18,327,25,12,17,083,34,14,11,194,21*7F
$GPGSV,3,3,12,04,09,009,28,20,08,302,19,32,05,276,,10,05,028,*7E
$GPRMC,112410.000,A,6416.4171,N,02106.0275,W,24.21,232.68,290812,,,A*40
$GPGGA,112411.000,6416.4129,N,02106.0399,W,1,08,0.9,126.8,M,60.5,M,,0000*4A
$GPGSA,A,3,14,12,23,29,31,30,25,02,,,,,1.6,0.9,1.3*36
$GPRMC,112411.000,A,6416.4129,N,02106.0399,W,24.47,232.26,290812,,,A*45
$GPGGA,112412.000,6416.4084,N,02106.0525,W,1,08,0.9,126.5,M,60.5,M,,0000*43
$GPGSA,A,3,14,12,23,29,31,30,25,02,,,,,1.6,0.9,1.3*36
$GPRMC,112412.000,A,6416.4084,N,02106.0525,W,25.12,231.09,290812,,,A*4E
$GPGGA,112413.000,6416.4037,N,02106.0650,W,1,08,0.9,126.2,M,60.5,M,,0000*4C
$GPGSA,A,3,14,12,23,29,31,30,25,02,,,,,1.6,0.9,1.3*36
$GPRMC,112413.000,A,6416.4037,N,02106.0650,W,25.85,229.16,290812,,,A*4F
$GPGGA,112414.000,6416.3987,N,02106.0774,W,1,08,0.9,125.9,M,60.5,M,,0000*41
$GPGSA,A,3,14,12,23,29,31,30,25,02,,,,,1.6,0.9,1.3*36
$GPRMC,112414.000,A,6416.3987,N,02106.0774,W,26.31,227.26,290812,,,A*4B
$GPGGA,112415.000,6416.3935,N,02106.0895,W,1,08,0.9,125.7,M,60.5,M,,0000*47
$GPGSA,A,3,14,12,23,29,31,30,25,02,,,,,1.6,0.9,1.3*36
$GPGSV,3,1,12,31,70,232,41,29,56,135,27,25,53,097,29,30,28,256,29*76
$GPGSV,3,2,12,02,25,048,27,23,19,326,30,12,16,083,34,14,09,193,22*75
$GPGSV,3,3,12,04,08,008,24,20,07,301,16,10,05,028,,32,04,275,*73
$GPRMC,112415.000,A,6416.3935,N,02106.0895,W,26.34,225.47,290812,,,A*43
$GPGGA,112416.000,6416.3880,N,02106.1011,W,1,07,0.9,125.4,M,60.5,M,,0000*42
$GPGSA,A,3,14,12,23,31,30,25,02,,,,,,1.7,0.9,1.5*3A
$GPRMC,112416.000,A,6416.3880,N,02106.1011,W,26.59,222.58,290812,,,A*48
$GPGGA,112417.000,6416.3825,N,02106.1122,W,1,07,0.9,125.2,M,60.5,M,,0000*4B
$GPGSA,A,3,14,12,23,31,30,25,02,,,,,,1.7,0.9,1.5*3A
$GPRMC,112417.000,A,6416.3825,N,02106.1122,W,26.28,220.85,290812,,,A*43
$GPGGA,112418.000,6416.3768,N,02106.1227,W,1,08,0.9,125.0,M,60.5,M,,0000*49
$GPGSA,A,3,14,12,23,29,31,30,25,02,,,,,1.6,0.9,1.3*36
$GPRMC,112418.000,A,6416.3768,N,02106.1227,W,25.97,219.04,290812,,,A*48
$GPGGA,112419.000,6416.3712,N,02106.1328,W,1,07,0.9,124.8,M,60.5,M,,0000*4D
$GPGSA,A,3,14,12,23,29,31,30,02,,,,,,1.7,0.9,1.4*37
$GPRMC,112419.000,A,6416.3712,N,02106.1328,W,25.59,217.59,290812,,,A*4E
$GPGGA,112420.000,6416.3654,N,02106.1423,W,1,08,0.9,124.7,M,60.5,M,,0000*48
$GPGSA,A,3,14,12,23,29,31,30,25,02,,,,,1.6,0.9,1.3*36
$GPGSV,3,1,12,31,70,232,41,29,56,135,29,25,53,097,32,30,28,256,30*7A
$GPGSV,3,2,12,02,25,048,17,23,19,326,30,12,16,083,23,14,09,193,26*74
$GPGSV,3,3,12,04,08,008,30,20,07,301,,10,05,028,,32,04,275,*71
$GPRMC,112420.000,A,6416.3654,N,02106.1423,W,25.19,215.75,290812,,,A*43
$GPGGA,112421.000,6416.3596,N,02106.1513,W,1,07,0.9,124.6,M,60.5,M,,0000*48
$GPGSA,A,3,14,12,23,29,31,30,02,,,,,,1.7,0.9,1.4*37
$GPRMC,112421.000,A,6416.3596,N,02106.1513,W,25.10,213.85,290812,,,A*4D
$GPGGA,112422.000,6416.3537,N,02106.1599,W,1,08,0.9,124.5,M,60.5,M,,0000*4E
$GPGSA,A,3,14,12,23,29,31,30,25,02,,,,,1.6,0.9,1.3*36
$GPRMC,112422.000,A,6416.3537,N,02106.1599,W,25.18,211.64,290812,,,A*42
$GPGGA,112423.000,6416.3476,N,02106.1678,W,1,08,0.9,124.4,M,60.5,M,,0000*46
$GPGSA,A,3,14,12,23,29,31,30,25,02,,,,,1.6,0.9,1.3*36
$GPRMC,112423.000,A,6416.3476,N,02106.1678,W,25.13,209.24,290812,,,A*4D
$GPGGA,112424.000,6416.3413,N,02106.1752,W,1,08,0.9,124.3,M,60.5,M,,0000*4C
$GPGSA,A,3,14,12,23,29,31,30,25,02,,,,,1.6,0.9,1.3*36
$GPRMC,112424.000,A,6416.3413,N,02106.1752,W,25.10,207.01,290812,,,A*4A
$GPGGA,112425.000,6416.3350,N,02106.1821,W,1,07,1.4,124.2,M,60.5,M,,0000*44
$GPGSA,A,3,12,23,29,31,30,25,02,,,,,,2.5,1.4,2.1*3E
$GPGSV,3,1,12,31,70,232,42,29,56,135,29,25,53,097,29,30,28,256,30*73
$GPGSV,3,2,12,02,25,048,26,23,19,326,31,12,16,083,32,14,09,193,13*71
$GPGSV,3,3,12,04,08,008,24,20,07,301,,10,05,028,,32,04,275,*74
$GPRMC,112425.000,A,6416.3350,N,02106.1821,W,24.91,205.18,290812,,,A*42
$GPGGA,112426.000,6416.3287,N,02106.1886,W,1,07,1.4,124.1,M,60.5,M,,0000*42
$GPGSA,A,3,12,23,29,31,30,25,02,,,,,,2.5,1.4,2.1*3E
$GPRMC,112426.000,A,6416.3287,N,02106.1886,W,24.82,204.13,290812,,,A*4F
$GPGGA,112427.000,6416.3224,N,02106.1950,W,1,07,1.4,124.1,M,60.5,M,,0000*40
$GPGSA,A,3,12,23,29,31,30,25,02,,,,,,2.5,1.4,2.1*3E
$GPRMC,112427.000,A,6416.3224,N,02106.1950,W,24.85,203.24,290812,,,A*49
$GPGGA,112428.000,6416.3159,N,02106.2013,W,1,07,1.4,124.0,M,60.5,M,,0000*4A
$GPGSA,A,3,12,23,29,31,30,25,02,,,,,,2.5,1.4,2.1*3E
$GPRMC,112428.000,A,6416.3159,N,02106.2013,W,25.17,202.68,290812,,,A*41
$GPGGA,112429.000,6416.3094,N,02106.2078,W,1,07,1.4,123.9,M,60.5,M,,0000*48
$GPGSA,A,3,12,23,29,31,30,25,02,,,,,,2.5,1.4,2.1*3E
$GPRMC,112429.000,A,6416.3094,N,02106.2078,W,25.29,203.22,290812,,,A*4F
$GPGGA,112430.000,6416.3028,N,02106.2143,W,1,07,1.4,123.8,M,60.5,M,,0000*4F
$GPGSA,A,3,12,23,29,31,30,25,02,,,,,,2.5,1.4,2.1*3E
$GPGSV,3,1,12,31,70,232,43,29,56,135,35,25,53,097,31,30,28,256,30*76
$GPGSV,3,2,12,02,25,048,36,23,19,326,24,12,16,083,29,14,09,193,*7C
$GPGSV,3,3,12,04,08,008,24,20,07,301,,10,05,028,,32,04,275,*74
$GPRMC,112430.000,A,6416.3028,N,02106.2143,W,25.71,203.03,290812,,,A*47
$GPGGA,112431.000,6416.2961,N,02106.2208,W,1,07,1.4,123.6,M,60.5,M,,0000*49
$GPGSA,A,3,12,23,29,31,30,25,02,,,,,,2.5,1.4,2.1*3E
$GPRMC,112431.000,A,6416.2961,N,02106.2208,W,26.04,203.00,290812,,,A*4D
$GPGGA,112432.000,6416.2893,N,02106.2275,W,1,07,1.4,123.5,M,60.5,M,,0000*4F
$GPGSA,A,3,12,23,29,31,30,25,02,,,,,,2.5,1.4,2.1*3E
$GPRMC,112432.000,A,6416.2893,N,02106.2275,W,26.50,202.97,290812,,,A*46
$GPGGA,112433.000,6416.2823,N,02106.2341,W,1,07,1.4,123.3,M,60.5,M,,0000*45
$GPGSA,A,3,12,23,29,31,30,25,02,,,,,,2.5,1.4,2.1*3E
$GPRMC,112433.000,A,6416.2823,N,02106.2341,W,26.94,202.66,290812,,,A*4C
$GPGGA,112434.000,6416.2753,N,02106.2409,W,1,08,0.9,123.2,M,60.5,M,,0000*43
$GPGSA,A,3,14,12,23,29,31,30,25,02,,,,,1.6,0.9,1.3*36
$GPRMC,112434.000,A,6416.2753,N,02106.2409,W,27.16,202.82,290812,,,A*49
$GPGGA,112435.000,6416.2683,N,02106.2477,W,1,08,0.9,123.2,M,60.5,M,,0000*47
$GPGSA,A,3,14,12,23,29,31,30,25,02,,,,,1.6,0.9,1.3*36
$GPGSV,3,1,12,31,70,232,42,29,56,135,37,25,53,097,32,30,28,256,30*76
$GPGSV,3,2,12,02,25,048,35,23,19,326,26,12,16,083,28,14,09,193,19*74
$GPGSV,3,3,12,04,08,008,24,20,07,301,,10,05,028,,32,04,275,*74
$GPRMC,112435.000,A,6416.2683,N,02106.2477,W,27.30,202.96,290812,,,A*4C
$GPGGA,112436.000,6416.2612,N,02106.2545,W,1,08,0.9,123.1,M,60.5,M,,0000*4F
$GPGSA,A,3,14,12,23,29,31,30,25,02,,,,,1.6,0.9,1.3*36
$GPRMC,112436.000,A,6416.2612,N,02106.2545,W,27.52,202.95,290812,,,A*40
$GPGGA,112437.000,6416.2541,N,02106.2614,W,1,08,0.9,122.9,M,60.5,M,,0000*45
$GPGSA,A,3,14,12,23,29,31,30,25,02,,,,,1.6,0.9,1.3*36
$GPRMC,112437.000,A,6416.2541,N,02106.2614,W,27.65,202.94,290812,,,A*46
$GPGGA,112438.000,6416.2470,N,02106.2683,W,1,08,0.9,122.7,M,60.5,M,,0000*49
$GPGSA,A,3,14,12,23,29,31,30,25,02,,,,,1.6,0.9,1.3*36
$GPRMC,112438.000,A,6416.2470,N,02106.2683,W,27.72,202.89,290812,,,A*4E
$GPGGA,112439.000,6416.2399,N,02106.2752,W,1,08,0.9,122.4,M,60.5,M,,0000*46
