$GPGGA,065640.000,6406.7465,N,01605.3921,W,1,04,3.1,25.4,M,59.4,M,,0000*7D
$GPGSA,A,3,15,09,22,18,,,,,,,,,5.1,3.1,4.1*35
$GPGSV,3,1,12,09,79,159,37,22,37,282,33,15,34,150,40,18,31,232,31*73
$GPGSV,3,2,12,27,69,113,25,17,28,071,32,12,27,190,28,14,23,296,22*73
$GPGSV,3,3,12,28,16,044,,01,13,009,,11,10,352,23,26,01,130,24*78
$GPRMC,065640.000,A,6406.7465,N,01605.3921,W,35.17,31.95,020912,,,A*74
$GPGGA,065641.000,6406.7548,N,01605.3802,W,1,04,3.1,25.3,M,59.4,M,,0000*75
$GPGSA,A,3,15,09,22,18,,,,,,,,,5.1,3.1,4.1*35
$GPRMC,065641.000,A,6406.7548,N,01605.3802,W,35.17,32.27,020912,,,A*71
$GPGGA,065642.000,6406.7630,N,01605.3682,W,1,04,3.1,25.2,M,59.4,M,,0000*7D
$GPGSA,A,3,15,09,22,18,,,,,,,,,5.1,3.1,4.1*35
$GPRMC,065642.000,A,6406.7630,N,01605.3682,W,35.20,32.76,020912,,,A*78
$GPGGA,065643.000,6406.7711,N,01605.3560,W,1,04,3.1,25.1,M,59.4,M,,0000*72
$GPGSA,A,3,15,09,22,18,,,,,,,,,5.1,3.1,4.1*35
$GPRMC,065643.000,A,6406.7711,N,01605.3560,W,35.19,33.17,020912,,,A*78
$GPGGA,065644.000,6406.7792,N,01605.3437,W,1,04,3.1,25.0,M,59.4,M,,0000*7C
$GPGSA,A,3,15,09,22,18,,,,,,,,,5.1,3.1,4.1*35
$GPRMC,065644.000,A,6406.7792,N,01605.3437,W,35.21,33.62,020912,,,A*7E
$GPGGA,065645.000,6406.7873,N,01605.3313,W,1,04,3.1,24.9,M,59.4,M,,0000*74
$GPGSA,A,3,15,09,22,18,,,,,,,,,5.1,3.1,4.1*35
$GPGSV,3,1,12,09,79,159,37,27,69,113,29,22,37,282,36,15,34,150,40*7E
$GPGSV,3,2,12,18,31,232,31,17,28,071,31,12,27,190,21,14,23,296,23*7C
$GPGSV,3,3,12,28,16,044,26,01,13,008,18,11,10,352,16,26,01,130,25*73
$GPRMC,065645.000,A,6406.7873,N,01605.3313,W,35.20,33.91,020912,,,A*73
$GPGGA,065646.000,6406.7954,N,01605.3188,W,1,04,3.1,24.8,M,59.4,M,,0000*72
$GPGSA,A,3,15,09,22,18,,,,,,,,,5.1,3.1,4.1*35
$GPRMC,065646.000,A,6406.7954,N,01605.3188,W,35.18,34.16,020912,,,A*77
$GPGGA,065647.000,6406.8034,N,01605.3062,W,1,04,3.1,24.7,M,59.4,M,,0000*79
$GPGSA,A,3,15,09,22,18,,,,,,,,,5.1,3.1,4.1*35
$GPRMC,065647.000,A,6406.8034,N,01605.3062,W,35.15,34.52,020912,,,A*7E
$GPGGA,065648.000,6406.8113,N,01605.2937,W,1,04,3.1,24.7,M,59.4,M,,0000*7A
$GPGSA,A,3,15,09,22,18,,,,,,,,,5.1,3.1,4.1*35
$GPRMC,065648.000,A,6406.8113,N,01605.2937,W,35.01,34.85,020912,,,A*72
$GPGGA,065649.000,6406.8188,N,01605.2817,W,1,04,3.1,24.9,M,59.4,M,,0000*74
$GPGSA,A,3,15,09,22,18,,,,,,,,,5.1,3.1,4.1*35
$GPRMC,065649.000,A,6406.8188,N,01605.2817,W,33.57,34.98,020912,,,A*7B
$GPGGA,065650.000,6406.8265,N,01605.2693,W,1,04,3.1,25.1,M,59.4,M,,0000*77
$GPGSA,A,3,15,09,22,18,,,,,,,,,5.1,3.1,4.1*35
$GPGSV,3,1,12,09,79,158,37,27,69,113,,22,37,282,37,15,34,150,40*75
$GPGSV,3,2,12,18,31,232,24,17,28,071,22,12,27,190,27,14,23,296,32*7C
$GPGSV,3,3,12,28,16,044,,01,13,008,18,11,10,352,21,26,01,130,33*74
$GPRMC,065650.000,A,6406.8265,N,01605.2693,W,34.45,35.49,020912,,,A*78
$GPGGA,065651.000,6406.8342,N,01605.2566,W,1,04,3.1,25.2,M,59.4,M,,0000*78
$GPGSA,A,3,15,09,22,18,,,,,,,,,5.1,3.1,4.1*35
$GPRMC,065651.000,A,6406.8342,N,01605.2566,W,34.74,35.50,020912,,,A*7E
$GPGGA,065652.000,6406.8420,N,01605.2441,W,1,04,3.1,25.4,M,59.4,M,,0000*7A
$GPGSA,A,3,15,09,22,18,,,,,,,,,5.1,3.1,4.1*35
$GPRMC,065652.000,A,6406.8420,N,01605.2441,W,34.62,35.28,020912,,,A*72
$GPGGA,065653.000,6406.8497,N,01605.2314,W,1,04,3.1,25.5,M,59.4,M,,0000*71
$GPGSA,A,3,15,09,22,18,,,,,,,,,5.1,3.1,4.1*35
$GPRMC,065653.000,A,6406.8497,N,01605.2314,W,34.62,35.77,020912,,,A*72
$GPGGA,065654.000,6406.8575,N,01605.2184,W,1,04,3.1,25.6,M,59.4,M,,0000*73
$GPGSA,A,3,15,09,22,18,,,,,,,,,5.1,3.1,4.1*35
$GPRMC,065654.000,A,6406.8575,N,01605.2184,W,34.98,36.01,020912,,,A*74
$GPGGA,065655.000,6406.8654,N,01605.2053,W,1,04,3.1,25.7,M,59.4,M,,0000*78
$GPGSA,A,3,15,09,22,18,,,,,,,,,5.1,3.1,4.1*35
$GPGSV,3,1,12,09,79,158,37,27,69,113,31,22,37,282,37,15,34,150,41*76
$GPGSV,3,2,12,18,31,232,24,17,28,071,23,12,27,190,29,14,23,296,33*72
$GPGSV,3,3,12,28,16,044,,01,13,008,19,11,10,352,24,26,01,130,32*71
$GPRMC,065655.000,A,6406.8654,N,01605.2053,W,35.33,36.17,020912,,,A*79
$GPGGA,065656.000,6406.8732,N,01605.1925,W,1,04,3.1,25.8,M,59.4,M,,0000*7E
$GPGSA,A,3,15,09,22,18,,,,,,,,,5.1,3.1,4.1*35
$GPRMC,065656.000,A,6406.8732,N,01605.1925,W,34.94,35.68,020912,,,A*77
$GPGGA,065657.000,6406.8809,N,01605.1799,W,1,04,3.1,26.0,M,59.4,M,,0000*7A
$GPGSA,A,3,15,09,22,18,,,,,,,,,5.1,3.1,4.1*35
$GPRMC,065657.000,A,6406.8809,N,01605.1799,W,34.79,35.57,020912,,,A*77
$GPGGA,065658.000,6406.8889,N,01605.1666,W,1,04,3.1,26.1,M,59.4,M,,0000*7D
$GPGSA,A,3,15,09,22,18,,,,,,,,,5.1,3.1,4.1*35
$GPRMC,065658.000,A,6406.8889,N,01605.1666,W,35.75,36.04,020912,,,A*79
$GPGGA,065659.000,6406.8968,N,01605.1534,W,1,04,3.1,26.1,M,59.4,M,,0000*76
$GPGSA,A,3,15,09,22,18,,,,,,,,,5.1,3.1,4.1*35
$GPRMC,065659.000,A,6406.8968,N,01605.1534,W,35.52,36.16,020912,,,A*74
$GPGGA,065700.000,6406.9046,N,01605.1402,W,1,04,3.1,26.1,M,59.4,M,,0000*7B
$GPGSA,A,3,15,09,22,18,,,,,,,,,5.1,3.1,4.1*35
$GPGSV,3,1,12,09,79,158,37,27,69,113,31,22,37,282,37,15,34,150,42*75
$GPGSV,3,2,12,18,31,232,24,17,28,071,23,12,27,190,29,14,23,296,34*75
$GPGSV,3,3,12,28,16,044,,01,13,008,19,11,10,352,17,26,01,130,25*77
$GPRMC,065700.000,A,6406.9046,N,01605.1402,W,35.23,36.38,020912,,,A*73
$GPGGA,065701.000,6406.9126,N,01605.1270,W,1,04,3.1,26.1,M,59.4,M,,0000*7E
$GPGSA,A,3,15,09,22,18,,,,,,,,,5.1,3.1,4.1*35
$GPRMC,065701.000,A,6406.9126,N,01605.1270,W,35.31,35.93,020912,,,A*77
$GPGGA,065702.000,6406.9207,N,01605.1139,W,1,04,3.1,25.9,M,59.4,M,,0000*78
$GPGSA,A,3,15,09,22,18,,,,,,,,,5.1,3.1,4.1*35
$GPRMC,065702.000,A,6406.9207,N,01605.1139,W,35.57,35.26,020912,,,A*74
$GPGGA,065703.000,6406.9289,N,01605.1002,W,1,04,3.1,25.5,M,59.4,M,,0000*7A
$GPGSA,A,3,15,09,22,18,,,,,,,,,5.1,3.1,4.1*35
$GPRMC,065703.000,A,6406.9289,N,01605.1002,W,36.35,35.87,020912,,,A*76
$GPGGA,065704.000,6406.9372,N,01605.0863,W,1,04,3.1,25.0,M,59.4,M,,0000*73
$GPGSA,A,3,15,09,22,18,,,,,,,,,5.1,3.1,4.1*35
$GPRMC,065704.000,A,6406.9372,N,01605.0863,W,36.26,36.30,020912,,,A*77
$GPGGA,065705.000,6406.9454,N,01605.0724,W,1,04,3.1,24.5,M,59.4,M,,0000*79
$GPGSA,A,3,15,09,22,18,,,,,,,,,5.1,3.1,4.1*35
$GPGSV,3,1,12,09,79,158,37,27,69,113,31,22,37,282,37,15,34,150,42*75
$GPGSV,3,2,12,18,31,232,24,17,28,071,23,12,27,190,30,14,23,296,34*7D
$GPGSV,3,3,12,28,16,044,25,01,13,008,26,11,10,352,15,26,01,130,25*7E
$GPRMC,065705.000,A,6406.9454,N,01605.0724,W,36.07,36.75,020912,,,A*7B
$GPGGA,065706.000,6406.9536,N,01605.0585,W,1,04,3.1,23.9,M,59.4,M,,0000*7D
$GPGSA,A,3,15,09,22,18,,,,,,,,,5.1,3.1,4.1*35
$GPRMC,065706.000,A,6406.9536,N,01605.0585,W,36.14,36.48,020912,,,A*78
$GPGGA,065707.000,6406.9619,N,01605.0446,W,1,04,3.1,23.2,M,59.4,M,,0000*77
$GPGSA,A,3,15,09,22,18,,,,,,,,,5.1,3.1,4.1*35
$GPRMC,065707.000,A,6406.9619,N,01605.0446,W,36.11,36.23,020912,,,A*71
$GPGGA,065708.000,6406.9700,N,01605.0311,W,1,04,3.1,22.7,M,59.4,M,,0000*70
$GPGSA,A,3,15,09,22,18,,,,,,,,,5.1,3.1,4.1*35
$GPRMC,065708.000,A,6406.9700,N,01605.0311,W,35.53,35.97,020912,,,A*7B
$GPGGA,065709.000,6406.9781,N,01605.0176,W,1,04,3.1,22.3,M,59.4,M,,0000*7F
$GPGSA,A,3,15,09,22,18,,,,,,,,,5.1,3.1,4.1*35
$GPRMC,065709.000,A,6406.9781,N,01605.0176,W,35.53,35.93,020912,,,A*74
$GPGGA,065710.000,6406.9862,N,01605.0041,W,1,04,3.1,21.8,M,59.4,M,,0000*78
$GPGSA,A,3,15,09,22,18,,,,,,,,,5.1,3.1,4.1*35
$GPGSV,3,1,12,09,79,158,37,27,69,113,31,22,37,282,37,15,34,150,43*74
$GPGSV,3,2,12,18,31,232,24,17,28,071,23,12,27,190,30,14,23,296,34*7D
$GPGSV,3,3,12,28,16,044,23,01,13,008,24,11,10,352,14,26,01,130,25*7B
$GPRMC,065710.000,A,6406.9862,N,01605.0041,W,35.68,36.07,020912,,,A*7D
$GPGGA,065711.000,6406.9943,N,01604.9905,W,1,04,3.1,21.4,M,59.4,M,,0000*76
$GPGSA,A,3,15,09,22,18,,,,,,,,,5.1,3.1,4.1*35
$GPRMC,065711.000,A,6406.9943,N,01604.9905,W,35.51,36.58,020912,,,A*7F
$GPGGA,065712.000,6407.0022,N,01604.9769,W,1,04,3.1,21.1,M,59.4,M,,0000*72
$GPGSA,A,3,15,09,22,18,,,,,,,,,5.1,3.1,4.1*35
$GPRMC,065712.000,A,6407.0022,N,01604.9769,W,35.40,36.69,020912,,,A*7C
$GPGGA,065713.000,6407.0102,N,01604.9636,W,1,04,3.1,20.8,M,59.4,M,,0000*73
$GPGSA,A,3,15,09,22,18,,,,,,,,,5.1,3.1,4.1*35
$GPRMC,065713.000,A,6407.0102,N,01604.9636,W,35.37,36.19,020912,,,A*72
$GPGGA,065714.000,6407.0181,N,01604.9502,W,1,04,3.1,20.6,M,59.4,M,,0000*75
$GPGSA,A,3,15,09,22,18,,,,,,,,,5.1,3.1,4.1*35
$GPRMC,065714.000,A,6407.0181,N,01604.9502,W,35.42,36.27,020912,,,A*75
$GPGGA,065715.000,6407.0260,N,01604.9369,W,1,04,3.1,20.4,M,59.4,M,,0000*71
$GPGSA,A,3,15,09,22,18,,,,,,,,,5.1,3.1,4.1*35
$GPGSV,3,1,12,09,79,157,36,27,69,112,31,22,37,282,37,15,34,150,43*7B
$GPGSV,3,2,12,18,31,232,26,17,28,071,25,12,27,190,30,14,23,296,34*79
$GPGSV,3,3,12,28,16,044,24,01,13,008,24,11,10,351,,26,01,130,*7D
$GPRMC,065715.000,A,6407.0260,N,01604.9369,W,35.31,36.26,020912,,,A*76
$GPGGA,065716.000,6407.0339,N,01604.9237,W,1,04,3.1,20.3,M,59.4,M,,0000*72
$GPGSA,A,3,15,09,22,18,,,,,,,,,5.1,3.1,4.1*35
$GPRMC,065716.000,A,6407.0339,N,01604.9237,W,35.28,36.27,020912,,,A*7B
$GPGGA,065717.000,6407.0418,N,01604.9103,W,1,04,3.1,20.2,M,59.4,M,,0000*72
$GPGSA,A,3,15,09,22,18,,,,,,,,,5.1,3.1,4.1*35
$GPRMC,065717.000,A,6407.0418,N,01604.9103,W,35.26,36.45,020912,,,A*70
$GPGGA,065718.000,6407.0497,N,01604.8971,W,1,04,3.1,20.2,M,59.4,M,,0000*76
$GPGSA,A,3,15,09,22,18,,,,,,,,,5.1,3.1,4.1*35
$GPRMC,065718.000,A,6407.0497,N,01604.8971,W,35.36,36.22,020912,,,A*74
$GPGGA,065719.000,6407.0576,N,01604.8841,W,1,04,3.1,20.1,M,59.4,M,,0000*78
$GPGSA,A,3,15,09,22,18,,,,,,,,,5.1,3.1,4.1*35
$GPRMC,065719.000,A,6407.0576,N,01604.8841,W,34.90,35.78,020912,,,A*78
$GPGGA,065720.000,6407.0652,N,01604.8714,W,1,04,3.1,20.1,M,59.4,M,,0000*78
$GPGSA,A,3,15,09,22,18,,,,,,,,,5.1,3.1,4.1*35
$GPGSV,3,1,12,09,79,157,37,27,69,112,30,22,37,282,38,15,34,150,43*74
$GPGSV,3,2,12,18,31,232,27,17,28,071,25,12,27,190,30,14,24,296,30*7B
$GPGSV,3,3,12,28,16,044,25,01,13,008,24,11,10,351,,26,01,130,30*7F
$GPRMC,065720.000,A,6407.0652,N,01604.8714,W,34.05,35.85,020912,,,A*76
$GPGGA,065721.000,6407.0726,N,01604.8592,W,1,04,3.1,20.0,M,59.4,M,,0000*76
$GPGSA,A,3,15,09,22,18,,,,,,,,,5.1,3.1,4.1*35
$GPRMC,065721.000,A,6407.0726,N,01604.8592,W,33.10,35.67,020912,,,A*76
$GPGGA,065722.000,6407.0798,N,01604.8474,W,1,05,2.9,20.0,M,59.4,M,,0000*71
$GPGSA,A,3,15,09,27,22,18,,,,,,,,5.0,2.9,4.1*38
$GPRMC,065722.000,A,6407.0798,N,01604.8474,W,31.81,35.81,020912,,,A*7B
$GPGGA,065723.000,6407.0866,N,01604.8361,W,1,05,2.9,20.0,M,59.3,M,,0000*7A
$GPGSA,A,3,15,09,27,22,18,,,,,,,,5.0,2.9,4.1*38
$GPRMC,065723.000,A,6407.0866,N,01604.8361,W,30.66,35.75,020912,,,A*74
$GPGGA,065724.000,6407.0932,N,01604.8251,W,1,05,2.9,20.0,M,59.3,M,,0000*7F
$GPGSA,A,3,15,09,27,22,18,,,,,,,,5.0,2.9,4.1*38
$GPRMC,065724.000,A,6407.0932,N,01604.8251,W,29.64,36.01,020912,,,A*7B
$GPGGA,065725.000,6407.0995,N,01604.8145,W,1,05,2.9,20.0,M,59.3,M,,0000*75
$GPGSA,A,3,15,09,27,22,18,,,,,,,,5.0,2.9,4.1*38
$GPGSV,3,1,12,09,79,157,36,27,69,112,32,22,37,282,38,15,34,150,43*77
$GPGSV,3,2,12,18,31,232,28,17,28,071,32,12,27,190,34,14,24,296,31*77
$GPGSV,3,3,12,28,16,044,35,01,13,008,27,11,10,351,,26,01,130,31*7C
$GPRMC,065725.000,A,6407.0995,N,01604.8145,W,28.51,36.43,020912,,,A*70
$GPGGA,065726.000,6407.1056,N,01604.8041,W,1,05,2.9,20.0,M,59.3,M,,0000*74
$GPGSA,A,3,15,09,27,22,18,,,,,,,,5.0,2.9,4.1*38
$GPRMC,065726.000,A,6407.1056,N,01604.8041,W,27.47,36.67,020912,,,A*7F
$GPGGA,065727.000,6407.1115,N,01604.7940,W,1,05,2.9,20.1,M,59.3,M,,0000*75
$GPGSA,A,3,15,09,27,22,18,,,,,,,,5.0,2.9,4.1*38
$GPRMC,065727.000,A,6407.1115,N,01604.7940,W,26.97,36.87,020912,,,A*7D
$GPGGA,065728.000,6407.1174,N,01604.7837,W,1,05,2.9,20.1,M,59.3,M,,0000*7C
$GPGSA,A,3,15,09,27,22,18,,,,,,,,5.0,2.9,4.1*38
$GPRMC,065728.000,A,6407.1174,N,01604.7837,W,27.05,37.29,020912,,,A*7B
$GPGGA,065729.000,6407.1234,N,01604.7732,W,1,04,3.1,20.2,M,59.3,M,,0000*7B
$GPGSA,A,3,15,09,22,18,,,,,,,,,5.1,3.1,4.1*35
$GPRMC,065729.000,A,6407.1234,N,01604.7732,W,27.54,37.46,020912,,,A*7A
$GPGGA,065730.000,6407.1295,N,01604.7624,W,1,04,3.1,20.2,M,59.3,M,,0000*7E
$GPGSA,A,3,15,09,22,18,,,,,,,,,5.1,3.1,4.1*35
$GPGSV,3,1,12,09,79,157,36,27,69,112,,22,37,282,38,15,34,150,43*76
$GPGSV,3,2,12,18,31,232,28,17,28,071,29,12,27,190,33,14,24,296,33*78
$GPGSV,3,3,12,28,16,044,29,01,13,008,26,11,10,351,,26,01,130,27*77
$GPRMC,065730.000,A,6407.1295,N,01604.7624,W,28.26,37.57,020912,,,A*75
$GPGGA,065731.000,6407.1358,N,01604.7513,W,1,04,3.1,20.3,M,59.3,M,,0000*79
$GPGSA,A,3,15,09,22,18,,,,,,,,,5.1,3.1,4.1*35
$GPRMC,065731.000,A,6407.1358,N,01604.7513,W,29.06,37.34,020912,,,A*75
$GPGGA,065732.000,6407.1424,N,01604.7400,W,1,04,3.1,20.4,M,59.3,M,,0000*72
$GPGSA,A,3,15,09,22,18,,,,,,,,,5.1,3.1,4.1*35
$GPRMC,065732.000,A,6407.1424,N,01604.7400,W,29.82,37.21,020912,,,A*71
$GPGGA,065733.000,6407.1491,N,01604.7284,W,1,04,3.1,20.5,M,59.3,M,,0000*76
$GPGSA,A,3,15,09,22,18,,,,,,,,,5.1,3.1,4.1*35
$GPRMC,065733.000,A,6407.1491,N,01604.7284,W,30.73,36.98,020912,,,A*71
$GPGGA,065734.000,6407.1560,N,01604.7165,W,1,04,3.1,20.5,M,59.3,M,,0000*72
$GPGSA,A,3,15,09,22,18,,,,,,,,,5.1,3.1,4.1*35
$GPRMC,065734.000,A,6407.1560,N,01604.7165,W,31.57,36.92,020912,,,A*78
$GPGGA,065735.000,6407.1632,N,01604.7043,W,1,04,3.1,20.6,M,59.3,M,,0000*71
$GPGSA,A,3,15,09,22,18,,,,,,,,,5.2,3.1,4.1*36
$GPGSV,3,1,12,09,79,157,36,27,69,112,,22,37,282,38,15,34,150,43*76
$GPGSV,3,2,12,18,31,232,28,17,28,071,30,12,27,190,32,14,24,296,34*76
$GPGSV,3,3,12,28,16,044,27,01,13,008,25,11,10,351,,26,01,130,*7F
$GPRMC,065735.000,A,6407.1632,N,01604.7043,W,32.30,36.67,020912,,,A*70
$GPGGA,065736.000,6407.1704,N,01604.6920,W,1,04,3.1,20.6,M,59.3,M,,0000*7B
$GPGSA,A,3,15,09,22,18,,,,,,,,,5.2,3.1,4.1*36
$GPRMC,065736.000,A,6407.1704,N,01604.6920,W,32.79,36.46,020912,,,A*74
$GPGGA,065737.000,6407.1777,N,01604.6796,W,1,04,3.1,20.7,M,59.3,M,,0000*7C
$GPGSA,A,3,15,09,22,18,,,,,,,,,5.2,3.1,4.1*36
$GPRMC,065737.000,A,6407.1777,N,01604.6796,W,33.15,36.50,020912,,,A*7E
$GPGGA,065738.000,6407.1851,N,01604.6670,W,1,04,3.1,20.7,M,59.3,M,,0000*71
$GPGSA,A,3,15,09,22,18,,,,,,,,,5.2,3.1,4.1*36
$GPRMC,065738.000,A,6407.1851,N,01604.6670,W,33.39,36.67,020912,,,A*79
$GPGGA,065739.000,6407.1926,N,01604.6543,W,1,04,3.1,20.7,M,59.3,M,,0000*72
$GPGSA,A,3,15,09,22,18,,,,,,,,,5.2,3.1,4.1*36
$GPRMC,065739.000,A,6407.1926,N,01604.6543,W,33.62,36.72,020912,,,A*70
$GPGGA,065740.000,6407.2000,N,01604.6416,W,1,04,3.1,20.7,M,59.3,M,,0000*73
$GPGSA,A,3,15,09,22,18,,,,,,,,,5.2,3.1,4.1*36
$GPGSV,3,1,12,09,79,157,37,27,69,112,,22,37,282,39,15,34,150,43*76
$GPGSV,3,2,12,18,31,232,28,17,28,071,29,12,27,190,31,14,24,296,36*7F
$GPGSV,3,3,12,28,16,044,27,01,13,008,25,11,10,351,25,26,01,130,*78
$GPRMC,065740.000,A,6407.2000,N,01604.6416,W,33.72,36.64,020912,,,A*77
$GPGGA,065741.000,6407.2075,N,01604.6289,W,1,05,2.9,20.7,M,59.3,M,,0000*78
$GPGSA,A,3,15,09,27,22,18,,,,,,,,5.0,2.9,4.1*38
$GPRMC,065741.000,A,6407.2075,N,01604.6289,W,33.69,36.41,020912,,,A*79
$GPGGA,065742.000,6407.2151,N,01604.6161,W,1,05,2.9,20.7,M,59.3,M,,0000*79
$GPGSA,A,3,15,09,27,22,18,,,,,,,,5.0,2.9,4.1*38
$GPRMC,065742.000,A,6407.2151,N,01604.6161,W,33.80,36.43,020912,,,A*7D
$GPGGA,065743.000,6407.2226,N,01604.6034,W,1,05,2.9,20.7,M,59.3,M,,0000*7A
$GPGSA,A,3,15,09,27,22,18,,,,,,,,5.0,2.9,4.1*38
$GPRMC,065743.000,A,6407.2226,N,01604.6034,W,33.74,36.24,020912,,,A*74
$GPGGA,065744.000,6407.2302,N,01604.5907,W,1,04,3.1,20.7,M,59.3,M,,0000*78
$GPGSA,A,3,15,09,22,18,,,,,,,,,5.2,3.1,4.1*36
$GPRMC,065744.000,A,6407.2302,N,01604.5907,W,33.67,36.41,020912,,,A*7F
$GPGGA,065745.000,6407.2376,N,01604.5779,W,1,04,3.1,20.6,M,59.3,M,,0000*7C
$GPGSA,A,3,15,09,22,18,,,,,,,,,5.2,3.1,4.1*36
$GPGSV,3,1,12,09,79,157,37,27,69,112,,22,37,282,40,15,34,150,43*78
$GPGSV,3,2,12,18,31,232,28,17,28,071,29,12,27,190,30,14,24,296,36*7E
$GPGSV,3,3,12,28,16,044,26,01,13,008,25,11,10,351,26,26,01,130,*7A
$GPRMC,065745.000,A,6407.2376,N,01604.5779,W,33.70,36.87,020912,,,A*76
$GPGGA,065746.000,6407.2451,N,01604.5650,W,1,04,3.1,20.6,M,59.3,M,,0000*77
$GPGSA,A,3,15,09,22,18,,,,,,,,,5.2,3.1,4.1*36
$GPRMC,065746.000,A,6407.2451,N,01604.5650,W,33.76,36.88,020912,,,A*74
$GPGGA,065747.000,6407.2527,N,01604.5522,W,1,04,3.1,20.5,M,59.3,M,,0000*73
$GPGSA,A,3,15,09,22,18,,,,,,,,,5.2,3.1,4.1*36
$GPRMC,065747.000,A,6407.2527,N,01604.5522,W,33.88,36.60,020912,,,A*74
$GPGGA,065748.000,6407.2603,N,01604.5391,W,1,05,2.9,20.5,M,59.3,M,,0000*7F
$GPGSA,A,3,15,09,27,22,18,,,,,,,,5.1,2.9,4.1*39
$GPRMC,065748.000,A,6407.2603,N,01604.5391,W,34.41,36.61,020912,,,A*73
$GPGGA,065749.000,6407.2680,N,01604.5261,W,1,05,2.9,20.5,M,59.3,M,,0000*7B
$GPGSA,A,3,15,09,27,22,18,,,,,,,,5.1,2.9,4.1*39
$GPRMC,065749.000,A,6407.2680,N,01604.5261,W,34.36,36.77,020912,,,A*70
$GPGGA,065750.000,6407.2756,N,01604.5129,W,1,05,2.9,20.5,M,59.3,M,,0000*76
$GPGSA,A,3,15,09,27,22,18,,,,,,,,5.1,2.9,4.1*39
$GPGSV,3,1,12,09,79,156,37,27,69,112,30,22,37,282,40,15,34,150,43*7A
$GPGSV,3,2,12,18,30,231,28,17,28,070,28,12,28,190,30,14,24,296,28*7C
$GPGSV,3,3,12,28,16,044,26,01,13,008,25,11,10,351,27,26,01,130,*7B
$GPRMC,065750.000,A,6407.2756,N,01604.5129,W,34.17,36.95,020912,,,A*72
$GPGGA,065751.000,6407.2832,N,01604.4998,W,1,05,2.9,20.5,M,59.3,M,,0000*79
$GPGSA,A,3,15,09,27,22,18,,,,,,,,5.1,2.9,4.1*39
$GPRMC,065751.000,A,6407.2832,N,01604.4998,W,34.24,37.19,020912,,,A*78
$GPGGA,065752.000,6407.2908,N,01604.4865,W,1,08,1.0,20.5,M,59.3,M,,0000*76
$GPGSA,A,3,15,09,27,22,17,18,12,14,,,,,2.1,1.0,1.8*38
$GPRMC,065752.000,A,6407.2908,N,01604.4865,W,34.36,37.09,020912,,,A*72
$GPGGA,065753.000,6407.2985,N,01604.4735,W,1,08,1.0,20.6,M,59.3,M,,0000*7B
$GPGSA,A,3,15,09,27,22,17,18,12,14,,,,,2.1,1.0,1.8*38
$GPRMC,065753.000,A,6407.2985,N,01604.4735,W,34.43,36.56,020912,,,A*75
$GPGGA,065754.000,6407.3062,N,01604.4605,W,1,08,1.0,20.5,M,59.3,M,,0000*7C
$GPGSA,A,3,15,09,27,22,17,18,12,14,,,,,2.1,1.0,1.8*38
$GPRMC,065754.000,A,6407.3062,N,01604.4605,W,34.41,36.32,020912,,,A*71
$GPGGA,065755.000,6407.3139,N,01604.4476,W,1,08,1.0,20.5,M,59.3,M,,0000*74
$GPGSA,A,3,15,09,27,22,17,18,12,14,,,,,2.1,1.0,1.8*38
$GPGSV,3,1,12,09,79,156,37,27,69,112,30,22,37,282,39,15,34,150,43*74
$GPGSV,3,2,12,18,30,231,29,17,29,070,27,12,28,190,31,14,24,296,29*73
$GPGSV,3,3,12,28,16,044,27,01,13,008,25,11,10,351,27,26,00,130,28*71
$GPRMC,065755.000,A,6407.3139,N,01604.4476,W,34.32,36.24,020912,,,A*7A
$GPGGA,065756.000,6407.3215,N,01604.4347,W,1,08,1.0,20.5,M,59.3,M,,0000*7F
$GPGSA,A,3,15,09,27,22,17,18,12,14,,,,,2.1,1.0,1.8*38
$GPRMC,065756.000,A,6407.3215,N,01604.4347,W,34.15,36.39,020912,,,A*78
$GPGGA,065757.000,6407.3291,N,01604.4219,W,1,08,1.0,20.5,M,59.3,M,,0000*78
$GPGSA,A,3,15,09,27,22,17,18,12,14,,,,,2.1,1.0,1.8*38
$GPRMC,065757.000,A,6407.3291,N,01604.4219,W,34.00,36.39,020912,,,A*7B
$GPGGA,065758.000,6407.3367,N,01604.4091,W,1,08,1.0,20.6,M,59.3,M,,0000*7E
$GPGSA,A,3,15,09,27,22,17,18,12,14,,,,,2.1,1.0,1.8*38
$GPRMC,065758.000,A,6407.3367,N,01604.4091,W,33.92,36.56,020912,,,A*7B
$GPGGA,065759.000,6407.3442,N,01604.3963,W,1,08,1.0,20.6,M,59.3,M,,0000*7C
$GPGSA,A,3,15,09,27,22,17,18,12,14,,,,,2.1,1.0,1.8*38
$GPRMC,065759.000,A,6407.3442,N,01604.3963,W,33.72,36.59,020912,,,A*78
$GPGGA,065800.000,6407.3517,N,01604.3835,W,1,08,1.0,20.7,M,59.3,M,,0000*7D
$GPGSA,A,3,15,09,27,22,17,18,12,14,,,,,2.1,1.0,1.8*38
$GPGSV,3,1,12,09,79,156,37,27,69,112,30,22,37,282,39,15,34,150,43*74
$GPGSV,3,2,12,18,30,231,29,17,29,070,27,12,28,190,31,14,24,296,30*7B
$GPGSV,3,3,12,28,16,044,26,01,13,008,18,11,10,351,28,26,00,130,18*72
$GPRMC,065800.000,A,6407.3517,N,01604.3835,W,33.78,36.68,020912,,,A*70
$GPGGA,065801.000,6407.3593,N,01604.3706,W,1,08,1.0,20.8,M,59.3,M,,0000*70
$GPGSA,A,3,15,09,27,22,17,18,12,14,,,,,2.1,1.0,1.8*38
$GPRMC,065801.000,A,6407.3593,N,01604.3706,W,33.95,36.77,020912,,,A*7F
$GPGGA,065802.000,6407.3668,N,01604.3577,W,1,08,1.0,20.9,M,59.3,M,,0000*71
$GPGSA,A,3,15,09,27,22,17,18,12,14,,,,,2.1,1.0,1.8*38
$GPRMC,065802.000,A,6407.3668,N,01604.3577,W,33.94,36.79,020912,,,A*70
$GPGGA,065803.000,6407.3743,N,01604.3449,W,1,08,1.0,21.0,M,59.3,M,,0000*7C
$GPGSA,A,3,15,09,27,22,17,18,12,14,,,,,2.1,1.0,1.8*38
$GPRMC,065803.000,A,6407.3743,N,01604.3449,W,33.87,36.52,020912,,,A*7E
$GPGGA,065804.000,6407.3819,N,01604.3321,W,1,07,1.8,21.1,M,59.3,M,,0000*74
$GPGSA,A,3,15,09,27,22,18,12,14,,,,,,3.3,1.8,2.7*39
$GPRMC,065804.000,A,6407.3819,N,01604.3321,W,33.82,36.48,020912,,,A*7E
$GPGGA,065805.000,6407.3894,N,01604.3195,W,1,08,1.0,21.3,M,59.3,M,,0000*78
$GPGSA,A,3,15,09,27,22,18,12,17,14,,,,,2.1,1.0,1.8*38
$GPGSV,3,1,12,09,79,156,37,27,69,112,30,22,37,282,39,15,34,150,43*74
$GPGSV,3,2,12,18,30,231,29,17,29,070,28,12,28,190,31,14,24,296,31*75
$GPGSV,3,3,12,28,16,044,27,01,13,008,11,11,10,351,28,26,00,130,*73
$GPRMC,065805.000,A,6407.3894,N,01604.3195,W,33.52,36.27,020912,,,A*73
$GPGGA,065806.000,6407.3969,N,01604.3069,W,1,08,1.0,21.4,M,59.3,M,,0000*7D
$GPGSA,A,3,15,09,27,22,18,12,17,14,,,,,2.1,1.0,1.8*38
$GPRMC,065806.000,A,6407.3969,N,01604.3069,W,33.45,36.30,020912,,,A*71
$GPGGA,065807.000,6407.4044,N,01604.2942,W,1,08,1.0,21.6,M,59.3,M,,0000*7E
$GPGSA,A,3,15,09,27,22,18,12,17,14,,,,,2.1,1.0,1.8*38
$GPRMC,065807.000,A,6407.4044,N,01604.2942,W,33.75,36.55,020912,,,A*70
$GPGGA,065808.000,6407.4119,N,01604.2813,W,1,08,1.0,21.7,M,59.3,M,,0000*7C
$GPGSA,A,3,15,09,27,22,18,12,17,14,,,,,2.1,1.0,1.8*38
$GPRMC,065808.000,A,6407.4119,N,01604.2813,W,33.85,36.76,020912,,,A*7D
$GPGGA,065809.000,6407.4194,N,01604.2684,W,1,08,1.0,21.9,M,59.3,M,,0000*76
$GPGSA,A,3,15,09,27,22,18,12,17,14,,,,,2.1,1.0,1.8*38
$GPRMC,065809.000,A,6407.4194,N,01604.2684,W,33.89,36.77,020912,,,A*74
$GPGGA,065810.000,6407.4269,N,01604.2557,W,1,08,1.0,22.0,M,59.3,M,,0000*78
$GPGSA,A,3,15,09,27,22,18,12,17,14,,,,,2.1,1.0,1.8*38
$GPGSV,3,1,12,09,79,156,37,27,69,112,30,22,37,282,39,15,34,150,44*73
$GPGSV,3,2,12,18,30,231,28,17,29,070,27,12,28,190,32,14,24,296,32*7B
$GPGSV,3,3,12,28,16,044,26,01,13,008,,11,10,351,17,26,00,130,*7E
$GPRMC,065810.000,A,6407.4269,N,01604.2557,W,33.67,36.68,020912,,,A*7E
$GPGGA,065811.000,6407.4344,N,01604.2430,W,1,08,1.0,22.2,M,59.3,M,,0000*75
$GPGSA,A,3,15,09,27,22,18,12,17,14,,,,,2.1,1.0,1.8*38
$GPRMC,065811.000,A,6407.4344,N,01604.2430,W,33.56,36.56,020912,,,A*7E
$GPGGA,065812.000,6407.4419,N,01604.2302,W,1,08,1.0,22.4,M,59.3,M,,0000*79
$GPGSA,A,3,15,09,27,22,18,12,17,14,,,,,2.1,1.0,1.8*38
$GPRMC,065812.000,A,6407.4419,N,01604.2302,W,33.74,36.51,020912,,,A*73
$GPGGA,065813.000,6407.4494,N,01604.2174,W,1,08,1.0,22.6,M,59.3,M,,0000*7C
$GPGSA,A,3,15,09,27,22,18,12,17,14,,,,,2.1,1.0,1.8*38
$GPRMC,065813.000,A,6407.4494,N,01604.2174,W,33.86,36.45,020912,,,A*7C
$GPGGA,065814.000,6407.4570,N,01604.2047,W,1,08,1.0,22.7,M,59.3,M,,0000*70
$GPGSA,A,3,15,09,27,22,18,12,17,14,,,,,2.1,1.0,1.8*38
$GPRMC,065814.000,A,6407.4570,N,01604.2047,W,33.92,36.34,020912,,,A*72
$GPGGA,065815.000,6407.4646,N,01604.1919,W,1,08,1.0,22.9,M,59.3,M,,0000*78
$GPGSA,A,3,15,09,27,22,18,12,17,14,,,,,2.1,1.0,1.8*38
$GPGSV,3,1,12,09,79,156,37,27,69,112,29,22,37,282,39,15,34,150,44*7B
$GPGSV,3,2,12,18,30,231,28,17,29,070,27,12,28,190,32,14,24,296,32*7B
$GPGSV,3,3,12,28,16,044,27,01,13,008,,11,10,351,14,26,00,130,26*78
$GPRMC,065815.000,A,6407.4646,N,01604.1919,W,33.88,36.41,020912,,,A*7D
$GPGGA,065816.000,6407.4721,N,01604.1791,W,1,08,1.0,23.0,M,59.3,M,,0000*7D
$GPGSA,A,3,15,09,27,22,18,12,17,14,,,,,2.1,1.0,1.8*38
$GPRMC,065816.000,A,6407.4721,N,01604.1791,W,33.88,36.53,020912,,,A*73
$GPGGA,065817.000,6407.4797,N,01604.1663,W,1,08,1.0,23.2,M,59.3,M,,0000*7F
$GPGSA,A,3,15,09,27,22,18,12,17,14,,,,,2.1,1.0,1.8*38
$GPRMC,065817.000,A,6407.4797,N,01604.1663,W,33.85,36.69,020912,,,A*77
$GPGGA,065818.000,6407.4872,N,01604.1534,W,1,08,1.0,23.3,M,59.3,M,,0000*74
$GPGSA,A,3,15,09,27,22,18,12,17,14,,,,,2.1,1.0,1.8*38
$GPRMC,065818.000,A,6407.4872,N,01604.1534,W,33.78,36.67,020912,,,A*71
$GPGGA,065819.000,6407.4947,N,01604.1406,W,1,08,1.0,23.4,M,59.3,M,,0000*75
$GPGSA,A,3,15,09,27,22,18,12,17,14,,,,,2.1,1.0,1.8*38
$GPRMC,065819.000,A,6407.4947,N,01604.1406,W,33.83,36.72,020912,,,A*77
$GPGGA,065820.000,6407.5022,N,01604.1277,W,1,08,1.0,23.5,M,59.3,M,,0000*75
$GPGSA,A,3,15,09,27,22,18,12,17,14,,,,,2.1,1.0,1.8*38
$GPGSV,3,1,12,09,79,155,37,27,68,112,30,22,37,281,39,15,33,150,44*75
$GPGSV,3,2,12,18,30,231,28,17,29,070,27,12,28,190,31,14,24,296,33*79
$GPGSV,3,3,12,28,16,044,27,01,14,008,,11,10,351,,26,00,130,*7E
$GPRMC,065820.000,A,6407.5022,N,01604.1277,W,33.87,36.94,020912,,,A*7A
$GPGGA,065821.000,6407.5097,N,01604.1148,W,1,08,1.0,23.6,M,59.3,M,,0000*76
$GPGSA,A,3,15,09,27,22,18,12,17,14,,,,,2.1,1.0,1.8*38
$GPRMC,065821.000,A,6407.5097,N,01604.1148,W,33.88,36.90,020912,,,A*71
$GPGGA,065822.000,6407.5173,N,01604.1019,W,1,08,1.0,23.8,M,59.3,M,,0000*75
$GPGSA,A,3,15,09,27,22,18,12,17,14,,,,,2.1,1.0,1.8*38
$GPRMC,065822.000,A,6407.5173,N,01604.1019,W,33.90,36.65,020912,,,A*7F
$GPGGA,065823.000,6407.5248,N,01604.0891,W,1,08,1.0,23.9,M,59.3,M,,0000*77
$GPGSA,A,3,15,09,27,22,18,12,17,14,,,,,2.1,1.0,1.8*38
$GPRMC,065823.000,A,6407.5248,N,01604.0891,W,33.90,36.54,020912,,,A*7E
$GPGGA,065824.000,6407.5324,N,01604.0763,W,1,08,1.0,24.0,M,59.3,M,,0000*77
$GPGSA,A,3,15,09,27,22,18,12,17,14,,,,,2.1,1.0,1.8*38
$GPRMC,065824.000,A,6407.5324,N,01604.0763,W,33.88,36.47,020912,,,A*7B
$GPGGA,065825.000,6407.5399,N,01604.0636,W,1,08,1.0,24.1,M,59.3,M,,0000*70
$GPGSA,A,3,15,09,27,22,18,12,17,14,,,,,2.1,1.0,1.8*38
$GPGSV,3,1,12,09,79,155,37,27,68,112,30,22,37,281,39,15,33,150,44*75
$GPGSV,3,2,12,18,30,231,28,17,29,070,27,12,28,190,31,14,24,296,32*78
$GPGSV,3,3,12,28,16,044,28,01,14,008,,11,10,351,,26,00,130,*71
$GPRMC,065825.000,A,6407.5399,N,01604.0636,W,33.90,36.35,020912,,,A*71
$GPGGA,065826.000,6407.5475,N,01604.0508,W,1,08,1.0,24.2,M,59.3,M,,0000*7B
$GPGSA,A,3,15,09,27,22,18,12,17,14,,,,,2.1,1.0,1.8*38
$GPRMC,065826.000,A,6407.5475,N,01604.0508,W,33.93,36.51,020912,,,A*78
$GPGGA,065827.000,6407.5550,N,01604.0379,W,1,08,1.0,24.2,M,59.3,M,,0000*7C
$GPGSA,A,3,15,09,27,22,18,12,17,14,,,,,2.1,1.0,1.8*38
$GPRMC,065827.000,A,6407.5550,N,01604.0379,W,33.94,36.83,020912,,,A*77
$GPGGA,065828.000,6407.5625,N,01604.0249,W,1,08,1.0,24.3,M,59.3,M,,0000*71
$GPGSA,A,3,15,09,27,22,18,12,17,14,,,,,2.1,1.0,1.8*38
$GPRMC,065828.000,A,6407.5625,N,01604.0249,W,33.89,36.91,020912,,,A*74
$GPGGA,065829.000,6407.5701,N,01604.0121,W,1,08,1.0,24.4,M,59.3,M,,0000*7D
$GPGSA,A,3,15,09,27,22,18,12,17,14,,,,,2.1,1.0,1.8*38
$GPRMC,065829.000,A,6407.5701,N,01604.0121,W,33.88,36.54,020912,,,A*77
$GPGGA,065830.000,6407.5776,N,01603.9994,W,1,08,1.0,24.5,M,59.3,M,,0000*7C
$GPGSA,A,3,15,09,27,22,18,12,17,14,,,,,2.1,1.0,1.8*38
$GPGSV,3,1,12,09,79,155,37,27,68,112,29,22,37,281,39,15,33,150,44*7D
$GPGSV,3,2,12,18,30,231,28,17,29,070,27,12,28,190,32,14,24,296,32*7B
$GPGSV,3,3,12,28,16,044,09,01,14,008,,11,10,351,,26,00,130,30*71
$GPRMC,065830.000,A,6407.5776,N,01603.9994,W,33.84,36.45,020912,,,A*7B
$GPGGA,065831.000,6407.5852,N,01603.9867,W,1,08,1.0,24.5,M,59.3,M,,0000*79
$GPGSA,A,3,15,09,27,22,18,12,17,14,,,,,2.1,1.0,1.8*38
$GPRMC,065831.000,A,6407.5852,N,01603.9867,W,33.69,36.49,020912,,,A*71
$GPGGA,065832.000,6407.5926,N,01603.9739,W,1,08,1.0,24.5,M,59.3,M,,0000*7C
$GPGSA,A,3,15,09,27,22,18,12,17,14,,,,,2.1,1.0,1.8*38
$GPRMC,065832.000,A,6407.5926,N,01603.9739,W,33.75,36.77,020912,,,A*74
$GPGGA,065833.000,6407.6002,N,01603.9610,W,1,08,1.0,24.6,M,59.3,M,,0000*78
$GPGSA,A,3,15,09,27,22,18,12,17,14,,,,,2.1,1.0,1.8*38
$GPRMC,065833.000,A,6407.6002,N,01603.9610,W,33.83,36.83,020912,,,A*71
$GPGGA,065834.000,6407.6077,N,01603.9483,W,1,08,1.0,24.6,M,59.3,M,,0000*75
$GPGSA,A,3,15,09,27,22,18,12,17,14,,,,,2.1,1.0,1.8*38
$GPRMC,065834.000,A,6407.6077,N,01603.9483,W,33.91,36.37,020912,,,A*70
$GPGGA,065835.000,6407.6153,N,01603.9354,W,1,08,1.0,24.6,M,59.3,M,,0000*7E
$GPGSA,A,3,15,09,27,22,18,12,17,14,,,,,2.1,1.0,1.8*38
$GPGSV,3,1,12,09,79,155,37,27,68,112,29,22,37,281,38,15,33,150,43*7B
$GPGSV,3,2,12,18,30,231,28,17,29,070,28,12,28,190,32,14,24,296,33*75
$GPGSV,3,3,12,28,16,044,,01,14,008,,11,10,351,,26,00,130,30*78
$GPRMC,065835.000,A,6407.6153,N,01603.9354,W,34.04,36.43,020912,,,A*73
$GPGGA,065836.000,6407.6229,N,01603.9226,W,1,08,1.0,24.7,M,59.3,M,,0000*76
$GPGSA,A,3,15,09,27,22,18,12,17,14,,,,,2.1,1.0,1.8*38
$GPRMC,065836.000,A,6407.6229,N,01603.9226,W,33.99,36.46,020912,,,A*7C
$GPGGA,065837.000,6407.6305,N,01603.9098,W,1,08,1.0,24.7,M,59.3,M,,0000*7F
$GPGSA,A,3,15,09,27,22,18,12,17,14,,,,,2.1,1.0,1.8*38
$GPRMC,065837.000,A,6407.6305,N,01603.9098,W,34.09,36.27,020912,,,A*7C
$GPGGA,065838.000,6407.6381,N,01603.8970,W,1,08,1.0,24.8,M,59.3,M,,0000*7D
$GPGSA,A,3,15,09,27,22,18,12,17,14,,,,,2.1,1.0,1.8*38
$GPRMC,065838.000,A,6407.6381,N,01603.8970,W,34.14,36.51,020912,,,A*7C
$GPGGA,065839.000,6407.6456,N,01603.8840,W,1,08,1.0,24.9,M,59.3,M,,0000*72
$GPGSA,A,3,15,09,27,22,18,12,17,14,,,,,2.1,1.0,1.8*38
$GPRMC,065839.000,A,6407.6456,N,01603.8840,W,34.08,36.94,020912,,,A*76
$GPGGA,065840.000,6407.6532,N,01603.8711,W,1,08,1.0,25.0,M,59.3,M,,0000*7C
$GPGSA,A,3,15,09,27,22,18,12,17,14,,,,,2.1,1.0,1.8*38
$GPGSV,3,1,12,09,79,155,37,27,68,112,26,22,37,281,37,15,33,150,43*7B
$GPGSV,3,2,12,18,30,231,29,17,29,070,27,12,28,190,31,14,24,296,33*78
$GPGSV,3,3,12,28,16,044,,01,14,008,,11,10,351,,26,00,130,30*78
$GPRMC,065840.000,A,6407.6532,N,01603.8711,W,34.00,36.82,020912,,,A*7F
$GPGGA,065841.000,6407.6607,N,01603.8582,W,1,08,1.0,25.1,M,59.3,M,,0000*71
$GPGSA,A,3,15,09,27,22,18,12,17,14,,,,,2.1,1.0,1.8*38
$GPRMC,065841.000,A,6407.6607,N,01603.8582,W,33.92,36.70,020912,,,A*72
$GPGGA,065842.000,6407.6682,N,01603.8454,W,1,08,1.0,25.3,M,59.3,M,,0000*77
$GPGSA,A,3,15,09,27,22,18,12,17,14,,,,,2.1,1.0,1.8*38
$GPRMC,065842.000,A,6407.6682,N,01603.8454,W,33.84,36.68,020912,,,A*78
$GPGGA,065843.000,6407.6758,N,01603.8327,W,1,08,1.0,25.5,M,59.3,M,,0000*75
$GPGSA,A,3,15,09,27,22,18,12,17,14,,,,,2.1,1.0,1.8*38
$GPRMC,065843.000,A,6407.6758,N,01603.8327,W,33.79,36.55,020912,,,A*70
$GPGGA,065844.000,6407.6833,N,01603.8200,W,1,08,1.0,25.7,M,59.3,M,,0000*76
$GPGSA,A,3,15,09,27,22,18,12,17,14,,,,,2.1,1.0,1.8*38
$GPRMC,065844.000,A,6407.6833,N,01603.8200,W,33.82,36.28,020912,,,A*7F
$GPGGA,065845.000,6407.6909,N,01603.8073,W,1,08,1.0,25.9,M,59.3,M,,0000*77
$GPGSA,A,3,15,09,27,22,18,12,17,14,,,,,2.1,1.0,1.8*38
$GPGSV,3,1,12,09,79,155,37,27,68,112,26,22,37,281,37,15,33,150,44*7C
$GPGSV,3,2,12,18,30,231,30,17,29,070,28,12,28,190,31,14,24,296,34*78
$GPGSV,3,3,12,28,16,044,,01,14,008,,11,10,351,,26,00,130,31*79
$GPRMC,065845.000,A,6407.6909,N,01603.8073,W,33.92,36.18,020912,,,A*72
$GPGGA,065846.000,6407.6984,N,01603.7945,W,1,08,1.0,26.2,M,59.3,M,,0000*7A
$GPGSA,A,3,15,09,27,22,18,12,17,14,,,,,2.1,1.0,1.8*38
$GPRMC,065846.000,A,6407.6984,N,01603.7945,W,33.84,36.61,020912,,,A*7E
$GPGGA,065847.000,6407.7060,N,01603.7818,W,1,08,1.0,26.5,M,59.3,M,,0000*77
$GPGSA,A,3,15,09,27,22,18,12,17,14,,,,,2.1,1.0,1.8*38
$GPRMC,065847.000,A,6407.7060,N,01603.7818,W,33.86,36.44,020912,,,A*71
$GPGGA,065848.000,6407.7136,N,01603.7691,W,1,08,1.0,26.9,M,59.3,M,,0000*79
$GPGSA,A,3,15,09,27,22,18,12,17,14,,,,,2.1,1.0,1.8*38
$GPRMC,065848.000,A,6407.7136,N,01603.7691,W,34.08,36.09,020912,,,A*7B
$GPGGA,065849.000,6407.7212,N,01603.7562,W,1,08,1.0,27.2,M,59.3,M,,0000*78
$GPGSA,A,3,15,09,27,22,18,12,17,14,,,,,2.1,1.0,1.8*38
$GPRMC,065849.000,A,6407.7212,N,01603.7562,W,34.06,36.45,020912,,,A*76
$GPGGA,065850.000,6407.7288,N,01603.7434,W,1,08,1.0,27.6,M,59.3,M,,0000*75
$GPGSA,A,3,15,09,27,22,18,12,17,14,,,,,2.1,1.0,1.8*38
$GPGSV,3,1,12,09,78,153,37,27,68,112,27,22,37,281,37,15,33,150,44*7A
$GPGSV,3,2,12,18,30,231,30,17,29,070,29,12,28,190,32,14,24,296,34*7A
$GPGSV,3,3,12,28,16,044,,01,14,008,,11,10,351,,26,00,131,31*78
$GPRMC,065850.000,A,6407.7288,N,01603.7434,W,34.10,36.54,020912,,,A*78
$GPGGA,065851.000,6407.7364,N,01603.7303,W,1,08,1.0,28.1,M,59.3,M,,0000*7C
$GPGSA,A,3,15,09,27,22,18,12,17,14,,,,,2.1,1.0,1.8*38
$GPRMC,065851.000,A,6407.7364,N,01603.7303,W,34.35,36.87,020912,,,A*70
$GPGGA,065852.000,6407.7440,N,01603.7173,W,1,08,1.0,28.5,M,59.3,M,,0000*7F
$GPGSA,A,3,15,09,27,22,18,12,17,14,,,,,2.1,1.0,1.8*38
$GPRMC,065852.000,A,6407.7440,N,01603.7173,W,34.34,36.88,020912,,,A*79
$GPGGA,065853.000,6407.7516,N,01603.7042,W,1,08,1.0,28.9,M,59.3,M,,0000*73
$GPGSA,A,3,15,09,27,22,18,12,17,14,,,,,2.1,1.0,1.8*38
$GPRMC,065853.000,A,6407.7516,N,01603.7042,W,34.48,36.93,020912,,,A*78
$GPGGA,065854.000,6407.7592,N,01603.6909,W,1,08,1.0,29.4,M,59.3,M,,0000*73
$GPGSA,A,3,15,09,27,22,18,12,17,14,,,,,2.1,1.0,1.8*38
$GPRMC,065854.000,A,6407.7592,N,01603.6909,W,34.46,37.48,020912,,,A*7D
$GPGGA,065855.000,6407.7666,N,01603.6775,W,1,08,1.0,30.0,M,59.3,M,,0000*73
$GPGSA,A,3,15,09,27,22,12,18,17,14,,,,,2.1,1.0,1.8*38
$GPGSV,3,1,12,09,78,153,37,27,68,112,32,22,37,281,32,15,33,150,44*7B
$GPGSV,3,2,12,18,30,231,31,17,29,070,35,12,28,190,37,14,24,296,32*75
$GPGSV,3,3,12,28,16,044,,01,14,008,,11,10,351,,26,00,131,*7A
$GPRMC,065855.000,A,6407.7666,N,01603.6775,W,34.32,38.55,020912,,,A*71
$GPGGA,065856.000,6407.7738,N,01603.6639,W,1,08,1.0,30.7,M,59.3,M,,0000*74
$GPGSA,A,3,15,09,27,22,12,18,17,14,,,,,2.1,1.0,1.8*38
$GPRMC,065856.000,A,6407.7738,N,01603.6639,W,34.31,39.48,020912,,,A*7F
$GPGGA,065857.000,6407.7809,N,01603.6501,W,1,08,1.0,31.5,M,59.3,M,,0000*73
$GPGSA,A,3,15,09,27,22,12,18,17,14,,,,,2.1,1.0,1.8*38
$GPRMC,065857.000,A,6407.7809,N,01603.6501,W,34.11,40.50,020912,,,A*7E
$GPGGA,065858.000,6407.7878,N,01603.6360,W,1,08,1.0,32.3,M,59.3,M,,0000*7E
$GPGSA,A,3,15,09,27,22,12,18,17,14,,,,,2.1,1.0,1.8*38
$GPRMC,065858.000,A,6407.7878,N,01603.6360,W,33.89,42.12,020912,,,A*74
$GPGGA,065859.000,6407.7943,N,01603.6213,W,1,08,1.0,33.1,M,59.3,M,,0000*70
$GPGSA,A,3,15,09,27,22,12,18,17,14,,,,,2.1,1.0,1.8*38
$GPRMC,065859.000,A,6407.7943,N,01603.6213,W,33.86,44.47,020912,,,A*70
$GPGGA,065900.000,6407.8006,N,01603.6060,W,1,08,1.0,33.9,M,59.3,M,,0000*74
$GPGSA,A,3,15,09,27,22,12,18,17,14,,,,,2.1,1.0,1.8*38
$GPGSV,3,1,12,09,78,153,38,27,68,112,34,22,37,281,23,15,33,150,44*72
$GPGSV,3,2,12,18,30,231,22,17,29,070,32,12,28,190,31,14,24,296,34*70
$GPGSV,3,3,12,28,16,044,,01,14,008,,11,10,351,,26,00,131,31*78
$GPRMC,065900.000,A,6407.8006,N,01603.6060,W,33.80,46.95,020912,,,A*77
$GPGGA,065901.000,6407.8067,N,01603.5900,W,1,08,1.0,34.7,M,59.3,M,,0000*77
$GPGSA,A,3,15,09,27,22,12,18,17,14,,,,,2.1,1.0,1.8*38
$GPRMC,065901.000,A,6407.8067,N,01603.5900,W,33.97,49.21,020912,,,A*7B
$GPGGA,065902.000,6407.8124,N,01603.5735,W,1,08,1.0,35.5,M,59.3,M,,0000*79
$GPGSA,A,3,15,09,27,22,12,18,17,14,,,,,2.1,1.0,1.8*38
$GPRMC,065902.000,A,6407.8124,N,01603.5735,W,33.85,51.69,020912,,,A*70
$GPGGA,065903.000,6407.8179,N,01603.5566,W,1,08,1.0,36.3,M,59.3,M,,0000*71
$GPGSA,A,3,15,09,27,22,12,18,17,14,,,,,2.1,1.0,1.8*38
$GPRMC,065903.000,A,6407.8179,N,01603.5566,W,33.74,53.65,020912,,,A*7D
$GPGGA,065904.000,6407.8231,N,01603.5391,W,1,08,1.0,36.9,M,59.3,M,,0000*7D
$GPGSA,A,3,15,09,27,22,12,18,17,14,,,,,2.1,1.0,1.8*38
$GPRMC,065904.000,A,6407.8231,N,01603.5391,W,34.01,56.06,020912,,,A*7E
$GPGGA,065905.000,6407.8280,N,01603.5210,W,1,08,1.0,37.6,M,59.3,M,,0000*70
$GPGSA,A,3,15,09,27,22,12,18,17,14,,,,,2.1,1.0,1.8*38
$GPGSV,3,1,12,09,78,153,38,27,68,112,35,22,37,281,26,15,33,150,39*7C
$GPGSV,3,2,12,18,30,231,34,17,29,070,26,12,28,190,40,14,24,296,27*76
$GPGSV,3,3,12,28,16,044,,01,14,008,,11,10,351,,26,00,131,32*7B
$GPRMC,065905.000,A,6407.8280,N,01603.5210,W,34.00,58.17,020912,,,A*72
$GPGGA,065906.000,6407.8326,N,01603.5029,W,1,08,1.0,38.3,M,59.3,M,,0000*7C
$GPGSA,A,3,15,09,27,22,12,18,17,14,,,,,2.1,1.0,1.8*38
$GPRMC,065906.000,A,6407.8326,N,01603.5029,W,33.82,59.81,020912,,,A*77
$GPGGA,065907.000,6407.8369,N,01603.4843,W,1,07,1.1,39.0,M,59.3,M,,0000*7F
$GPGSA,A,3,15,09,27,22,12,17,14,,,,,,2.1,1.1,1.8*30
$GPRMC,065907.000,A,6407.8369,N,01603.4843,W,33.89,61.55,020912,,,A*71
$GPGGA,065908.000,6407.8410,N,01603.4654,W,1,08,1.0,39.7,M,59.3,M,,0000*78
$GPGSA,A,3,15,09,27,22,12,18,17,14,,,,,2.1,1.0,1.8*38
$GPRMC,065908.000,A,6407.8410,N,01603.4654,W,33.91,63.60,020912,,,A*72
$GPGGA,065909.000,6407.8447,N,01603.4460,W,1,07,1.1,40.5,M,59.3,M,,0000*7C
$GPGSA,A,3,15,09,27,12,18,17,14,,,,,,2.1,1.1,1.8*39
$GPRMC,065909.000,A,6407.8447,N,01603.4460,W,34.03,65.55,020912,,,A*78
$GPGGA,065910.000,6407.8481,N,01603.4262,W,1,08,1.0,41.2,M,59.3,M,,0000*72
$GPGSA,A,3,15,09,27,22,12,18,17,14,,,,,2.1,1.0,1.8*38
$GPGSV,3,1,12,09,78,153,38,27,68,112,37,22,37,281,21,15,33,150,39*79
$GPGSV,3,2,12,18,30,231,37,17,29,070,23,12,28,190,39,14,24,296,29*70
$GPGSV,3,3,12,28,16,044,,01,14,008,,11,10,351,,26,00,131,25*7D
$GPRMC,065910.000,A,6407.8481,N,01603.4262,W,34.18,68.08,020912,,,A*71
$GPGGA,065911.000,6407.8512,N,01603.4060,W,1,08,1.0,41.9,M,59.3,M,,0000*73
$GPGSA,A,3,15,09,27,22,12,18,17,14,,,,,2.1,1.0,1.8*38
$GPRMC,065911.000,A,6407.8512,N,01603.4060,W,34.31,70.12,020912,,,A*72
$GPGGA,065912.000,6407.8540,N,01603.3855,W,1,08,1.0,42.6,M,59.3,M,,0000*72
$GPGSA,A,3,15,09,27,22,12,18,17,14,,,,,2.1,1.0,1.8*38
$GPRMC,065912.000,A,6407.8540,N,01603.3855,W,34.23,72.18,020912,,,A*74
$GPGGA,065913.000,6407.8564,N,01603.3647,W,1,08,1.0,43.1,M,59.3,M,,0000*7E
$GPGSA,A,3,15,09,27,22,12,18,17,14,,,,,2.1,1.0,1.8*38
$GPRMC,065913.000,A,6407.8564,N,01603.3647,W,34.21,74.41,020912,,,A*76
$GPGGA,065914.000,6407.8586,N,01603.3437,W,1,08,1.0,43.6,M,59.3,M,,0000*77
$GPGSA,A,3,15,09,27,22,12,18,17,14,,,,,2.1,1.0,1.8*38
$GPRMC,065914.000,A,6407.8586,N,01603.3437,W,34.28,76.28,020912,,,A*7C
$GPGGA,065915.000,6407.8604,N,01603.3226,W,1,08,1.0,44.0,M,59.3,M,,0000*78
$GPGSA,A,3,15,09,27,22,12,18,17,14,,,,,2.1,1.0,1.8*38
$GPGSV,3,1,12,09,78,153,39,27,68,112,19,22,37,281,38,15,33,150,34*71
$GPGSV,3,2,12,18,30,231,30,17,29,070,33,12,28,190,40,14,24,296,33*73
$GPGSV,3,3,12,28,16,044,,01,14,008,,11,10,351,,26,00,131,31*78
$GPRMC,065915.000,A,6407.8604,N,01603.3226,W,34.16,78.20,020912,,,A*79
$GPGGA,065916.000,6407.8620,N,01603.3013,W,1,08,1.0,44.4,M,59.3,M,,0000*7D
$GPGSA,A,3,15,09,27,22,12,18,17,14,,,,,2.1,1.0,1.8*38
$GPRMC,065916.000,A,6407.8620,N,01603.3013,W,34.12,80.29,020912,,,A*72
$GPGGA,065917.000,6407.8632,N,01603.2799,W,1,08,1.0,44.7,M,59.3,M,,0000*78
$GPGSA,A,3,15,09,27,22,12,18,17,14,,,,,2.1,1.0,1.8*38
$GPRMC,065917.000,A,6407.8632,N,01603.2799,W,34.18,82.02,020912,,,A*75
$GPGGA,065918.000,6407.8643,N,01603.2584,W,1,08,1.0,45.0,M,59.3,M,,0000*79
$GPGSA,A,3,15,09,27,22,12,18,17,14,,,,,2.1,1.0,1.8*38
$GPRMC,065918.000,A,6407.8643,N,01603.2584,W,34.25,82.65,020912,,,A*7D
$GPGGA,065919.000,6407.8654,N,01603.2368,W,1,08,1.0,45.3,M,59.3,M,,0000*79
$GPGSA,A,3,15,09,27,22,12,18,17,14,,,,,2.1,1.0,1.8*38
$GPRMC,065919.000,A,6407.8654,N,01603.2368,W,34.24,82.90,020912,,,A*75
$GPGGA,065920.000,6407.8665,N,01603.2153,W,1,08,1.0,45.4,M,59.3,M,,0000*7C
$GPGSA,A,3,15,09,27,22,12,18,17,14,,,,,2.1,1.0,1.8*38
$GPGSV,3,1,12,09,78,152,39,27,68,111,27,22,37,281,32,15,33,150,35*75
$GPGSV,3,2,12,18,30,231,34,17,29,070,33,12,28,190,41,14,24,296,31*74
$GPGSV,3,3,12,28,15,044,,01,14,008,,11,10,351,,26,00,131,25*7E
$GPRMC,065920.000,A,6407.8665,N,01603.2153,W,34.26,82.89,020912,,,A*7D
$GPGGA,065921.000,6407.8676,N,01603.1937,W,1,08,1.0,45.6,M,59.3,M,,0000*74
$GPGSA,A,3,15,09,27,22,12,18,17,14,,,,,2.1,1.0,1.8*38
$GPRMC,065921.000,A,6407.8676,N,01603.1937,W,34.36,83.17,020912,,,A*70
$GPGGA,065922.000,6407.8686,N,01603.1718,W,1,08,1.0,45.6,M,59.3,M,,0000*7B
$GPGSA,A,3,15,09,27,22,12,18,17,14,,,,,2.1,1.0,1.8*38
$GPRMC,065922.000,A,6407.8686,N,01603.1718,W,34.76,83.24,020912,,,A*7B
$GPGGA,065923.000,6407.8697,N,01603.1497,W,1,08,1.0,45.6,M,59.3,M,,0000*7E
$GPGSA,A,3,15,09,27,22,12,18,17,14,,,,,2.1,1.0,1.8*38
$GPRMC,065923.000,A,6407.8697,N,01603.1497,W,35.17,83.24,020912,,,A*78
$GPGGA,065924.000,6407.8708,N,01603.1273,W,1,08,1.0,45.6,M,59.3,M,,0000*72
$GPGSA,A,3,15,09,27,22,12,18,17,14,,,,,2.1,1.0,1.8*38
$GPRMC,065924.000,A,6407.8708,N,01603.1273,W,35.61,83.03,020912,,,A*70
$GPGGA,065925.000,6407.8720,N,01603.1047,W,1,08,1.0,45.5,M,59.3,M,,0000*7F
$GPGSA,A,3,15,09,27,22,12,18,17,14,,,,,2.1,1.0,1.8*38
$GPGSV,3,1,12,09,78,152,40,27,68,111,17,22,37,281,16,15,33,150,35*7E
$GPGSV,3,2,12,18,30,231,34,17,29,070,33,12,28,190,42,14,24,296,30*76
$GPGSV,3,3,12,28,15,044,,01,14,008,,11,10,351,,26,00,131,26*7D
$GPRMC,065925.000,A,6407.8720,N,01603.1047,W,35.96,82.84,020912,,,A*78
$GPGGA,065926.000,6407.8732,N,01603.0820,W,1,08,1.0,45.4,M,59.3,M,,0000*76
$GPGSA,A,3,15,09,27,22,12,18,17,14,,,,,2.1,1.0,1.8*38
$GPRMC,065926.000,A,6407.8732,N,01603.0820,W,36.25,82.84,020912,,,A*7B
$GPGGA,065927.000,6407.8744,N,01603.0590,W,1,08,1.0,45.1,M,59.3,M,,0000*75
$GPGSA,A,3,15,09,27,22,12,18,17,14,,,,,2.1,1.0,1.8*38
$GPRMC,065927.000,A,6407.8744,N,01603.0590,W,36.54,82.81,020912,,,A*7E
$GPGGA,065928.000,6407.8756,N,01603.0359,W,1,08,1.0,44.7,M,59.3,M,,0000*7D
$GPGSA,A,3,15,09,27,22,12,18,17,14,,,,,2.1,1.0,1.8*38
$GPRMC,065928.000,A,6407.8756,N,01603.0359,W,36.70,82.92,020912,,,A*75
$GPGGA,065929.000,6407.8768,N,01603.0128,W,1,08,1.0,44.3,M,59.3,M,,0000*71
$GPGSA,A,3,15,09,27,22,12,18,17,14,,,,,2.1,1.0,1.8*38
$GPRMC,065929.000,A,6407.8768,N,01603.0128,W,36.74,82.88,020912,,,A*72
$GPGGA,065930.000,6407.8780,N,01602.9896,W,1,08,1.0,43.8,M,59.3,M,,0000*77
$GPGSA,A,3,15,09,27,22,12,18,17,14,,,,,2.1,1.0,1.8*38
$GPGSV,3,1,12,09,78,152,39,27,68,111,28,22,37,281,27,15,33,150,36*7D
$GPGSV,3,2,12,18,30,231,35,17,29,070,33,12,28,190,43,14,24,296,25*72
$GPGSV,3,3,12,28,15,044,,01,14,008,,11,10,351,,26,00,131,28*73
$GPRMC,065930.000,A,6407.8780,N,01602.9896,W,36.96,82.89,020912,,,A*75
$GPGGA,065931.000,6407.8792,N,01602.9661,W,1,08,1.0,43.3,M,59.3,M,,0000*78
$GPGSA,A,3,15,09,27,22,12,18,17,14,,,,,2.1,1.0,1.8*38
$GPRMC,065931.000,A,6407.8792,N,01602.9661,W,37.23,83.08,020912,,,A*76
$GPGGA,065932.000,6407.8804,N,01602.9427,W,1,08,1.0,42.7,M,59.3,M,,0000*7E
$GPGSA,A,3,15,09,27,22,12,18,17,14,,,,,2.1,1.0,1.8*38
$GPRMC,065932.000,A,6407.8804,N,01602.9427,W,37.22,83.10,020912,,,A*7D
$GPGGA,065933.000,6407.8816,N,01602.9193,W,1,08,1.0,42.1,M,59.3,M,,0000*70
$GPGSA,A,3,15,09,27,22,12,18,17,14,,,,,2.1,1.0,1.8*38
$GPRMC,065933.000,A,6407.8816,N,01602.9193,W,37.20,83.13,020912,,,A*74
$GPGGA,065934.000,6407.8828,N,01602.8958,W,1,08,1.0,41.5,M,59.3,M,,0000*73
$GPGSA,A,3,15,09,27,22,12,18,17,14,,,,,2.1,1.0,1.8*38
$GPRMC,065934.000,A,6407.8828,N,01602.8958,W,37.30,83.15,020912,,,A*77
$GPGGA,065935.000,6407.8840,N,01602.8723,W,1,08,1.0,40.9,M,59.3,M,,0000*73
$GPGSA,A,3,15,09,27,22,12,18,17,14,,,,,2.1,1.0,1.8*38
$GPGSV,3,1,12,09,78,152,39,27,68,111,29,22,37,281,28,15,33,150,38*7D
$GPGSV,3,2,12,18,30,231,36,17,29,070,33,12,28,190,43,14,24,296,26*72
$GPGSV,3,3,12,28,15,044,,01,14,008,,11,10,351,,26,00,131,*79
$GPRMC,065935.000,A,6407.8840,N,01602.8723,W,37.34,83.02,020912,,,A*78
$GPGGA,065936.000,6407.8852,N,01602.8488,W,1,08,1.0,40.4,M,59.3,M,,0000*7C
$GPGSA,A,3,15,09,27,22,12,18,17,14,,,,,2.1,1.0,1.8*38
$GPRMC,065936.000,A,6407.8852,N,01602.8488,W,37.31,82.96,020912,,,A*73
$GPGGA,065937.000,6407.8864,N,01602.8253,W,1,08,1.0,39.8,M,59.3,M,,0000*7A
$GPGSA,A,3,15,09,27,22,12,18,17,14,,,,,2.1,1.0,1.8*38
$GPRMC,065937.000,A,6407.8864,N,01602.8253,W,37.21,82.98,020912,,,A*78
$GPGGA,065938.000,6407.8876,N,01602.8019,W,1,08,1.0,39.2,M,59.3,M,,0000*70
$GPGSA,A,3,15,09,27,22,12,18,17,14,,,,,2.1,1.0,1.8*38
$GPRMC,065938.000,A,6407.8876,N,01602.8019,W,37.20,82.98,020912,,,A*79
$GPGGA,065939.000,6407.8888,N,01602.7785,W,1,08,1.0,38.6,M,59.3,M,,0000*78
$GPGSA,A,3,15,09,27,22,12,18,17,14,,,,,2.1,1.0,1.8*38
$GPRMC,065939.000,A,6407.8888,N,01602.7785,W,37.09,82.89,020912,,,A*7F
$GPGGA,065940.000,6407.8901,N,01602.7553,W,1,08,1.0,38.1,M,59.3,M,,0000*78
$GPGSA,A,3,15,09,27,22,12,18,17,14,,,,,2.1,1.0,1.8*38
$GPGSV,3,1,12,09,78,152,40,27,68,111,25,22,37,281,28,15,33,150,38*7F
$GPGSV,3,2,12,18,30,231,36,17,29,070,34,12,28,190,43,14,24,296,27*74
$GPGSV,3,3,12,28,15,044,,01,14,008,,11,10,351,,26,00,131,*79
$GPRMC,065940.000,A,6407.8901,N,01602.7553,W,36.96,82.83,020912,,,A*75
$GPGGA,065941.000,6407.8913,N,01602.7321,W,1,08,1.0,37.7,M,59.3,M,,0000*70
$GPGSA,A,3,15,09,27,22,12,18,17,14,,,,,2.1,1.0,1.8*38
$GPRMC,065941.000,A,6407.8913,N,01602.7321,W,36.89,82.79,020912,,,A*7F
$GPGGA,065942.000,6407.8925,N,01602.7089,W,1,08,1.0,37.4,M,59.3,M,,0000*74
$GPGSA,A,3,15,09,27,22,12,18,17,14,,,,,2.1,1.0,1.8*38
$GPRMC,065942.000,A,6407.8925,N,01602.7089,W,36.84,82.78,020912,,,A*74
$GPGGA,065943.000,6407.8938,N,01602.6856,W,1,08,1.0,37.1,M,59.3,M,,0000*77
$GPGSA,A,3,15,09,27,22,12,18,17,14,,,,,2.1,1.0,1.8*38
$GPRMC,065943.000,A,6407.8938,N,01602.6856,W,36.94,82.50,020912,,,A*79
$GPGGA,065944.000,6407.8951,N,01602.6625,W,1,08,1.0,37.0,M,59.3,M,,0000*74
$GPGSA,A,3,15,09,27,22,12,18,17,14,,,,,2.1,1.0,1.8*38
$GPRMC,065944.000,A,6407.8951,N,01602.6625,W,36.81,82.62,020912,,,A*7E
$GPGGA,065945.000,6407.8962,N,01602.6393,W,1,08,1.0,37.0,M,59.3,M,,0000*7D
$GPGSA,A,3,15,09,27,22,12,18,17,14,,,,,2.1,1.0,1.8*38
$GPGSV,3,1,12,09,78,152,40,27,68,111,25,22,37,281,24,15,33,150,37*7C
$GPGSV,3,2,12,18,30,231,31,17,29,070,34,12,28,190,43,14,24,296,27*73
$GPGSV,3,3,12,28,15,044,,01,14,008,,11,10,351,,26,00,131,22*79
$GPRMC,065945.000,A,6407.8962,N,01602.6393,W,36.77,83.29,020912,,,A*70
$GPGGA,065946.000,6407.8971,N,01602.6161,W,1,08,1.0,37.1,M,59.3,M,,0000*72
$GPGSA,A,3,15,09,27,22,12,18,17,14,,,,,2.1,1.0,1.8*38
$GPRMC,065946.000,A,6407.8971,N,01602.6161,W,36.81,84.61,020912,,,A*7C
$GPGGA,065947.000,6407.8978,N,01602.5927,W,1,08,1.0,37.3,M,59.3,M,,0000*71
$GPGSA,A,3,15,09,27,22,12,18,17,14,,,,,2.1,1.0,1.8*38
$GPRMC,065947.000,A,6407.8978,N,01602.5927,W,36.93,85.94,020912,,,A*75
$GPGGA,065948.000,6407.8982,N,01602.5693,W,1,08,1.0,37.5,M,59.3,M,,0000*7D
$GPGSA,A,3,15,09,27,22,12,18,17,14,,,,,2.1,1.0,1.8*38
$GPRMC,065948.000,A,6407.8982,N,01602.5693,W,37.08,87.50,020912,,,A*76
$GPGGA,065949.000,6407.8984,N,01602.5458,W,1,08,1.0,37.8,M,59.3,M,,0000*72
$GPGSA,A,3,15,09,27,22,12,18,17,14,,,,,2.1,1.0,1.8*38
$GPRMC,065949.000,A,6407.8984,N,01602.5458,W,36.94,88.35,020912,,,A*7C
$GPGGA,065950.000,6407.8984,N,01602.5224,W,1,08,1.0,38.0,M,59.3,M,,0000*70
$GPGSA,A,3,15,09,27,22,12,18,17,14,,,,,2.1,1.0,1.8*38
$GPGSV,3,1,12,09,78,151,35,27,68,111,32,22,37,281,31,15,33,150,33*7B
$GPGSV,3,2,12,18,30,231,33,17,29,069,30,12,29,190,41,14,25,296,26*7E
$GPGSV,3,3,12,28,15,044,,01,14,007,,11,10,350,,26,00,131,*77
$GPRMC,065950.000,A,6407.8984,N,01602.5224,W,36.91,90.02,020912,,,A*71
$GPGGA,065951.000,6407.8980,N,01602.4988,W,1,08,1.0,38.3,M,59.3,M,,0000*7A
$GPGSA,A,3,15,09,27,22,12,18,17,14,,,,,2.1,1.0,1.8*38
$GPRMC,065951.000,A,6407.8980,N,01602.4988,W,37.09,91.98,020912,,,A*7A
$GPGGA,065952.000,6407.8972,N,01602.4751,W,1,08,1.0,38.6,M,59.3,M,,0000*7B
$GPGSA,A,3,15,09,27,22,12,18,17,14,,,,,2.1,1.0,1.8*38
$GPRMC,065952.000,A,6407.8972,N,01602.4751,W,37.38,93.70,020912,,,A*78
$GPGGA,065953.000,6407.8962,N,01602.4514,W,1,08,1.0,38.9,M,59.3,M,,0000*77
$GPGSA,A,3,15,09,27,22,12,18,17,14,,,,,2.1,1.0,1.8*38
$GPRMC,065953.000,A,6407.8962,N,01602.4514,W,37.34,95.58,020912,,,A*7B
$GPGGA,065954.000,6407.8948,N,01602.4280,W,1,08,1.0,39.2,M,59.3,M,,0000*78
$GPGSA,A,3,15,09,27,22,12,18,17,14,,,,,2.1,1.0,1.8*38
$GPRMC,065954.000,A,6407.8948,N,01602.4280,W,37.29,97.47,020912,,,A*7E
$GPGGA,065955.000,6407.8930,N,01602.4047,W,1,08,1.0,39.6,M,59.3,M,,0000*7B
$GPGSA,A,3,15,09,27,22,12,18,17,14,,,,,2.1,1.0,1.8*38
$GPGSV,3,1,12,09,78,151,36,27,68,111,26,22,37,281,32,15,33,150,36*7B
$GPGSV,3,2,12,18,30,231,37,17,29,069,30,12,29,190,37,14,25,296,29*74
$GPGSV,3,3,12,28,15,044,,01,14,007,,11,10,350,,26,00,131,32*76
$GPRMC,065955.000,A,6407.8930,N,01602.4047,W,37.20,99.22,020912,,,A*7D
$GPGGA,065956.000,6407.8910,N,01602.3815,W,1,08,1.0,39.9,M,59.3,M,,0000*7D
$GPGSA,A,3,15,09,27,22,12,18,17,14,,,,,2.1,1.0,1.8*38
$GPRMC,065956.000,A,6407.8910,N,01602.3815,W,37.18,101.02,020912,,,A*4D
$GPGGA,065957.000,6407.8886,N,01602.3584,W,1,08,1.0,40.3,M,59.3,M,,0000*73
$GPGSA,A,3,15,09,27,22,12,18,17,14,,,,,2.1,1.0,1.8*38
$GPRMC,065957.000,A,6407.8886,N,01602.3584,W,37.31,102.63,020912,,,A*48
$GPGGA,065958.000,6407.8860,N,01602.3354,W,1,08,1.0,40.5,M,59.3,M,,0000*79
$GPGSA,A,3,15,09,27,22,12,18,17,14,,,,,2.1,1.0,1.8*38
$GPRMC,065958.000,A,6407.8860,N,01602.3354,W,37.34,103.84,020912,,,A*49
$GPGGA,065959.000,6407.8832,N,01602.3126,W,1,08,1.0,40.8,M,59.3,M,,0000*75
$GPGSA,A,3,15,09,27,22,12,18,17,14,,,,,2.1,1.0,1.8*38
$GPRMC,065959.000,A,6407.8832,N,01602.3126,W,37.38,105.49,020912,,,A*43
$GPGGA,070000.000,6407.8800,N,01602.2899,W,1,08,1.0,41.1,M,59.3,M,,0000*71
$GPGSA,A,3,15,09,27,22,12,18,17,14,,,,,2.1,1.0,1.8*38
$GPGSV,3,1,12,09,78,151,29,27,68,111,30,22,37,281,31,15,33,150,31*76
$GPGSV,3,2,12,18,30,231,38,17,29,069,36,12,29,190,31,14,25,296,24*76
$GPGSV,3,3,12,28,15,044,,01,14,007,,11,10,350,,26,00,131,26*73
$GPRMC,070000.000,A,6407.8800,N,01602.2899,W,37.44,107.15,020912,,,A*4F
$GPGGA,070001.000,6407.8766,N,01602.2676,W,1,08,1.0,41.3,M,59.3,M,,0000*72
$GPGSA,A,3,15,09,27,22,12,18,17,14,,,,,2.1,1.0,1.8*38
$GPRMC,070001.000,A,6407.8766,N,01602.2676,W,37.19,108.67,020912,,,A*4C
$GPGGA,070002.000,6407.8729,N,01602.2456,W,1,08,1.0,41.5,M,59.3,M,,0000*7C
$GPGSA,A,3,15,09,27,22,12,18,17,14,,,,,2.1,1.0,1.8*38
$GPRMC,070002.000,A,6407.8729,N,01602.2456,W,37.06,110.55,020912,,,A*42
$GPGGA,070003.000,6407.8689,N,01602.2240,W,1,08,1.0,41.7,M,59.3,M,,0000*75
$GPGSA,A,3,15,09,27,22,12,18,17,14,,,,,2.1,1.0,1.8*38
$GPRMC,070003.000,A,6407.8689,N,01602.2240,W,37.02,112.73,020912,,,A*4B
$GPGGA,070004.000,6407.8646,N,01602.2027,W,1,08,1.0,41.8,M,59.3,M,,0000*7D
$GPGSA,A,3,15,09,27,22,12,18,17,14,,,,,2.1,1.0,1.8*38
$GPRMC,070004.000,A,6407.8646,N,01602.2027,W,36.89,114.51,020912,,,A*48
$GPGGA,070005.000,6407.8600,N,01602.1817,W,1,08,1.0,42.1,M,59.3,M,,0000*7C
$GPGSA,A,3,15,09,27,22,12,18,17,14,,,,,2.1,1.0,1.8*38
$GPGSV,3,1,12,09,78,151,29,27,68,111,36,22,37,281,33,15,33,150,31*72
$GPGSV,3,2,12,18,30,231,38,17,29,069,35,12,29,190,32,14,25,296,29*7B
$GPGSV,3,3,12,28,15,044,,01,14,007,,11,10,350,,26,00,131,35*71
$GPRMC,070005.000,A,6407.8600,N,01602.1817,W,36.92,116.13,020912,,,A*4D
$GPGGA,070006.000,6407.8552,N,01602.1609,W,1,08,1.0,42.2,M,59.3,M,,0000*79
$GPGSA,A,3,15,09,27,22,12,18,17,14,,,,,2.1,1.0,1.8*38
$GPRMC,070006.000,A,6407.8552,N,01602.1609,W,36.98,117.55,020912,,,A*42
$GPGGA,070007.000,6407.8502,N,01602.1404,W,1,08,1.0,42.3,M,59.3,M,,0000*73
$GPGSA,A,3,15,09,27,22,12,18,17,14,,,,,2.1,1.0,1.8*38
$GPRMC,070007.000,A,6407.8502,N,01602.1404,W,37.03,119.15,020912,,,A*40
$GPGGA,070008.000,6407.8448,N,01602.1204,W,1,08,1.0,42.5,M,59.3,M,,0000*73
$GPGSA,A,3,15,09,27,22,12,18,17,14,,,,,2.1,1.0,1.8*38
$GPRMC,070008.000,A,6407.8448,N,01602.1204,W,36.99,121.12,020912,,,A*48
$GPGGA,070009.000,6407.8391,N,01602.1008,W,1,08,1.0,42.7,M,59.3,M,,0000*7D
$GPGSA,A,3,15,09,27,22,12,18,17,14,,,,,2.1,1.0,1.8*38
$GPRMC,070009.000,A,6407.8391,N,01602.1008,W,36.96,123.17,020912,,,A*4C
$GPGGA,070010.000,6407.8332,N,01602.0817,W,1,08,1.0,42.9,M,59.3,M,,0000*75
$GPGSA,A,3,15,09,27,22,12,18,17,14,,,,,2.1,1.0,1.8*38
$GPGSV,3,1,12,09,78,151,23,27,68,111,37,22,37,281,29,15,33,150,31*72
$GPGSV,3,2,12,18,30,231,40,17,29,069,37,12,29,190,33,14,25,296,19*74
$GPGSV,3,3,12,28,15,044,,01,14,007,,11,10,350,,26,00,131,34*70
$GPRMC,070010.000,A,6407.8332,N,01602.0817,W,36.85,124.74,020912,,,A*4A
$GPGGA,070011.000,6407.8272,N,01602.0629,W,1,08,1.0,43.0,M,59.3,M,,0000*7A
$GPGSA,A,3,15,09,27,22,12,18,17,14,,,,,2.1,1.0,1.8*38
$GPRMC,070011.000,A,6407.8272,N,01602.0629,W,36.71,126.02,020912,,,A*45
$GPGGA,070012.000,6407.8209,N,01602.0443,W,1,08,1.0,43.2,M,59.3,M,,0000*79
$GPGSA,A,3,15,09,27,22,12,18,17,14,,,,,2.1,1.0,1.8*38
$GPRMC,070012.000,A,6407.8209,N,01602.0443,W,36.94,127.18,020912,,,A*45
$GPGGA,070013.000,6407.8146,N,01602.0258,W,1,08,1.0,43.4,M,59.3,M,,0000*7A
$GPGSA,A,3,15,09,27,22,12,18,17,14,,,,,2.1,1.0,1.8*38
$GPRMC,070013.000,A,6407.8146,N,01602.0258,W,36.98,127.72,020912,,,A*40
$GPGGA,070014.000,6407.8082,N,01602.0073,W,1,08,1.0,43.4,M,59.3,M,,0000*7F
$GPGSA,A,3,15,09,27,22,12,18,17,14,,,,,2.1,1.0,1.8*38
$GPRMC,070014.000,A,6407.8082,N,01602.0073,W,37.05,127.87,020912,,,A*4A
$GPGGA,070015.000,6407.8018,N,01601.9887,W,1,08,1.0,43.3,M,59.3,M,,0000*73
$GPGSA,A,3,15,09,27,22,12,18,17,14,,,,,2.1,1.0,1.8*38
$GPGSV,3,1,12,09,78,151,32,27,68,111,38,22,37,281,21,15,33,150,30*74
$GPGSV,3,2,12,18,30,231,40,17,29,069,34,12,29,190,27,14,25,296,18*73
$GPGSV,3,3,12,28,15,044,,01,14,007,,11,10,350,,26,00,131,25*70
$GPRMC,070015.000,A,6407.8018,N,01601.9887,W,37.12,127.51,020912,,,A*4C
$GPGGA,070016.000,6407.7954,N,01601.9698,W,1,08,1.0,43.0,M,59.3,M,,0000*7D
$GPGSA,A,3,15,09,27,22,12,18,17,14,,,,,2.1,1.0,1.8*38
$GPRMC,070016.000,A,6407.7954,N,01601.9698,W,37.58,127.22,020912,,,A*4B
$GPGGA,070017.000,6407.7892,N,01601.9507,W,1,08,1.0,42.8,M,59.3,M,,0000*7B
$GPGSA,A,3,15,09,27,22,12,18,17,14,,,,,2.1,1.0,1.8*38
$GPRMC,070017.000,A,6407.7892,N,01601.9507,W,37.49,126.01,020912,,,A*44
$GPGGA,070018.000,6407.7834,N,01601.9311,W,1,08,1.0,42.5,M,59.3,M,,0000*74
$GPGSA,A,3,15,09,27,22,12,18,17,14,,,,,2.1,1.0,1.8*38
$GPRMC,070018.000,A,6407.7834,N,01601.9311,W,37.34,123.54,020912,,,A*49
$GPGGA,070019.000,6407.7780,N,01601.9108,W,1,08,1.0,42.2,M,59.3,M,,0000*78
$GPGSA,A,3,15,09,27,22,12,18,17,14,,,,,2.1,1.0,1.8*38
$GPRMC,070019.000,A,6407.7780,N,01601.9108,W,37.41,120.77,020912,,,A*42
$GPGGA,070020.000,6407.7733,N,01601.8900,W,1,08,1.0,41.9,M,59.3,M,,0000*73
$GPGSA,A,3,15,09,27,22,12,18,17,14,,,,,2.1,1.0,1.8*38
$GPGSV,3,1,12,09,78,150,35,27,68,111,32,22,37,280,30,15,32,150,30*78
$GPGSV,3,2,12,18,30,231,40,17,29,069,30,12,29,190,30,14,25,296,33*78
$GPGSV,3,3,12,28,15,044,,01,14,007,,11,10,350,,26,00,131,33*77
$GPRMC,070020.000,A,6407.7733,N,01601.8900,W,37.07,116.90,020912,,,A*4F
$GPGGA,070021.000,6407.7691,N,01601.8686,W,1,08,1.0,41.6,M,59.3,M,,0000*75
$GPGSA,A,3,15,09,27,22,12,18,17,14,,,,,2.1,1.0,1.8*38
$GPRMC,070021.000,A,6407.7691,N,01601.8686,W,36.98,113.10,020912,,,A*4C
$GPGGA,070022.000,6407.7655,N,01601.8467,W,1,08,1.0,41.4,M,59.3,M,,0000*71
$GPGSA,A,3,15,09,27,22,12,18,17,14,,,,,2.1,1.0,1.8*38
$GPRMC,070022.000,A,6407.7655,N,01601.8467,W,36.97,109.77,020912,,,A*4F
$GPGGA,070023.000,6407.7626,N,01601.8244,W,1,08,1.0,41.2,M,59.3,M,,0000*75
$GPGSA,A,3,15,09,27,22,12,18,17,14,,,,,2.1,1.0,1.8*38
$GPRMC,070023.000,A,6407.7626,N,01601.8244,W,36.80,106.21,020912,,,A*47
$GPGGA,070024.000,6407.7601,N,01601.8017,W,1,08,1.0,41.0,M,59.3,M,,0000*71
$GPGSA,A,3,15,09,27,22,12,18,17,14,,,,,2.1,1.0,1.8*38
$GPRMC,070024.000,A,6407.7601,N,01601.8017,W,36.89,102.99,020912,,,A*4F
$GPGGA,070025.000,6407.7583,N,01601.7789,W,1,07,1.0,40.9,M,59.3,M,,0000*71
$GPGSA,A,3,15,09,22,12,18,17,14,,,,,,2.4,1.0,2.2*31
$GPGSV,3,1,12,09,78,150,36,27,68,111,13,22,37,280,30,15,32,150,33*7B
$GPGSV,3,2,12,18,30,231,35,17,29,069,24,12,29,190,37,14,25,296,27*7D
$GPGSV,3,3,12,28,15,044,,01,14,007,,11,10,350,,26,00,131,28*7D
$GPRMC,070025.000,A,6407.7583,N,01601.7789,W,36.90,99.82,020912,,,A*79
$GPGGA,070026.000,6407.7570,N,01601.7558,W,1,07,1.1,40.8,M,59.3,M,,0000*70
$GPGSA,A,3,15,09,27,12,18,17,14,,,,,,2.2,1.1,1.9*3B
$GPRMC,070026.000,A,6407.7570,N,01601.7558,W,36.97,96.58,020912,,,A*77
$GPGGA,070027.000,6407.7564,N,01601.7325,W,1,07,1.1,40.7,M,59.3,M,,0000*77
$GPGSA,A,3,15,09,27,12,18,17,14,,,,,,2.2,1.1,1.9*3B
$GPRMC,070027.000,A,6407.7564,N,01601.7325,W,36.98,93.10,020912,,,A*79
$GPGGA,070028.000,6407.7565,N,01601.7092,W,1,08,1.0,40.6,M,59.3,M,,0000*79
$GPGSA,A,3,15,09,27,22,12,18,17,14,,,,,2.1,1.0,1.9*39
$GPRMC,070028.000,A,6407.7565,N,01601.7092,W,36.98,89.64,020912,,,A*70
$GPGGA,070029.000,6407.7571,N,01601.6858,W,1,08,1.0,40.6,M,59.3,M,,0000*72
$GPGSA,A,3,15,09,27,22,12,18,17,14,,,,,2.1,1.0,1.9*39
$GPRMC,070029.000,A,6407.7571,N,01601.6858,W,37.08,86.78,020912,,,A*71
$GPGGA,070030.000,6407.7580,N,01601.6626,W,1,08,1.0,40.5,M,59.3,M,,0000*70
$GPGSA,A,3,15,09,27,22,12,18,17,14,,,,,2.1,1.0,1.9*39
$GPGSV,3,1,12,09,78,150,38,27,68,111,34,22,37,280,33,15,32,150,33*73
$GPGSV,3,2,12,18,30,231,29,17,29,069,34,12,29,190,36,14,25,296,24*73
$GPGSV,3,3,12,28,15,044,,01,14,007,,11,10,350,,26,00,131,28*7D
$GPRMC,070030.000,A,6407.7580,N,01601.6626,W,36.99,84.61,020912,,,A*73
$GPGGA,070031.000,6407.7593,N,01601.6394,W,1,08,1.0,40.5,M,59.3,M,,0000*7F
$GPGSA,A,3,15,09,27,22,12,18,17,14,,,,,2.1,1.0,1.9*39
$GPRMC,070031.000,A,6407.7593,N,01601.6394,W,36.91,82.62,020912,,,A*71
$GPGGA,070032.000,6407.7609,N,01601.6162,W,1,08,1.0,40.6,M,59.3,M,,0000*74
$GPGSA,A,3,15,09,27,22,12,18,17,14,,,,,2.1,1.0,1.9*39
$GPRMC,070032.000,A,6407.7609,N,01601.6162,W,36.98,81.08,020912,,,A*7F
$GPGGA,070033.000,6407.7629,N,01601.5932,W,1,08,1.0,40.7,M,59.3,M,,0000*78
$GPGSA,A,3,15,09,27,22,12,18,17,14,,,,,2.1,1.0,1.9*39
$GPRMC,070033.000,A,6407.7629,N,01601.5932,W,36.90,79.10,020912,,,A*74
$GPGGA,070034.000,6407.7653,N,01601.5705,W,1,08,1.0,40.8,M,59.3,M,,0000*77
$GPGSA,A,3,15,09,27,22,12,18,17,14,,,,,2.1,1.0,1.9*39
$GPRMC,070034.000,A,6407.7653,N,01601.5705,W,36.73,76.78,020912,,,A*78
$GPGGA,070035.000,6407.7679,N,01601.5479,W,1,08,1.0,41.0,M,59.3,M,,0000*7F
$GPGSA,A,3,15,09,27,22,12,18,17,14,,,,,2.1,1.0,1.9*39
$GPGSV,3,1,12,09,78,150,31,27,68,111,35,22,37,280,31,15,32,150,33*79
$GPGSV,3,2,12,18,30,231,33,17,29,069,25,12,29,190,39,14,25,296,30*72
$GPGSV,3,3,12,28,15,044,,01,14,007,,11,10,350,,26,00,131,14*72
$GPRMC,070035.000,A,6407.7679,N,01601.5479,W,36.83,75.00,020912,,,A*7A
$GPGGA,070036.000,6407.7709,N,01601.5254,W,1,07,1.1,41.2,M,59.3,M,,0000*7F
$GPGSA,A,3,15,09,27,12,18,17,14,,,,,,2.2,1.1,1.9*3B
$GPRMC,070036.000,A,6407.7709,N,01601.5254,W,36.94,73.46,020912,,,A*74
$GPGGA,070037.000,6407.7740,N,01601.5029,W,1,08,1.0,41.4,M,59.3,M,,0000*73
$GPGSA,A,3,15,09,27,22,12,18,17,14,,,,,2.1,1.0,1.9*39
$GPRMC,070037.000,A,6407.7740,N,01601.5029,W,37.22,72.22,020912,,,A*7F
$GPGGA,070038.000,6407.7774,N,01601.4805,W,1,08,1.0,41.6,M,59.3,M,,0000*7E
$GPGSA,A,3,15,09,27,22,12,18,17,14,,,,,2.1,1.0,1.9*39
$GPRMC,070038.000,A,6407.7774,N,01601.4805,W,37.17,71.06,020912,,,A*73
$GPGGA,070039.000,6407.7810,N,01601.4585,W,1,08,1.0,41.8,M,59.3,M,,0000*79
$GPGSA,A,3,15,09,27,22,12,18,17,14,,,,,2.1,1.0,1.9*39
$GPRMC,070039.000,A,6407.7810,N,01601.4585,W,36.94,69.69,020912,,,A*70
$GPGGA,070040.000,6407.7847,N,01601.4366,W,1,08,1.0,42.0,M,59.3,M,,0000*75
$GPGSA,A,3,15,09,27,22,12,18,17,14,,,,,2.1,1.0,1.9*39
$GPGSV,3,1,12,09,78,150,30,27,68,111,16,22,37,280,29,15,32,150,32*71
$GPGSV,3,2,12,18,30,231,24,17,29,069,29,12,29,190,38,14,25,296,20*78
$GPGSV,3,3,12,28,15,044,,01,14,007,,11,10,350,,26,00,131,18*7E
$GPRMC,070040.000,A,6407.7847,N,01601.4366,W,36.90,68.90,020912,,,A*74
$GPGGA,070041.000,6407.7885,N,01601.4149,W,1,08,1.0,42.3,M,59.3,M,,0000*76
$GPGSA,A,3,15,09,27,22,12,18,17,14,,,,,2.1,1.0,1.9*39
$GPRMC,070041.000,A,6407.7885,N,01601.4149,W,36.90,67.67,020912,,,A*73
$GPGGA,070042.000,6407.7926,N,01601.3933,W,1,08,1.0,42.5,M,59.3,M,,0000*79
$GPGSA,A,3,15,09,27,22,12,18,17,14,,,,,2.1,1.0,1.9*39
$GPRMC,070042.000,A,6407.7926,N,01601.3933,W,37.02,66.65,020912,,,A*73
$GPGGA,070043.000,6407.7969,N,01601.3717,W,1,08,1.0,42.6,M,59.3,M,,0000*78
$GPGSA,A,3,15,09,27,22,12,18,17,14,,,,,2.1,1.0,1.9*39
$GPRMC,070043.000,A,6407.7969,N,01601.3717,W,37.26,65.74,020912,,,A*74
$GPGGA,070044.000,6407.8012,N,01601.3502,W,1,08,1.0,42.7,M,59.3,M,,0000*72
$GPGSA,A,3,15,09,27,22,12,18,17,14,,,,,2.1,1.0,1.9*39
$GPRMC,070044.000,A,6407.8012,N,01601.3502,W,37.43,65.04,020912,,,A*7B
$GPGGA,070045.000,6407.8057,N,01601.3287,W,1,08,1.0,42.7,M,59.3,M,,0000*78
$GPGSA,A,3,15,09,27,22,12,18,17,14,,,,,2.1,1.0,1.9*39
$GPGSV,3,1,12,09,78,150,36,27,68,111,29,22,37,280,34,15,32,150,31*74
$GPGSV,3,2,12,18,30,231,27,17,29,069,21,12,29,190,34,14,25,296,20*7F
$GPGSV,3,3,12,28,15,044,,01,14,007,,11,10,350,,26,00,131,19*7F
$GPRMC,070045.000,A,6407.8057,N,01601.3287,W,37.52,64.40,020912,,,A*70
$GPGGA,070046.000,6407.8103,N,01601.3076,W,1,08,1.0,42.5,M,59.3,M,,0000*75
$GPGSA,A,3,15,09,27,22,12,18,17,14,,,,,2.1,1.0,1.9*39
$GPRMC,070046.000,A,6407.8103,N,01601.3076,W,37.05,63.76,020912,,,A*7F
$GPGGA,070047.000,6407.8148,N,01601.2866,W,1,08,1.0,42.3,M,59.3,M,,0000*75
