$GPGGA,073339.000,6357.7565,N,02224.9957,W,1,05,2.0,54.0,M,60.8,M,,0000*79
$GPGSA,A,3,12,09,01,27,17,,,,,,,,3.3,2.0,2.7*3D
$GPRMC,073339.000,A,6357.7565,N,02224.9957,W,42.47,80.94,290812,,,A*73
$GPGGA,073340.000,6357.7584,N,02224.9694,W,1,05,2.0,53.8,M,60.8,M,,0000*77
$GPGSA,A,3,12,09,01,27,17,,,,,,,,3.3,2.0,2.7*3D
$GPRMC,073340.000,A,6357.7584,N,02224.9694,W,42.10,80.51,290812,,,A*79
$GPGGA,073341.000,6357.7603,N,02224.9430,W,1,05,2.0,53.6,M,60.8,M,,0000*78
$GPGSA,A,3,12,09,01,27,17,,,,,,,,3.3,2.0,2.7*3D
$GPRMC,073341.000,A,6357.7603,N,02224.9430,W,42.06,80.55,290812,,,A*7B
$GPGGA,073342.000,6357.7622,N,02224.9167,W,1,05,2.0,53.2,M,60.8,M,,0000*7B
$GPGSA,A,3,12,09,01,27,17,,,,,,,,3.3,2.0,2.7*3D
$GPGSV,3,1,12,09,70,111,31,27,57,099,32,12,37,180,43,17,27,056,45*7B
$GPGSV,3,2,12,01,15,356,33,22,38,266,30,14,35,291,28,18,25,219,35*75
$GPGSV,3,3,12,15,23,143,39,11,08,340,44,28,06,038,33,25,06,203,37*7F
$GPRMC,073342.000,A,6357.7622,N,02224.9167,W,41.99,80.54,290812,,,A*78
$GPGGA,073343.000,6357.7640,N,02224.8903,W,1,05,2.0,52.9,M,60.8,M,,0000*7F
$GPGSA,A,3,12,09,01,27,17,,,,,,,,3.3,2.0,2.7*3D
$GPRMC,073343.000,A,6357.7640,N,02224.8903,W,41.98,80.69,290812,,,A*79
$GPGGA,073344.000,6357.7659,N,02224.8639,W,1,05,2.0,52.5,M,60.8,M,,0000*7A
$GPGSA,A,3,12,09,01,27,17,,,,,,,,3.3,2.0,2.7*3D
$GPRMC,073344.000,A,6357.7659,N,02224.8639,W,42.04,80.78,290812,,,A*76
$GPGGA,073345.000,6357.7678,N,02224.8374,W,1,05,2.0,52.1,M,60.8,M,,0000*70
$GPGSA,A,3,12,09,01,27,17,,,,,,,,3.3,2.0,2.7*3D
$GPRMC,073345.000,A,6357.7678,N,02224.8374,W,42.17,80.67,290812,,,A*74
$GPGGA,073346.000,6357.7696,N,02224.8110,W,1,05,2.0,51.7,M,60.8,M,,0000*76
$GPGSA,A,3,12,09,01,27,17,,,,,,,,3.3,2.0,2.7*3D
$GPRMC,073346.000,A,6357.7696,N,02224.8110,W,42.07,80.67,290812,,,A*76
$GPGGA,073347.000,6357.7714,N,02224.7846,W,1,05,2.0,51.4,M,60.8,M,,0000*7A
$GPGSA,A,3,12,09,01,27,17,,,,,,,,3.4,2.0,2.7*3A
$GPGSV,3,1,12,09,70,111,24,27,57,099,38,22,38,266,32,12,38,180,38*7F
$GPGSV,3,2,12,14,35,291,28,17,27,056,43,18,25,219,33,15,23,143,39*72
$GPGSV,3,3,12,01,15,356,36,11,08,339,43,28,06,038,32,25,06,203,37*7E
$GPRMC,073347.000,A,6357.7714,N,02224.7846,W,42.09,80.90,290812,,,A*7F
$GPGGA,073348.000,6357.7733,N,02224.7581,W,1,05,2.0,50.9,M,60.8,M,,0000*7A
$GPGSA,A,3,12,09,01,27,17,,,,,,,,3.4,2.0,2.7*3A
$GPRMC,073348.000,A,6357.7733,N,02224.7581,W,42.15,80.86,290812,,,A*79
$GPGGA,073349.000,6357.7751,N,02224.7316,W,1,05,2.0,50.3,M,60.8,M,,0000*7D
$GPGSA,A,3,12,09,01,27,17,,,,,,,,3.4,2.0,2.7*3A
$GPRMC,073349.000,A,6357.7751,N,02224.7316,W,42.34,80.76,290812,,,A*78
$GPGGA,073350.000,6357.7770,N,02224.7049,W,1,05,2.0,49.9,M,60.8,M,,0000*7D
$GPGSA,A,3,12,09,01,27,17,,,,,,,,3.4,2.0,2.7*3A
$GPRMC,073350.000,A,6357.7770,N,02224.7049,W,42.59,80.55,290812,,,A*70
$GPGGA,073351.000,6357.7789,N,02224.6781,W,1,05,2.0,49.4,M,60.8,M,,0000*75
$GPGSA,A,3,12,09,01,27,17,,,,,,,,3.4,2.0,2.7*3A
$GPRMC,073351.000,A,6357.7789,N,02224.6781,W,42.73,80.47,290812,,,A*7E
$GPGGA,073352.000,6357.7808,N,02224.6513,W,1,05,2.0,48.8,M,60.8,M,,0000*74
$GPGSA,A,3,12,09,01,27,17,,,,,,,,3.4,2.0,2.7*3A
$GPGSV,3,1,12,09,70,111,23,27,57,099,37,22,38,266,33,12,38,180,34*7A
$GPGSV,3,2,12,14,35,291,29,17,27,056,43,18,25,219,26,15,23,143,40*79
$GPGSV,3,3,12,01,15,356,37,11,08,339,43,28,06,038,33,25,06,203,28*70
$GPRMC,073352.000,A,6357.7808,N,02224.6513,W,42.73,80.78,290812,,,A*7E
$GPGGA,073353.000,6357.7826,N,02224.6246,W,1,05,2.0,48.3,M,60.8,M,,0000*75
$GPGSA,A,3,12,09,01,27,17,,,,,,,,3.4,2.0,2.7*3A
$GPRMC,073353.000,A,6357.7826,N,02224.6246,W,42.60,81.03,290812,,,A*7B
$GPGGA,073354.000,6357.7845,N,02224.5980,W,1,05,2.0,48.0,M,60.8,M,,0000*76
$GPGSA,A,3,12,09,01,27,17,,,,,,,,3.4,2.0,2.7*3A
$GPRMC,073354.000,A,6357.7845,N,02224.5980,W,42.61,80.83,290812,,,A*73
$GPGGA,073355.000,6357.7864,N,02224.5714,W,1,05,2.0,47.7,M,60.8,M,,0000*7F
$GPGSA,A,3,12,09,01,27,17,,,,,,,,3.4,2.0,2.7*3A
$GPRMC,073355.000,A,6357.7864,N,02224.5714,W,42.58,80.36,290812,,,A*76
$GPGGA,073356.000,6357.7884,N,02224.5449,W,1,05,2.0,47.7,M,60.8,M,,0000*79
$GPGSA,A,3,12,09,01,27,17,,,,,,,,3.4,2.0,2.7*3A
$GPRMC,073356.000,A,6357.7884,N,02224.5449,W,42.43,80.31,290812,,,A*7D
$GPGGA,073357.000,6357.7905,N,02224.5185,W,1,05,2.0,47.8,M,60.8,M,,0000*7A
$GPGSA,A,3,12,09,01,27,17,,,,,,,,3.4,2.0,2.7*3A
$GPGSV,3,1,12,09,70,111,29,27,57,099,37,22,38,266,34,12,38,180,23*71
$GPGSV,3,2,12,14,35,291,30,17,27,056,43,18,25,219,31,15,23,143,40*77
$GPGSV,3,3,12,01,15,356,38,11,08,339,44,28,06,038,34,25,06,203,29*7E
$GPRMC,073357.000,A,6357.7905,N,02224.5185,W,42.39,79.71,290812,,,A*7E
$GPGGA,073358.000,6357.7927,N,02224.4922,W,1,05,2.0,47.8,M,60.8,M,,0000*71
$GPGSA,A,3,12,09,01,27,17,,,,,,,,3.4,2.0,2.7*3A
$GPRMC,073358.000,A,6357.7927,N,02224.4922,W,42.30,79.55,290812,,,A*7A
$GPGGA,073359.000,6357.7947,N,02224.4658,W,1,05,2.0,47.7,M,60.8,M,,0000*7B
$GPGSA,A,3,12,09,01,27,17,,,,,,,,3.4,2.0,2.7*3A
$GPRMC,073359.000,A,6357.7947,N,02224.4658,W,42.43,79.76,290812,,,A*7A
$GPGGA,073400.000,6357.7967,N,02224.4397,W,1,05,2.0,47.6,M,60.8,M,,0000*75
$GPGSA,A,3,12,09,01,27,17,,,,,,,,3.4,2.0,2.7*3A
$GPRMC,073400.000,A,6357.7967,N,02224.4397,W,42.01,80.24,290812,,,A*72
$GPGGA,073401.000,6357.7986,N,02224.4131,W,1,05,2.0,47.4,M,60.8,M,,0000*77
$GPGSA,A,3,12,09,01,27,17,,,,,,,,3.4,2.0,2.7*3A
$GPRMC,073401.000,A,6357.7986,N,02224.4131,W,42.83,80.43,290812,,,A*79
$GPGGA,073402.000,6357.8006,N,02224.3865,W,1,05,2.0,47.3,M,60.8,M,,0000*72
$GPGSA,A,3,12,09,01,27,17,,,,,,,,3.4,2.0,2.7*3A
$GPGSV,3,1,12,09,70,111,33,27,57,099,47,22,38,266,,12,38,180,49*76
$GPGSV,3,2,12,14,35,291,30,17,27,056,38,18,25,219,34,15,23,143,36*7F
$GPGSV,3,3,12,01,15,356,39,11,08,339,41,28,06,038,30,25,06,203,30*76
$GPRMC,073402.000,A,6357.8006,N,02224.3865,W,42.82,80.20,290812,,,A*7F
$GPGGA,073403.000,6357.8026,N,02224.3598,W,1,05,2.0,47.2,M,60.8,M,,0000*7F
$GPGSA,A,3,12,09,01,27,17,,,,,,,,3.4,2.0,2.7*3A
$GPRMC,073403.000,A,6357.8026,N,02224.3598,W,42.89,80.25,290812,,,A*7D
$GPGGA,073404.000,6357.8046,N,02224.3332,W,1,06,1.6,47.0,M,60.8,M,,0000*7C
$GPGSA,A,3,15,12,09,01,27,17,,,,,,,2.4,1.6,1.9*37
$GPRMC,073404.000,A,6357.8046,N,02224.3332,W,42.91,80.40,290812,,,A*70
$GPGGA,073405.000,6357.8066,N,02224.3066,W,1,06,1.6,46.8,M,60.8,M,,0000*74
$GPGSA,A,3,15,12,09,01,27,17,,,,,,,2.4,1.6,1.9*37
$GPRMC,073405.000,A,6357.8066,N,02224.3066,W,42.82,80.32,290812,,,A*76
$GPGGA,073406.000,6357.8087,N,02224.2801,W,1,06,1.6,46.5,M,60.8,M,,0000*7D
$GPGSA,A,3,15,12,09,01,27,17,,,,,,,2.4,1.6,1.9*37
$GPRMC,073406.000,A,6357.8087,N,02224.2801,W,42.77,79.62,290812,,,A*7B
$GPGGA,073407.000,6357.8110,N,02224.2536,W,1,06,1.6,46.3,M,60.8,M,,0000*7C
$GPGSA,A,3,15,12,09,01,27,17,,,,,,,2.4,1.6,1.9*37
$GPGSV,3,1,12,09,69,111,35,27,57,099,47,22,38,266,28,12,38,180,49*72
$GPGSV,3,2,12,14,35,291,25,17,27,056,38,18,25,219,35,15,23,143,36*7A
$GPGSV,3,3,12,01,15,356,40,11,08,339,41,25,06,203,31,28,06,038,36*7F
$GPRMC,073407.000,A,6357.8110,N,02224.2536,W,42.74,78.63,290812,,,A*7F
$GPGGA,073408.000,6357.8134,N,02224.2273,W,1,06,1.6,46.0,M,60.8,M,,0000*70
$GPGSA,A,3,15,12,09,01,27,17,,,,,,,2.4,1.6,1.9*37
$GPRMC,073408.000,A,6357.8134,N,02224.2273,W,42.67,78.20,290812,,,A*75
$GPGGA,073409.000,6357.8158,N,02224.2011,W,1,06,1.6,45.7,M,60.8,M,,0000*79
$GPGSA,A,3,15,12,09,01,27,17,,,,,,,2.4,1.6,1.9*37
$GPRMC,073409.000,A,6357.8158,N,02224.2011,W,42.58,77.82,290812,,,A*73
$GPGGA,073410.000,6357.8184,N,02224.1749,W,1,06,1.6,45.4,M,60.8,M,,0000*7A
$GPGSA,A,3,15,12,09,01,27,17,,,,,,,2.4,1.6,1.9*37
$GPRMC,073410.000,A,6357.8184,N,02224.1749,W,42.56,77.54,290812,,,A*76
$GPGGA,073411.000,6357.8210,N,02224.1489,W,1,06,1.6,45.2,M,60.8,M,,0000*7C
$GPGSA,A,3,15,12,09,01,27,17,,,,,,,2.4,1.6,1.9*37
$GPRMC,073411.000,A,6357.8210,N,02224.1489,W,42.47,77.13,290812,,,A*75
$GPGGA,073412.000,6357.8236,N,02224.1228,W,1,06,1.6,44.9,M,60.8,M,,0000*7C
$GPGSA,A,3,15,12,09,01,27,17,,,,,,,2.4,1.6,1.9*37
$GPGSV,3,1,12,09,69,111,35,27,57,099,47,22,38,266,,12,38,180,48*79
$GPGSV,3,2,12,14,35,291,26,17,27,056,38,18,25,219,39,15,23,143,34*77
$GPGSV,3,3,12,01,15,356,35,11,08,339,40,25,06,203,21,28,06,038,36*7D
$GPRMC,073412.000,A,6357.8236,N,02224.1228,W,42.46,77.00,290812,,,A*7C
$GPGGA,073413.000,6357.8263,N,02224.0968,W,1,06,1.6,44.7,M,60.8,M,,0000*7D
$GPGSA,A,3,15,12,09,01,27,17,,,,,,,2.4,1.6,1.9*37
$GPRMC,073413.000,A,6357.8263,N,02224.0968,W,42.47,76.92,290812,,,A*78
$GPGGA,073414.000,6357.8290,N,02224.0708,W,1,06,1.6,44.5,M,60.8,M,,0000*7C
$GPGSA,A,3,15,12,09,01,27,17,,,,,,,2.4,1.6,1.9*37
$GPRMC,073414.000,A,6357.8290,N,02224.0708,W,42.49,76.70,290812,,,A*79
$GPGGA,073415.000,6357.8318,N,02224.0448,W,1,06,1.6,44.3,M,60.8,M,,0000*7D
$GPGSA,A,3,15,12,09,01,27,17,,,,,,,2.4,1.6,1.9*37
$GPRMC,073415.000,A,6357.8318,N,02224.0448,W,42.56,76.23,290812,,,A*76
$GPGGA,073416.000,6357.8347,N,02224.0189,W,1,06,1.6,44.1,M,60.8,M,,0000*7E
$GPGSA,A,3,15,12,09,01,27,17,,,,,,,2.4,1.6,1.9*37
$GPRMC,073416.000,A,6357.8347,N,02224.0189,W,42.70,75.65,290812,,,A*72
$GPGGA,073417.000,6357.8378,N,02223.9929,W,1,06,1.6,43.9,M,60.8,M,,0000*70
$GPGSA,A,3,15,12,09,01,27,17,,,,,,,2.4,1.6,1.9*37
$GPGSV,3,1,12,09,69,111,36,27,57,099,47,22,38,266,,12,38,180,47*75
$GPGSV,3,2,12,14,35,291,37,17,27,056,38,18,25,219,38,15,23,143,31*73
$GPGSV,3,3,12,01,15,356,36,11,08,339,40,25,06,203,29,28,06,038,37*77
$GPRMC,073417.000,A,6357.8378,N,02223.9929,W,42.76,74.96,290812,,,A*78
$GPGGA,073418.000,6357.8410,N,02223.9671,W,1,06,1.6,43.8,M,60.8,M,,0000*75
$GPGSA,A,3,15,12,09,01,27,17,,,,,,,2.4,1.6,1.9*37
$GPRMC,073418.000,A,6357.8410,N,02223.9671,W,42.75,74.24,290812,,,A*76
$GPGGA,073419.000,6357.8443,N,02223.9413,W,1,06,1.6,43.6,M,60.8,M,,0000*7A
$GPGSA,A,3,15,12,09,01,27,17,,,,,,,2.4,1.6,1.9*37
$GPRMC,073419.000,A,6357.8443,N,02223.9413,W,42.83,73.70,290812,,,A*78
$GPGGA,073420.000,6357.8477,N,02223.9155,W,1,06,1.6,43.5,M,60.8,M,,0000*73
$GPGSA,A,3,15,12,09,01,27,17,,,,,,,2.4,1.6,1.9*37
$GPRMC,073420.000,A,6357.8477,N,02223.9155,W,42.86,73.29,290812,,,A*7B
$GPGGA,073421.000,6357.8512,N,02223.8898,W,1,06,1.6,43.4,M,60.8,M,,0000*78
$GPGSA,A,3,15,12,09,01,27,17,,,,,,,2.4,1.6,1.9*37
$GPRMC,073421.000,A,6357.8512,N,02223.8898,W,42.94,72.82,290812,,,A*72
$GPGGA,073422.000,6357.8549,N,02223.8641,W,1,06,1.6,43.4,M,60.8,M,,0000*7F
$GPGSA,A,3,15,12,09,01,27,17,,,,,,,2.4,1.6,1.9*37
$GPGSV,3,1,12,09,69,111,37,27,57,099,45,22,38,266,,12,38,180,46*77
$GPGSV,3,2,12,14,35,291,36,17,27,056,37,18,25,219,30,15,23,143,22*77
$GPGSV,3,3,12,01,15,356,38,11,08,339,39,25,06,203,22,28,06,038,36*7D
$GPRMC,073422.000,A,6357.8549,N,02223.8641,W,43.05,72.37,290812,,,A*72
$GPGGA,073423.000,6357.8586,N,02223.8385,W,1,06,1.6,43.3,M,60.8,M,,0000*77
$GPGSA,A,3,15,12,09,01,27,17,,,,,,,2.4,1.6,1.9*37
$GPRMC,073423.000,A,6357.8586,N,02223.8385,W,42.97,71.80,290812,,,A*78
$GPGGA,073424.000,6357.8624,N,02223.8130,W,1,06,1.6,43.2,M,60.8,M,,0000*76
$GPGSA,A,3,15,12,09,01,27,17,,,,,,,2.4,1.6,1.9*37
$GPRMC,073424.000,A,6357.8624,N,02223.8130,W,42.90,71.19,290812,,,A*7F
$GPGGA,073425.000,6357.8663,N,02223.7876,W,1,06,1.6,43.1,M,60.8,M,,0000*73
$GPGSA,A,3,15,12,09,01,27,17,,,,,,,2.4,1.6,1.9*37
$GPRMC,073425.000,A,6357.8663,N,02223.7876,W,42.89,70.98,290812,,,A*79
$GPGGA,073426.000,6357.8702,N,02223.7622,W,1,06,1.6,43.1,M,60.8,M,,0000*79
$GPGSA,A,3,15,12,09,01,27,17,,,,,,,2.4,1.6,1.9*37
$GPRMC,073426.000,A,6357.8702,N,02223.7622,W,42.81,70.71,290812,,,A*7C
$GPGGA,073427.000,6357.8742,N,02223.7371,W,1,06,1.6,43.0,M,60.8,M,,0000*7E
$GPGSA,A,3,15,12,09,01,27,17,,,,,,,2.4,1.6,1.9*37
$GPGSV,3,1,12,09,69,111,39,27,57,099,43,22,38,266,29,12,38,180,44*76
$GPGSV,3,2,12,14,35,291,31,17,27,056,36,18,25,219,25,15,23,143,33*75
$GPGSV,3,3,12,01,15,356,39,11,08,339,40,25,06,203,27,28,06,038,35*74
$GPRMC,073427.000,A,6357.8742,N,02223.7371,W,42.57,70.22,290812,,,A*77
$GPGGA,073428.000,6357.8783,N,02223.7121,W,1,06,1.6,42.9,M,60.8,M,,0000*73
$GPGSA,A,3,15,12,09,01,27,17,,,,,,,2.4,1.6,1.9*37
$GPRMC,073428.000,A,6357.8783,N,02223.7121,W,42.37,69.72,290812,,,A*79
$GPGGA,073429.000,6357.8824,N,02223.6873,W,1,06,1.6,42.7,M,60.8,M,,0000*71
$GPGSA,A,3,15,12,09,01,27,17,,,,,,,2.4,1.6,1.9*37
$GPRMC,073429.000,A,6357.8824,N,02223.6873,W,42.21,69.36,290812,,,A*72
$GPGGA,073430.000,6357.8866,N,02223.6626,W,1,06,1.6,42.6,M,60.8,M,,0000*70
$GPGSA,A,3,15,12,09,01,27,17,,,,,,,2.4,1.6,1.9*37
$GPRMC,073430.000,A,6357.8866,N,02223.6626,W,42.14,69.11,290812,,,A*71
$GPGGA,073431.000,6357.8908,N,02223.6380,W,1,06,1.6,42.4,M,60.8,M,,0000*73
$GPGSA,A,3,15,12,09,01,27,17,,,,,,,2.4,1.6,1.9*37
$GPRMC,073431.000,A,6357.8908,N,02223.6380,W,41.99,68.89,290812,,,A*76
$GPGGA,073432.000,6357.8950,N,02223.6135,W,1,06,1.6,42.1,M,60.8,M,,0000*74
$GPGSA,A,3,15,12,09,01,27,17,,,,,,,2.4,1.6,1.9*37
$GPGSV,3,1,12,09,69,111,40,27,57,099,38,22,38,266,29,12,38,180,44*74
$GPGSV,3,2,12,14,35,291,31,17,27,056,36,18,25,219,35,15,23,143,38*7F
$GPGSV,3,3,12,01,15,356,41,11,08,339,40,25,06,203,30,28,06,038,29*70
$GPRMC,073432.000,A,6357.8950,N,02223.6135,W,41.77,68.68,290812,,,A*7B
$GPGGA,073433.000,6357.8992,N,02223.5891,W,1,06,1.6,41.8,M,60.8,M,,0000*75
$GPGSA,A,3,15,12,09,01,27,17,,,,,,,2.4,1.6,1.9*37
$GPRMC,073433.000,A,6357.8992,N,02223.5891,W,41.60,68.42,290812,,,A*7E
$GPGGA,073434.000,6357.9035,N,02223.5649,W,1,08,0.9,41.5,M,60.8,M,,0000*71
$GPGSA,A,3,18,15,12,09,01,27,17,14,,,,,2.0,0.9,1.8*30
$GPRMC,073434.000,A,6357.9035,N,02223.5649,W,41.44,68.05,290812,,,A*72
$GPGGA,073435.000,6357.9079,N,02223.5408,W,1,08,0.9,41.2,M,60.8,M,,0000*78
$GPGSA,A,3,18,15,12,09,01,27,17,14,,,,,2.0,0.9,1.8*30
$GPRMC,073435.000,A,6357.9079,N,02223.5408,W,41.47,67.71,290812,,,A*73
$GPGGA,073436.000,6357.9123,N,02223.5165,W,1,08,0.9,40.8,M,60.8,M,,0000*70
$GPGSA,A,3,18,15,12,09,01,27,17,14,,,,,2.0,0.9,1.8*30
$GPRMC,073436.000,A,6357.9123,N,02223.5165,W,41.75,67.54,290812,,,A*76
$GPGGA,073437.000,6357.9168,N,02223.4920,W,1,08,0.9,40.4,M,60.8,M,,0000*7A
$GPGSA,A,3,18,15,12,09,01,27,17,14,,,,,2.0,0.9,1.8*30
$GPGSV,3,1,12,09,69,111,41,27,57,099,39,22,38,265,36,12,38,180,42*7F
$GPGSV,3,2,12,14,35,291,32,17,27,056,36,18,25,218,36,15,23,143,28*7F
$GPGSV,3,3,12,01,15,356,41,11,08,339,40,25,06,203,25,28,06,038,35*79
$GPRMC,073437.000,A,6357.9168,N,02223.4920,W,42.05,67.46,290812,,,A*77
$GPGGA,073438.000,6357.9213,N,02223.4673,W,1,08,0.9,39.9,M,60.8,M,,0000*70
$GPGSA,A,3,18,15,12,09,01,27,17,14,,,,,2.0,0.9,1.8*30
$GPRMC,073438.000,A,6357.9213,N,02223.4673,W,42.43,67.25,290812,,,A*79
$GPGGA,073439.000,6357.9259,N,02223.4425,W,1,08,0.9,39.4,M,60.8,M,,0000*73
$GPGSA,A,3,18,15,12,09,01,27,17,14,,,,,2.0,0.9,1.8*30
$GPRMC,073439.000,A,6357.9259,N,02223.4425,W,42.80,67.07,290812,,,A*78
$GPGGA,073440.000,6357.9305,N,02223.4174,W,1,08,0.9,38.8,M,60.8,M,,0000*79
$GPGSA,A,3,18,15,12,09,01,27,17,14,,,,,2.0,0.9,1.8*30
$GPRMC,073440.000,A,6357.9305,N,02223.4174,W,43.16,67.30,290812,,,A*75
$GPGGA,073441.000,6357.9351,N,02223.3922,W,1,08,0.9,38.3,M,60.8,M,,0000*7E
$GPGSA,A,3,18,15,12,09,01,27,17,14,,,,,2.0,0.9,1.8*30
$GPRMC,073441.000,A,6357.9351,N,02223.3922,W,43.40,67.54,290812,,,A*78
$GPGGA,073442.000,6357.9397,N,02223.3669,W,1,08,0.9,37.7,M,60.8,M,,0000*7C
$GPGSA,A,3,18,15,12,09,01,27,17,14,,,,,2.0,0.9,1.8*30
$GPGSV,3,1,12,09,69,111,41,27,57,099,39,22,38,265,35,12,38,180,41*7F
$GPGSV,3,2,12,14,35,291,32,17,27,056,36,18,25,218,36,15,23,143,28*7F
$GPGSV,3,3,12,01,15,356,41,11,08,339,41,25,06,203,27,28,06,038,36*79
$GPRMC,073442.000,A,6357.9397,N,02223.3669,W,43.47,67.42,290812,,,A*71
$GPGGA,073443.000,6357.9442,N,02223.3415,W,1,08,0.9,37.1,M,60.8,M,,0000*7D
$GPGSA,A,3,18,15,12,09,01,27,17,14,,,,,2.0,0.9,1.8*30
$GPRMC,073443.000,A,6357.9442,N,02223.3415,W,43.46,67.74,290812,,,A*72
$GPGGA,073444.000,6357.9487,N,02223.3162,W,1,08,0.9,36.5,M,60.8,M,,0000*73
$GPGSA,A,3,18,15,12,09,01,27,17,14,,,,,2.0,0.9,1.8*30
$GPRMC,073444.000,A,6357.9487,N,02223.3162,W,43.38,67.97,290812,,,A*7D
$GPGGA,073445.000,6357.9532,N,02223.2909,W,1,07,1.1,36.0,M,60.8,M,,0000*7A
$GPGSA,A,3,18,12,09,01,27,17,14,,,,,,2.4,1.1,2.1*33
$GPRMC,073445.000,A,6357.9532,N,02223.2909,W,43.37,67.81,290812,,,A*7F
$GPGGA,073446.000,6357.9578,N,02223.2655,W,1,08,0.9,35.4,M,60.8,M,,0000*70
$GPGSA,A,3,18,15,12,09,01,27,17,14,,,,,2.0,0.9,1.8*30
$GPRMC,073446.000,A,6357.9578,N,02223.2655,W,43.43,67.76,290812,,,A*7F
$GPGGA,073447.000,6357.9623,N,02223.2401,W,1,08,0.9,34.8,M,60.8,M,,0000*72
$GPGSA,A,3,18,15,12,09,01,27,17,14,,,,,2.0,0.9,1.8*30
$GPGSV,3,1,12,09,69,111,41,27,57,099,40,22,38,265,35,12,38,180,42*72
$GPGSV,3,2,12,14,35,291,33,17,27,056,36,18,25,218,36,15,23,143,33*74
$GPGSV,3,3,12,01,15,356,42,11,08,339,41,25,06,203,25,28,06,038,35*7B
$GPRMC,073447.000,A,6357.9623,N,02223.2401,W,43.50,67.93,290812,,,A*79
$GPGGA,073448.000,6357.9668,N,02223.2147,W,1,08,0.9,34.2,M,60.8,M,,0000*7F
$GPGSA,A,3,18,15,12,09,01,27,17,14,,,,,2.0,0.9,1.8*30
$GPRMC,073448.000,A,6357.9668,N,02223.2147,W,43.60,67.94,290812,,,A*7A
$GPGGA,073449.000,6357.9713,N,02223.1891,W,1,08,0.9,33.6,M,60.8,M,,0000*71
$GPGSA,A,3,18,15,12,09,01,27,17,14,,,,,2.0,0.9,1.8*30
$GPRMC,073449.000,A,6357.9713,N,02223.1891,W,43.76,68.25,290812,,,A*75
$GPGGA,073450.000,6357.9758,N,02223.1633,W,1,08,0.9,33.0,M,60.8,M,,0000*76
$GPGSA,A,3,18,15,12,09,01,27,17,14,,,,,2.0,0.9,1.8*30
$GPRMC,073450.000,A,6357.9758,N,02223.1633,W,43.97,68.40,290812,,,A*78
$GPGGA,073451.000,6357.9803,N,02223.1375,W,1,08,0.9,32.4,M,60.8,M,,0000*74
$GPGSA,A,3,18,15,12,09,01,27,17,14,,,,,2.0,0.9,1.8*30
$GPRMC,073451.000,A,6357.9803,N,02223.1375,W,44.05,68.17,290812,,,A*71
$GPGGA,073452.000,6357.9849,N,02223.1119,W,1,08,0.9,31.9,M,60.8,M,,0000*7F
$GPGSA,A,3,18,15,12,09,01,27,17,14,,,,,2.0,0.9,1.8*30
$GPGSV,3,1,12,09,69,111,41,27,57,099,40,22,38,265,35,12,38,180,43*73
$GPGSV,3,2,12,14,35,291,33,17,27,056,36,18,25,218,36,15,23,143,30*77
$GPGSV,3,3,12,01,15,356,42,11,08,339,41,25,06,203,25,28,06,038,35*7B
$GPRMC,073452.000,A,6357.9849,N,02223.1119,W,44.08,67.44,290812,,,A*70
$GPGGA,073453.000,6357.9897,N,02223.0863,W,1,08,0.9,31.3,M,60.8,M,,0000*72
$GPGSA,A,3,18,15,12,09,01,27,17,14,,,,,2.0,0.9,1.8*30
$GPRMC,073453.000,A,6357.9897,N,02223.0863,W,44.08,66.87,290812,,,A*79
$GPGGA,073454.000,6357.9945,N,02223.0607,W,1,08,0.9,30.8,M,60.8,M,,0000*7D
$GPGSA,A,3,18,15,12,09,01,27,17,14,,,,,2.0,0.9,1.8*30
$GPRMC,073454.000,A,6357.9945,N,02223.0607,W,44.07,67.00,290812,,,A*7D
$GPGGA,073455.000,6357.9992,N,02223.0352,W,1,08,0.9,30.3,M,60.8,M,,0000*78
$GPGSA,A,3,18,15,12,09,01,27,17,14,,,,,2.0,0.9,1.8*30
$GPRMC,073455.000,A,6357.9992,N,02223.0352,W,44.00,67.21,290812,,,A*77
$GPGGA,073456.000,6358.0038,N,02223.0096,W,1,08,0.9,29.9,M,60.8,M,,0000*7D
$GPGSA,A,3,18,15,12,09,01,27,17,14,,,,,2.0,0.9,1.8*30
$GPRMC,073456.000,A,6358.0038,N,02223.0096,W,43.89,67.64,290812,,,A*77
$GPGGA,073457.000,6358.0083,N,02222.9842,W,1,08,0.9,29.4,M,60.8,M,,0000*78
$GPGSA,A,3,18,15,12,09,01,27,17,14,,,,,2.0,0.9,1.8*30
$GPGSV,3,1,12,09,69,111,41,27,57,099,41,22,38,265,34,12,38,180,42*72
$GPGSV,3,2,12,14,35,291,32,17,27,056,36,18,25,218,36,15,23,143,30*76
$GPGSV,3,3,12,01,15,356,41,11,08,339,41,25,06,203,26,28,06,038,30*7E
$GPRMC,073457.000,A,6358.0083,N,02222.9842,W,43.54,67.66,290812,,,A*7D
$GPGGA,073458.000,6358.0129,N,02222.9592,W,1,08,0.9,29.0,M,60.8,M,,0000*72
$GPGSA,A,3,18,15,12,09,01,27,17,14,,,,,2.0,0.9,1.8*30
$GPRMC,073458.000,A,6358.0129,N,02222.9592,W,42.99,67.50,290812,,,A*76
$GPGGA,073459.000,6358.0175,N,02222.9343,W,1,08,0.9,28.6,M,60.8,M,,0000*77
$GPGSA,A,3,18,15,12,09,01,27,17,14,,,,,2.0,0.9,1.8*30
$GPRMC,073459.000,A,6358.0175,N,02222.9343,W,42.84,67.03,290812,,,A*7E
$GPGGA,073500.000,6358.0222,N,02222.9096,W,1,08,0.9,28.3,M,60.8,M,,0000*75
$GPGSA,A,3,18,15,12,09,01,27,17,14,,,,,2.0,0.9,1.8*30
$GPRMC,073500.000,A,6358.0222,N,02222.9096,W,42.80,66.44,290812,,,A*7F
$GPGGA,073501.000,6358.0270,N,02222.8849,W,1,08,0.9,28.0,M,60.8,M,,0000*7B
$GPGSA,A,3,18,15,12,09,01,27,17,14,,,,,2.0,0.9,1.8*30
$GPRMC,073501.000,A,6358.0270,N,02222.8849,W,42.75,66.13,290812,,,A*7A
$GPGGA,073502.000,6358.0318,N,02222.8603,W,1,08,0.9,27.7,M,60.8,M,,0000*7F
$GPGSA,A,3,18,15,12,09,01,27,17,14,,,,,2.0,0.9,1.8*30
$GPGSV,3,1,12,09,69,111,41,27,57,099,40,22,38,265,33,12,38,180,43*75
$GPGSV,3,2,12,14,35,291,20,17,27,056,36,18,25,218,36,15,23,143,30*75
$GPGSV,3,3,12,01,15,356,40,11,08,339,41,25,06,203,27,28,06,038,29*76
$GPRMC,073502.000,A,6358.0318,N,02222.8603,W,42.76,65.83,290812,,,A*7F
$GPGGA,073503.000,6358.0368,N,02222.8359,W,1,08,0.9,27.5,M,60.8,M,,0000*71
$GPGSA,A,3,18,15,12,09,01,27,17,14,,,,,2.0,0.9,1.8*30
$GPRMC,073503.000,A,6358.0368,N,02222.8359,W,42.79,65.08,290812,,,A*7F
$GPGGA,073504.000,6358.0419,N,02222.8116,W,1,08,0.9,27.3,M,60.8,M,,0000*78
$GPGSA,A,3,18,15,12,09,01,27,17,14,,,,,2.0,0.9,1.8*30
$GPRMC,073504.000,A,6358.0419,N,02222.8116,W,42.63,64.47,290812,,,A*71
$GPGGA,073505.000,6358.0469,N,02222.7875,W,1,08,0.9,27.0,M,60.8,M,,0000*7E
$GPGSA,A,3,18,15,12,09,01,27,17,14,,,,,2.0,0.9,1.8*30
$GPRMC,073505.000,A,6358.0469,N,02222.7875,W,42.49,64.50,290812,,,A*7A
$GPGGA,073506.000,6358.0520,N,02222.7634,W,1,08,0.9,26.9,M,60.8,M,,0000*72
$GPGSA,A,3,18,15,12,09,01,27,17,14,,,,,2.0,0.9,1.8*30
$GPRMC,073506.000,A,6358.0520,N,02222.7634,W,42.40,64.08,290812,,,A*7A
$GPGGA,073507.000,6358.0572,N,02222.7395,W,1,08,0.9,26.7,M,60.8,M,,0000*74
$GPGSA,A,3,18,15,12,09,01,27,17,14,,,,,2.0,0.9,1.8*30
$GPGSV,3,1,12,09,69,111,42,27,57,099,41,22,38,265,34,12,38,180,42*71
$GPGSV,3,2,12,14,35,291,34,17,27,056,36,18,25,218,36,15,23,143,31*71
$GPGSV,3,3,12,01,15,356,39,11,08,339,35,25,06,203,30,28,06,038,21*75
$GPRMC,073507.000,A,6358.0572,N,02222.7395,W,42.31,63.60,290812,,,A*7D
$GPGGA,073508.000,6358.0625,N,02222.7157,W,1,08,0.9,26.6,M,60.8,M,,0000*77
$GPGSA,A,3,18,15,12,09,01,27,17,14,,,,,2.0,0.9,1.8*30
$GPRMC,073508.000,A,6358.0625,N,02222.7157,W,42.33,63.20,290812,,,A*79
$GPGGA,073509.000,6358.0679,N,02222.6920,W,1,08,0.9,26.4,M,60.8,M,,0000*74
$GPGSA,A,3,18,15,12,09,01,27,17,14,,,,,2.0,0.9,1.7*3F
$GPRMC,073509.000,A,6358.0679,N,02222.6920,W,42.41,62.53,290812,,,A*78
$GPGGA,073510.000,6358.0734,N,02222.6684,W,1,08,0.9,26.3,M,60.8,M,,0000*72
$GPGSA,A,3,18,15,12,09,01,27,17,14,,,,,2.0,0.9,1.7*3F
$GPRMC,073510.000,A,6358.0734,N,02222.6684,W,42.52,61.78,290812,,,A*71
$GPGGA,073511.000,6358.0790,N,02222.6448,W,1,08,0.9,26.2,M,60.8,M,,0000*7E
$GPGSA,A,3,18,15,12,09,01,27,17,14,,,,,2.0,0.9,1.7*3F
$GPRMC,073511.000,A,6358.0790,N,02222.6448,W,42.59,61.39,290812,,,A*72
$GPGGA,073512.000,6358.0848,N,02222.6213,W,1,08,0.9,26.0,M,60.8,M,,0000*7D
$GPGSA,A,3,18,15,12,09,01,27,17,14,,,,,2.0,0.9,1.7*3F
$GPGSV,3,1,12,09,69,111,42,27,57,099,42,22,38,265,36,12,38,180,42*70
$GPGSV,3,2,12,14,35,291,33,17,27,056,36,18,25,218,31,15,23,143,30*70
$GPGSV,3,3,12,01,15,356,38,11,08,339,26,25,06,203,31,28,06,038,28*7E
$GPRMC,073512.000,A,6358.0848,N,02222.6213,W,42.65,60.81,290812,,,A*7E
$GPGGA,073513.000,6358.0906,N,02222.5979,W,1,08,0.9,25.9,M,60.8,M,,0000*79
$GPGSA,A,3,18,15,12,09,01,27,17,14,,,,,2.0,0.9,1.7*3F
$GPRMC,073513.000,A,6358.0906,N,02222.5979,W,42.63,60.36,290812,,,A*7A
$GPGGA,073514.000,6358.0964,N,02222.5747,W,1,08,0.9,25.8,M,60.8,M,,0000*78
$GPGSA,A,3,18,15,12,09,01,27,17,14,,,,,2.0,0.9,1.7*3F
$GPRMC,073514.000,A,6358.0964,N,02222.5747,W,42.55,60.11,290812,,,A*7A
$GPGGA,073515.000,6358.1024,N,02222.5516,W,1,08,0.9,25.8,M,60.8,M,,0000*73
$GPGSA,A,3,18,15,12,09,01,27,17,14,,,,,2.0,0.9,1.7*3F
$GPRMC,073515.000,A,6358.1024,N,02222.5516,W,42.51,59.52,290812,,,A*78
$GPGGA,073516.000,6358.1084,N,02222.5287,W,1,08,0.9,25.8,M,60.8,M,,0000*75
$GPGSA,A,3,18,15,12,09,01,27,17,14,,,,,2.0,0.9,1.7*3F
$GPRMC,073516.000,A,6358.1084,N,02222.5287,W,42.53,58.87,290812,,,A*75
$GPGGA,073517.000,6358.1146,N,02222.5059,W,1,08,0.9,25.8,M,60.8,M,,0000*7A
$GPGSA,A,3,18,15,12,09,01,27,17,14,,,,,2.0,0.9,1.7*3F
$GPGSV,3,1,12,09,69,111,42,27,57,099,42,22,38,265,36,12,38,180,44*76
$GPGSV,3,2,12,14,35,291,35,17,27,056,37,18,25,218,29,15,23,143,30*7E
$GPGSV,3,3,12,01,15,356,33,11,08,339,35,25,06,203,31,28,06,038,36*78
$GPRMC,073517.000,A,6358.1146,N,02222.5059,W,42.57,58.24,290812,,,A*77
$GPGGA,073518.000,6358.1209,N,02222.4832,W,1,08,0.9,25.8,M,60.8,M,,0000*79
$GPGSA,A,3,18,15,12,09,01,27,17,14,,,,,2.0,0.9,1.7*3F
$GPRMC,073518.000,A,6358.1209,N,02222.4832,W,42.69,57.92,290812,,,A*7B
$GPGGA,073519.000,6358.1272,N,02222.4605,W,1,08,0.9,25.9,M,60.8,M,,0000*7F
$GPGSA,A,3,18,15,12,09,01,27,17,14,,,,,2.0,0.9,1.7*3F
$GPRMC,073519.000,A,6358.1272,N,02222.4605,W,42.82,57.61,290812,,,A*75
$GPGGA,073520.000,6358.1337,N,02222.4378,W,1,08,0.9,25.9,M,60.8,M,,0000*7A
$GPGSA,A,3,18,15,12,09,01,27,17,14,,,,,2.0,0.9,1.7*3F
$GPRMC,073520.000,A,6358.1337,N,02222.4378,W,42.91,57.11,290812,,,A*75
$GPGGA,073521.000,6358.1402,N,02222.4153,W,1,08,0.9,26.0,M,60.8,M,,0000*7B
$GPGSA,A,3,18,15,12,09,01,27,17,14,,,,,2.0,0.9,1.7*3F
$GPRMC,073521.000,A,6358.1402,N,02222.4153,W,42.99,56.60,290812,,,A*71
$GPGGA,073522.000,6358.1469,N,02222.3929,W,1,08,0.9,26.1,M,60.8,M,,0000*76
$GPGSA,A,3,18,15,12,09,01,27,17,14,,,,,2.0,0.9,1.7*3F
$GPGSV,3,1,12,09,69,111,43,27,57,099,42,22,38,265,35,12,38,180,45*75
$GPGSV,3,2,12,14,35,291,36,17,27,056,41,18,25,218,36,15,23,143,28*7B
$GPGSV,3,3,12,01,15,356,33,11,08,339,35,25,06,203,34,28,06,038,36*7D
$GPRMC,073522.000,A,6358.1469,N,02222.3929,W,42.99,55.93,290812,,,A*72
$GPGGA,073523.000,6358.1536,N,02222.3707,W,1,08,0.9,26.2,M,60.8,M,,0000*7D
$GPGSA,A,3,18,15,12,09,01,27,17,14,,,,,2.0,0.9,1.7*3F
$GPRMC,073523.000,A,6358.1536,N,02222.3707,W,42.98,55.45,290812,,,A*70
$GPGGA,073524.000,6358.1604,N,02222.3485,W,1,08,0.9,26.4,M,60.8,M,,0000*77
$GPGSA,A,3,18,15,12,09,01,27,17,14,,,,,2.0,0.9,1.7*3F
$GPRMC,073524.000,A,6358.1604,N,02222.3485,W,42.94,55.27,290812,,,A*74
$GPGGA,073525.000,6358.1672,N,02222.3265,W,1,08,0.9,26.6,M,60.8,M,,0000*7D
$GPGSA,A,3,18,15,12,09,01,27,17,14,,,,,2.0,0.9,1.7*3F
$GPRMC,073525.000,A,6358.1672,N,02222.3265,W,42.91,54.85,290812,,,A*70
$GPGGA,073526.000,6358.1742,N,02222.3047,W,1,08,0.9,26.9,M,60.8,M,,0000*71
$GPGSA,A,3,18,15,12,09,01,27,17,14,,,,,2.0,0.9,1.7*3F
$GPRMC,073526.000,A,6358.1742,N,02222.3047,W,42.85,54.21,290812,,,A*78
$GPGGA,073527.000,6358.1812,N,02222.2830,W,1,07,1.1,27.1,M,60.8,M,,0000*7C
$GPGSA,A,3,18,12,09,01,27,17,14,,,,,,2.4,1.1,2.2*30
$GPGSV,3,1,12,09,69,110,43,27,56,099,41,12,38,180,46,22,38,265,28*79
$GPGSV,3,2,12,14,35,291,25,17,27,056,43,18,25,218,37,15,23,143,*70
$GPGSV,3,3,12,01,15,356,27,11,08,339,38,25,07,203,35,28,06,038,29*7B
$GPRMC,073527.000,A,6358.1812,N,02222.2830,W,42.75,53.58,290812,,,A*7C
$GPGGA,073528.000,6358.1882,N,02222.2614,W,1,08,0.9,27.4,M,60.8,M,,0000*71
$GPGSA,A,3,18,15,12,09,01,27,17,14,,,,,2.0,0.9,1.7*3F
$GPRMC,073528.000,A,6358.1882,N,02222.2614,W,42.70,53.84,290812,,,A*76
$GPGGA,073529.000,6358.1951,N,02222.2397,W,1,08,0.9,27.7,M,60.8,M,,0000*72
$GPGSA,A,3,18,15,12,09,01,27,17,14,,,,,2.0,0.9,1.7*3F
$GPRMC,073529.000,A,6358.1951,N,02222.2397,W,42.63,53.86,290812,,,A*76
$GPGGA,073530.000,6358.2022,N,02222.2183,W,1,08,0.9,28.0,M,60.8,M,,0000*7B
$GPGSA,A,3,18,15,12,09,01,27,17,14,,,,,2.0,0.9,1.7*3F
$GPRMC,073530.000,A,6358.2022,N,02222.2183,W,42.50,53.43,290812,,,A*7E
$GPGGA,073531.000,6358.2092,N,02222.1971,W,1,08,0.9,28.4,M,60.8,M,,0000*73
$GPGSA,A,3,18,15,12,09,01,27,17,14,,,,,2.0,0.9,1.7*3F
$GPRMC,073531.000,A,6358.2092,N,02222.1971,W,42.24,53.17,290812,,,A*70
$GPGGA,073532.000,6358.2162,N,02222.1761,W,1,08,0.9,28.7,M,60.8,M,,0000*72
$GPGSA,A,3,18,15,12,09,01,27,17,14,,,,,2.0,0.9,1.7*3F
$GPGSV,3,1,12,09,69,110,43,27,56,099,40,12,38,180,46,22,38,265,27*77
$GPGSV,3,2,12,14,35,291,32,17,27,056,44,18,25,218,37,15,23,143,32*70
$GPGSV,3,3,12,01,15,356,25,11,08,339,41,25,07,203,31,28,06,038,29*73
$GPRMC,073532.000,A,6358.2162,N,02222.1761,W,41.89,52.83,290812,,,A*7A
$GPGGA,073533.000,6358.2232,N,02222.1552,W,1,07,1.1,29.1,M,60.8,M,,0000*76
$GPGSA,A,3,18,12,09,01,27,17,14,,,,,,2.4,1.1,2.2*30
$GPRMC,073533.000,A,6358.2232,N,02222.1552,W,41.64,52.86,290812,,,A*79
$GPGGA,073534.000,6358.2302,N,02222.1345,W,1,07,1.1,29.4,M,60.8,M,,0000*76
$GPGSA,A,3,18,12,09,01,27,17,14,,,,,,2.4,1.1,2.2*30
$GPRMC,073534.000,A,6358.2302,N,02222.1345,W,41.45,52.68,290812,,,A*7F
$GPGGA,073535.000,6358.2372,N,02222.1140,W,1,07,1.1,29.8,M,60.8,M,,0000*7B
$GPGSA,A,3,18,12,09,01,27,17,14,,,,,,2.4,1.1,2.2*30
$GPRMC,073535.000,A,6358.2372,N,02222.1140,W,41.50,52.16,290812,,,A*73
$GPGGA,073536.000,6358.2444,N,02222.0935,W,1,07,1.1,30.1,M,60.8,M,,0000*70
$GPGSA,A,3,18,12,09,01,27,17,14,,,,,,2.4,1.1,2.2*30
$GPRMC,073536.000,A,6358.2444,N,02222.0935,W,41.62,51.58,290812,,,A*71
$GPGGA,073537.000,6358.2516,N,02222.0729,W,1,08,0.9,30.4,M,60.8,M,,0000*77
$GPGSA,A,3,18,12,09,01,27,17,14,15,,,,,2.0,0.9,1.7*3F
$GPGSV,3,1,12,09,69,110,42,27,56,099,39,12,38,180,45,22,38,265,34*79
$GPGSV,3,2,12,14,35,291,40,17,27,056,44,18,25,218,37,15,23,143,32*75
$GPGSV,3,3,12,01,15,356,31,11,08,339,36,25,07,203,32,28,06,038,29*75
$GPRMC,073537.000,A,6358.2516,N,02222.0729,W,41.80,51.67,290812,,,A*75
$GPGGA,073538.000,6358.2587,N,02222.0522,W,1,08,0.9,30.7,M,60.8,M,,0000*7A
$GPGSA,A,3,18,12,09,01,27,17,14,15,,,,,2.0,0.9,1.7*3F
$GPRMC,073538.000,A,6358.2587,N,02222.0522,W,41.85,51.94,290812,,,A*72
$GPGGA,073539.000,6358.2658,N,02222.0315,W,1,08,0.9,31.0,M,60.8,M,,0000*7E
$GPGSA,A,3,18,12,09,01,27,17,14,15,,,,,2.0,0.9,1.7*3F
$GPRMC,073539.000,A,6358.2658,N,02222.0315,W,41.74,52.19,290812,,,A*78
$GPGGA,073540.000,6358.2729,N,02222.0110,W,1,08,0.9,31.3,M,60.8,M,,0000*73
$GPGSA,A,3,18,12,09,01,27,17,14,15,,,,,2.0,0.9,1.7*3F
$GPRMC,073540.000,A,6358.2729,N,02222.0110,W,41.53,51.98,290812,,,A*79
$GPGGA,073541.000,6358.2801,N,02221.9907,W,1,08,0.9,31.6,M,60.8,M,,0000*76
$GPGSA,A,3,18,12,09,01,27,17,14,15,,,,,2.0,0.9,1.7*3F
$GPRMC,073541.000,A,6358.2801,N,02221.9907,W,41.33,51.38,290812,,,A*75
$GPGGA,073542.000,6358.2872,N,02221.9705,W,1,08,0.9,31.8,M,60.8,M,,0000*73
$GPGSA,A,3,18,12,09,01,27,17,14,15,,,,,2.0,0.9,1.7*3F
$GPGSV,3,1,12,09,69,110,42,27,56,099,39,12,38,180,44,22,38,265,31*7D
$GPGSV,3,2,12,14,35,291,39,17,27,055,44,18,25,218,36,15,22,143,36*7C
$GPGSV,3,3,12,01,15,355,25,11,08,339,36,25,07,203,32,28,06,038,29*73
$GPRMC,073542.000,A,6358.2872,N,02221.9705,W,41.13,51.45,290812,,,A*76
$GPGGA,073543.000,6358.2943,N,02221.9504,W,1,08,0.9,32.1,M,60.8,M,,0000*78
$GPGSA,A,3,18,12,09,01,27,17,14,15,,,,,2.0,0.9,1.7*3F
$GPRMC,073543.000,A,6358.2943,N,02221.9504,W,41.08,51.29,290812,,,A*77
$GPGGA,073544.000,6358.3015,N,02221.9302,W,1,08,0.9,32.3,M,60.8,M,,0000*76
$GPGSA,A,3,18,12,09,01,27,17,14,15,,,,,2.0,0.9,1.7*3F
$GPRMC,073544.000,A,6358.3015,N,02221.9302,W,41.08,51.19,290812,,,A*78
$GPGGA,073545.000,6358.3086,N,02221.9101,W,1,08,0.9,32.6,M,60.8,M,,0000*79
$GPGSA,A,3,18,12,09,01,27,17,14,15,,,,,2.0,0.9,1.7*3F
$GPRMC,073545.000,A,6358.3086,N,02221.9101,W,41.10,51.28,290812,,,A*79
$GPGGA,073546.000,6358.3157,N,02221.8899,W,1,07,1.1,32.8,M,60.8,M,,0000*76
$GPGSA,A,3,18,12,09,27,17,14,15,,,,,,2.3,1.1,2.0*30
$GPRMC,073546.000,A,6358.3157,N,02221.8899,W,41.13,51.43,290812,,,A*70
$GPGGA,073547.000,6358.3228,N,02221.8697,W,1,08,0.9,33.0,M,60.8,M,,0000*73
$GPGSA,A,3,18,12,09,01,27,17,14,15,,,,,2.0,0.9,1.7*3F
$GPGSV,3,1,12,09,69,110,42,27,56,099,38,12,38,180,44,22,38,265,27*7B
$GPGSV,3,2,12,14,35,291,40,17,27,055,44,18,25,218,35,15,22,143,39*7E
$GPGSV,3,3,12,01,15,355,21,11,08,339,36,25,07,203,27,28,06,038,28*72
$GPRMC,073547.000,A,6358.3228,N,02221.8697,W,41.20,51.30,290812,,,A*7E
$GPGGA,073548.000,6358.3300,N,02221.8494,W,1,08,0.9,33.2,M,60.8,M,,0000*74
$GPGSA,A,3,18,12,09,01,27,17,14,15,,,,,2.0,0.9,1.7*3F
$GPRMC,073548.000,A,6358.3300,N,02221.8494,W,41.24,51.24,290812,,,A*7A
$GPGGA,073549.000,6358.3371,N,02221.8292,W,1,08,0.9,33.4,M,60.8,M,,0000*75
$GPGSA,A,3,18,12,09,01,27,17,14,15,,,,,2.0,0.9,1.7*3F
$GPRMC,073549.000,A,6358.3371,N,02221.8292,W,41.28,51.29,290812,,,A*7C
$GPGGA,073550.000,6358.3443,N,02221.8090,W,1,08,0.9,33.6,M,60.8,M,,0000*79
$GPGSA,A,3,18,12,09,01,27,17,14,15,,,,,2.0,0.9,1.7*3F
$GPRMC,073550.000,A,6358.3443,N,02221.8090,W,41.24,51.29,290812,,,A*7E
$GPGGA,073551.000,6358.3513,N,02221.7887,W,1,08,0.9,33.8,M,60.8,M,,0000*73
$GPGSA,A,3,18,12,09,01,27,17,14,15,,,,,2.0,0.9,1.7*3F
$GPRMC,073551.000,A,6358.3513,N,02221.7887,W,41.11,51.53,290812,,,A*71
$GPGGA,073552.000,6358.3584,N,02221.7684,W,1,07,1.1,34.0,M,60.8,M,,0000*7A
$GPGSA,A,3,18,12,09,27,17,14,15,,,,,,2.3,1.1,2.0*30
$GPGSV,3,1,12,09,69,110,42,27,56,099,39,12,38,180,44,22,38,265,28*75
$GPGSV,3,2,12,14,35,291,40,17,27,055,44,18,25,218,35,15,22,143,38*7F
$GPGSV,3,3,12,01,15,355,13,11,08,339,37,25,07,203,35,28,06,038,29*70
$GPRMC,073552.000,A,6358.3584,N,02221.7684,W,41.09,51.96,290812,,,A*71
$GPGGA,073553.000,6358.3653,N,02221.7480,W,1,07,1.1,34.2,M,60.8,M,,0000*76
$GPGSA,A,3,18,12,09,27,17,14,15,,,,,,2.3,1.1,2.0*30
$GPRMC,073553.000,A,6358.3653,N,02221.7480,W,41.08,52.20,290812,,,A*70
$GPGGA,073554.000,6358.3723,N,02221.7275,W,1,07,1.1,34.3,M,60.8,M,,0000*7A
$GPGSA,A,3,18,12,09,27,17,14,15,,,,,,2.3,1.1,2.0*30
$GPRMC,073554.000,A,6358.3723,N,02221.7275,W,41.03,52.35,290812,,,A*72
$GPGGA,073555.000,6358.3792,N,02221.7071,W,1,07,1.1,34.5,M,60.8,M,,0000*71
$GPGSA,A,3,18,12,09,27,17,14,15,,,,,,2.3,1.1,2.0*30
$GPRMC,073555.000,A,6358.3792,N,02221.7071,W,41.03,52.45,290812,,,A*78
$GPGGA,073556.000,6358.3861,N,02221.6866,W,1,08,0.9,34.7,M,60.8,M,,0000*7A
$GPGSA,A,3,18,12,09,01,27,17,14,15,,,,,2.0,0.9,1.7*3F
$GPRMC,073556.000,A,6358.3861,N,02221.6866,W,41.08,52.36,290812,,,A*78
$GPGGA,073557.000,6358.3931,N,02221.6661,W,1,08,0.9,34.8,M,60.8,M,,0000*79
$GPGSA,A,3,18,12,09,01,27,17,14,15,,,,,2.0,0.9,1.7*3F
$GPGSV,3,1,12,09,69,110,42,27,56,099,40,12,38,180,44,22,38,265,27*74
$GPGSV,3,2,12,14,35,291,40,17,27,055,44,18,25,218,35,15,22,143,38*7F
$GPGSV,3,3,12,01,15,355,12,11,08,339,37,25,07,203,35,28,06,038,29*71
$GPRMC,073557.000,A,6358.3931,N,02221.6661,W,41.13,52.53,290812,,,A*7D
$GPGGA,073558.000,6358.3999,N,02221.6455,W,1,08,0.9,35.0,M,60.8,M,,0000*78
$GPGSA,A,3,18,12,09,01,27,17,14,15,,,,,2.0,0.9,1.7*3F
$GPRMC,073558.000,A,6358.3999,N,02221.6455,W,41.05,53.02,290812,,,A*77
$GPGGA,073559.000,6358.4067,N,02221.6248,W,1,08,0.9,35.2,M,60.8,M,,0000*7E
$GPGSA,A,3,18,12,09,01,27,17,14,15,,,,,2.0,0.9,1.7*3F
$GPRMC,073559.000,A,6358.4067,N,02221.6248,W,40.98,53.29,290812,,,A*7F
$GPGGA,073600.000,6358.4134,N,02221.6041,W,1,08,0.9,35.4,M,60.8,M,,0000*7B
$GPGSA,A,3,18,12,09,01,27,17,14,15,,,,,2.0,0.9,1.7*3F
$GPRMC,073600.000,A,6358.4134,N,02221.6041,W,40.95,53.61,290812,,,A*7D
$GPGGA,073601.000,6358.4201,N,02221.5832,W,1,08,0.9,35.5,M,60.8,M,,0000*71
$GPGSA,A,3,18,12,09,01,27,17,14,15,,,,,2.0,0.9,1.7*3F
$GPRMC,073601.000,A,6358.4201,N,02221.5832,W,40.97,54.00,290812,,,A*74
$GPGGA,073602.000,6358.4267,N,02221.5622,W,1,08,0.9,35.7,M,60.8,M,,0000*7F
$GPGSA,A,3,18,12,09,01,27,17,14,15,,,,,2.0,0.9,1.7*3F
$GPGSV,3,1,12,09,69,110,41,27,56,099,42,12,38,180,44,22,38,265,28*7A
$GPGSV,3,2,12,14,35,291,40,17,27,055,43,18,25,218,36,15,22,143,38*7B
$GPGSV,3,3,12,01,15,355,24,11,08,339,37,25,07,203,35,28,06,038,24*79
$GPRMC,073602.000,A,6358.4267,N,02221.5622,W,41.07,54.30,290812,,,A*73
$GPGGA,073603.000,6358.4334,N,02221.5412,W,1,08,0.9,35.9,M,60.8,M,,0000*76
$GPGSA,A,3,18,12,09,01,27,17,14,15,,,,,2.0,0.9,1.7*3F
$GPRMC,073603.000,A,6358.4334,N,02221.5412,W,41.18,54.39,290812,,,A*73
$GPGGA,073604.000,6358.4399,N,02221.5200,W,1,08,0.9,36.1,M,60.8,M,,0000*78
$GPGSA,A,3,18,12,09,01,27,17,14,15,,,,,2.0,0.9,1.7*3F
$GPRMC,073604.000,A,6358.4399,N,02221.5200,W,41.24,54.83,290812,,,A*78
$GPGGA,073605.000,6358.4465,N,02221.4988,W,1,08,0.9,36.3,M,60.8,M,,0000*75
$GPGSA,A,3,18,12,09,01,27,17,14,15,,,,,2.0,0.9,1.7*3F
$GPRMC,073605.000,A,6358.4465,N,02221.4988,W,41.20,55.09,290812,,,A*70
$GPGGA,073606.000,6358.4530,N,02221.4775,W,1,08,0.9,36.5,M,60.8,M,,0000*7D
$GPGSA,A,3,18,12,09,01,27,17,14,15,,,,,2.0,0.9,1.7*3F
$GPRMC,073606.000,A,6358.4530,N,02221.4775,W,41.15,55.20,290812,,,A*73
$GPGGA,073607.000,6358.4594,N,02221.4562,W,1,08,0.9,36.7,M,60.8,M,,0000*74
$GPGSA,A,3,18,12,09,01,27,17,14,15,,,,,2.0,0.9,1.7*3F
$GPGSV,3,1,12,09,69,110,41,27,56,099,43,12,38,180,44,22,38,265,13*73
$GPGSV,3,2,12,14,35,291,39,17,27,055,43,18,25,218,35,15,22,143,24*7B
$GPGSV,3,3,12,01,15,355,26,11,08,339,37,25,07,203,30,28,06,038,33*78
$GPRMC,073607.000,A,6358.4594,N,02221.4562,W,41.16,55.55,290812,,,A*79
$GPGGA,073608.000,6358.4658,N,02221.4347,W,1,08,0.9,36.8,M,60.8,M,,0000*76
$GPGSA,A,3,18,12,09,01,27,17,14,15,,,,,2.0,0.9,1.7*3F
$GPRMC,073608.000,A,6358.4658,N,02221.4347,W,41.25,55.92,290812,,,A*7F
$GPGGA,073609.000,6358.4722,N,02221.4131,W,1,08,0.9,37.0,M,60.8,M,,0000*71
$GPGSA,A,3,18,12,09,01,27,17,14,15,,,,,2.0,0.9,1.7*3F
$GPRMC,073609.000,A,6358.4722,N,02221.4131,W,41.30,56.12,290812,,,A*7E
$GPGGA,073610.000,6358.4785,N,02221.3915,W,1,08,0.9,37.2,M,60.8,M,,0000*7F
$GPGSA,A,3,18,12,09,01,27,17,14,15,,,,,2.0,0.9,1.7*3F
$GPRMC,073610.000,A,6358.4785,N,02221.3915,W,41.37,56.45,290812,,,A*77
$GPGGA,073611.000,6358.4848,N,02221.3696,W,1,08,0.9,37.4,M,60.8,M,,0000*72
$GPGSA,A,3,18,12,09,01,27,17,14,15,,,,,2.0,0.9,1.7*3F
$GPRMC,073611.000,A,6358.4848,N,02221.3696,W,41.40,56.93,290812,,,A*77
$GPGGA,073612.000,6358.4910,N,02221.3477,W,1,08,0.9,37.6,M,60.8,M,,0000*72
$GPGSA,A,3,18,12,09,01,27,17,14,15,,,,,2.0,0.9,1.7*3F
$GPGSV,3,1,12,09,69,110,41,27,56,099,43,12,39,180,44,22,38,265,*70
$GPGSV,3,2,12,14,36,291,39,17,27,055,37,18,24,218,36,15,22,143,34*78
$GPGSV,3,3,12,01,15,355,33,11,08,339,32,25,07,203,31,28,05,038,33*7B
$GPRMC,073612.000,A,6358.4910,N,02221.3477,W,41.48,57.29,290812,,,A*7D
$GPGGA,073613.000,6358.4971,N,02221.3256,W,1,08,0.9,37.8,M,60.8,M,,0000*7F
$GPGSA,A,3,18,12,09,01,27,17,14,15,,,,,2.0,0.9,1.7*3F
$GPRMC,073613.000,A,6358.4971,N,02221.3256,W,41.59,57.58,290812,,,A*78
$GPGGA,073614.000,6358.5033,N,02221.3034,W,1,08,0.9,38.0,M,60.8,M,,0000*77
$GPGSA,A,3,18,12,09,01,27,17,14,15,,,,,2.0,0.9,1.7*3F
$GPRMC,073614.000,A,6358.5033,N,02221.3034,W,41.70,57.82,290812,,,A*7B
$GPGGA,073615.000,6358.5094,N,02221.2811,W,1,08,0.9,38.1,M,60.8,M,,0000*74
$GPGSA,A,3,18,12,09,01,27,17,14,15,,,,,2.0,0.9,1.7*3F
$GPRMC,073615.000,A,6358.5094,N,02221.2811,W,41.83,58.04,290812,,,A*74
$GPGGA,073616.000,6358.5155,N,02221.2587,W,1,08,0.9,38.3,M,60.8,M,,0000*7B
$GPGSA,A,3,18,12,09,01,27,17,14,15,,,,,2.0,0.9,1.7*3F
$GPRMC,073616.000,A,6358.5155,N,02221.2587,W,41.97,58.18,290812,,,A*71
$GPGGA,073617.000,6358.5217,N,02221.2362,W,1,08,0.9,38.5,M,60.8,M,,0000*74
$GPGSA,A,3,18,12,09,01,27,17,14,15,,,,,2.0,0.9,1.7*3F
$GPGSV,3,1,12,09,69,110,41,27,56,099,43,12,39,180,44,22,38,264,29*7A
$GPGSV,3,2,12,14,36,291,41,17,27,055,37,18,24,218,36,15,22,143,36*75
$GPGSV,3,3,12,01,15,355,34,11,08,339,32,25,07,203,33,28,05,038,38*75
$GPRMC,073617.000,A,6358.5217,N,02221.2362,W,42.12,58.14,290812,,,A*7A
$GPGGA,073618.000,6358.5278,N,02221.2137,W,1,08,0.9,38.7,M,60.8,M,,0000*72
$GPGSA,A,3,18,12,09,01,27,17,14,15,,,,,2.0,0.9,1.7*3F
$GPRMC,073618.000,A,6358.5278,N,02221.2137,W,42.25,58.23,290812,,,A*7E
$GPGGA,073619.000,6358.5340,N,02221.1910,W,1,08,0.9,38.9,M,60.8,M,,0000*79
$GPGSA,A,3,18,12,09,01,27,17,14,15,,,,,2.0,0.9,1.7*3F
$GPRMC,073619.000,A,6358.5340,N,02221.1910,W,42.38,58.38,290812,,,A*7D
$GPGGA,073620.000,6358.5401,N,02221.1682,W,1,08,0.9,39.1,M,60.8,M,,0000*7C
$GPGSA,A,3,18,12,09,01,27,17,14,15,,,,,2.0,0.9,1.7*3F
$GPRMC,073620.000,A,6358.5401,N,02221.1682,W,42.49,58.67,290812,,,A*7D
$GPGGA,073621.000,6358.5461,N,02221.1453,W,1,08,0.9,39.3,M,60.8,M,,0000*77
$GPGSA,A,3,18,12,09,01,27,17,14,15,,,,,2.0,0.9,1.7*3F
$GPRMC,073621.000,A,6358.5461,N,02221.1453,W,42.48,59.05,290812,,,A*70
$GPGGA,073622.000,6358.5521,N,02221.1223,W,1,09,0.9,39.5,M,60.8,M,,0000*77
$GPGSA,A,3,18,22,12,09,01,27,17,14,15,,,,1.9,0.9,1.7*35
$GPGSV,3,1,12,09,69,110,41,27,56,099,43,12,39,180,45,22,38,264,30*73
$GPGSV,3,2,12,14,36,291,42,17,27,055,37,18,24,218,35,15,22,143,36*75
$GPGSV,3,3,12,01,15,355,34,11,08,339,32,25,07,203,32,28,05,038,36*7A
$GPRMC,073622.000,A,6358.5521,N,02221.1223,W,42.46,59.36,290812,,,A*79
$GPGGA,073623.000,6358.5581,N,02221.0993,W,1,09,0.9,39.7,M,60.8,M,,0000*7F
$GPGSA,A,3,18,22,12,09,01,27,17,14,15,,,,1.9,0.9,1.7*35
$GPRMC,073623.000,A,6358.5581,N,02221.0993,W,42.41,59.53,290812,,,A*77
$GPGGA,073624.000,6358.5641,N,02221.0764,W,1,09,0.9,39.9,M,60.8,M,,0000*7F
$GPGSA,A,3,18,22,12,09,01,27,17,14,15,,,,1.9,0.9,1.7*35
$GPRMC,073624.000,A,6358.5641,N,02221.0764,W,42.37,59.30,290812,,,A*7D
$GPGGA,073625.000,6358.5700,N,02221.0535,W,1,09,0.9,40.1,M,60.8,M,,0000*7A
$GPGSA,A,3,18,22,12,09,01,27,17,14,15,,,,1.9,0.9,1.7*35
$GPRMC,073625.000,A,6358.5700,N,02221.0535,W,42.36,59.37,290812,,,A*78
$GPGGA,073626.000,6358.5760,N,02221.0305,W,1,09,0.9,40.3,M,60.8,M,,0000*78
$GPGSA,A,3,18,22,12,09,01,27,17,14,15,,,,1.9,0.9,1.7*35
$GPRMC,073626.000,A,6358.5760,N,02221.0305,W,42.42,59.45,290812,,,A*7E
$GPGGA,073627.000,6358.5819,N,02221.0075,W,1,09,0.9,40.5,M,60.8,M,,0000*7A
$GPGSA,A,3,18,22,12,09,01,27,17,14,15,,,,1.9,0.9,1.7*35
$GPGSV,3,1,12,09,68,110,41,27,56,099,43,12,39,180,45,22,38,264,34*76
$GPGSV,3,2,12,14,36,291,42,17,27,055,36,18,24,218,34,15,22,143,37*74
$GPGSV,3,3,12,01,15,355,35,11,08,339,29,25,07,203,32,28,05,038,34*73
$GPRMC,073627.000,A,6358.5819,N,02221.0075,W,42.42,59.72,290812,,,A*7E
$GPGGA,073628.000,6358.5878,N,02220.9844,W,1,09,0.9,40.7,M,60.8,M,,0000*72
$GPGSA,A,3,18,22,12,09,01,27,17,14,15,,,,1.9,0.9,1.7*35
$GPRMC,073628.000,A,6358.5878,N,02220.9844,W,42.42,59.71,290812,,,A*77
$GPGGA,073629.000,6358.5937,N,02220.9614,W,1,09,0.9,40.8,M,60.8,M,,0000*7D
$GPGSA,A,3,18,22,12,09,01,27,17,14,15,,,,1.9,0.9,1.7*35
$GPRMC,073629.000,A,6358.5937,N,02220.9614,W,42.44,59.72,290812,,,A*72
$GPGGA,073630.000,6358.5996,N,02220.9383,W,1,09,0.9,41.0,M,60.8,M,,0000*7C
$GPGSA,A,3,18,22,12,09,01,27,17,14,15,,,,1.9,0.9,1.7*35
$GPRMC,073630.000,A,6358.5996,N,02220.9383,W,42.31,59.92,290812,,,A*76
$GPGGA,073631.000,6358.6054,N,02220.9154,W,1,09,0.9,41.2,M,60.8,M,,0000*73
$GPGSA,A,3,18,22,12,09,01,27,17,14,15,,,,1.9,0.9,1.7*35
$GPRMC,073631.000,A,6358.6054,N,02220.9154,W,42.04,59.86,290812,,,A*78
$GPGGA,073632.000,6358.6113,N,02220.8927,W,1,09,0.9,41.3,M,60.8,M,,0000*7E
$GPGSA,A,3,18,22,12,09,01,27,17,14,15,,,,1.9,0.9,1.7*35
$GPGSV,3,1,12,09,68,110,41,27,56,099,44,12,39,180,46,22,38,264,34*72
$GPGSV,3,2,12,14,36,291,42,17,27,055,36,18,24,218,33,15,22,143,38*7C
$GPGSV,3,3,12,01,15,355,34,11,08,339,31,25,07,203,31,28,05,038,37*7B
$GPRMC,073632.000,A,6358.6113,N,02220.8927,W,41.79,59.73,290812,,,A*77
$GPGGA,073633.000,6358.6171,N,02220.8700,W,1,09,0.9,41.5,M,60.8,M,,0000*76
$GPGSA,A,3,18,22,12,09,01,27,17,14,15,,,,1.9,0.9,1.7*35
$GPRMC,073633.000,A,6358.6171,N,02220.8700,W,41.62,59.76,290812,,,A*76
$GPGGA,073634.000,6358.6228,N,02220.8474,W,1,09,0.9,41.7,M,60.8,M,,0000*7C
$GPGSA,A,3,18,22,12,09,01,27,17,14,15,,,,1.9,0.9,1.7*35
$GPRMC,073634.000,A,6358.6228,N,02220.8474,W,41.53,59.83,290812,,,A*76
$GPGGA,073635.000,6358.6286,N,02220.8248,W,1,09,0.9,41.8,M,60.8,M,,0000*7F
$GPGSA,A,3,18,22,12,09,01,27,17,14,15,,,,1.9,0.9,1.7*35
$GPRMC,073635.000,A,6358.6286,N,02220.8248,W,41.61,59.93,290812,,,A*7A
$GPGGA,073636.000,6358.6343,N,02220.8020,W,1,09,0.9,42.0,M,60.8,M,,0000*73
$GPGSA,A,3,18,22,12,09,01,27,17,14,15,,,,1.9,0.9,1.7*35
$GPRMC,073636.000,A,6358.6343,N,02220.8020,W,41.70,60.11,290812,,,A*7D
$GPGGA,073637.000,6358.6401,N,02220.7792,W,1,09,0.9,42.1,M,60.8,M,,0000*73
$GPGSA,A,3,18,22,12,09,01,27,17,14,15,,,,1.9,0.9,1.7*35
$GPGSV,3,1,12,09,68,110,41,27,56,099,44,12,39,180,46,22,38,264,34*72
$GPGSV,3,2,12,14,36,291,42,17,27,055,35,18,24,218,32,15,22,143,37*71
$GPGSV,3,3,12,01,15,355,34,11,08,339,31,25,07,203,32,28,05,038,37*78
$GPRMC,073637.000,A,6358.6401,N,02220.7792,W,41.80,60.12,290812,,,A*70
$GPGGA,073638.000,6358.6459,N,02220.7564,W,1,09,0.9,42.3,M,60.8,M,,0000*78
$GPGSA,A,3,18,22,12,09,01,27,17,14,15,,,,1.9,0.9,1.7*35
$GPRMC,073638.000,A,6358.6459,N,02220.7564,W,41.80,60.05,290812,,,A*7F
$GPGGA,073639.000,6358.6517,N,02220.7336,W,1,09,0.9,42.4,M,60.8,M,,0000*74
$GPGSA,A,3,18,22,12,09,01,27,17,14,15,,,,1.9,0.9,1.7*35
$GPRMC,073639.000,A,6358.6517,N,02220.7336,W,41.81,59.89,290812,,,A*7B
$GPGGA,073640.000,6358.6575,N,02220.7108,W,1,09,0.9,42.6,M,60.8,M,,0000*73
$GPGSA,A,3,18,22,12,09,01,27,17,14,15,,,,1.9,0.9,1.7*35
$GPRMC,073640.000,A,6358.6575,N,02220.7108,W,41.86,59.76,290812,,,A*79
$GPGGA,073641.000,6358.6633,N,02220.6880,W,1,09,0.9,42.7,M,60.8,M,,0000*7A
$GPGSA,A,3,18,22,12,09,01,27,17,14,15,,,,1.9,0.9,1.7*35
$GPRMC,073641.000,A,6358.6633,N,02220.6880,W,41.93,59.77,290812,,,A*74
$GPGGA,073642.000,6358.6692,N,02220.6651,W,1,09,0.9,42.9,M,60.8,M,,0000*7E
$GPGSA,A,3,18,22,12,09,01,27,17,14,15,,,,1.9,0.9,1.7*35
$GPGSV,3,1,12,09,68,109,41,27,56,099,44,12,39,180,46,22,38,264,34*7A
$GPGSV,3,2,12,14,36,291,42,17,28,055,35,18,24,218,32,15,22,143,37*7E
$GPGSV,3,3,12,01,15,355,33,11,08,338,31,25,07,203,31,28,05,038,37*7D
$GPRMC,073642.000,A,6358.6692,N,02220.6651,W,42.02,59.85,290812,,,A*78
$GPGGA,073643.000,6358.6750,N,02220.6422,W,1,09,0.9,43.0,M,60.8,M,,0000*7E
$GPGSA,A,3,18,22,12,09,01,27,17,14,15,,,,1.9,0.9,1.7*35
$GPRMC,073643.000,A,6358.6750,N,02220.6422,W,42.13,59.96,290812,,,A*72
$GPGGA,073644.000,6358.6808,N,02220.6191,W,1,09,0.9,43.1,M,60.8,M,,0000*77
$GPGSA,A,3,18,22,12,09,01,27,17,14,15,,,,1.9,0.9,1.7*35
$GPRMC,073644.000,A,6358.6808,N,02220.6191,W,42.24,59.96,290812,,,A*7E
$GPGGA,073645.000,6358.6867,N,02220.5961,W,1,09,0.9,43.3,M,60.8,M,,0000*79
$GPGSA,A,3,18,22,12,09,01,27,17,14,15,,,,1.9,0.9,1.7*35
$GPRMC,073645.000,A,6358.6867,N,02220.5961,W,42.33,59.77,290812,,,A*7B
$GPGGA,073646.000,6358.6926,N,02220.5730,W,1,09,0.9,43.4,M,60.8,M,,0000*73
$GPGSA,A,3,18,22,12,09,01,27,17,14,15,,,,1.9,0.9,1.7*35
$GPRMC,073646.000,A,6358.6926,N,02220.5730,W,42.41,59.85,290812,,,A*7E
$GPGGA,073647.000,6358.6985,N,02220.5498,W,1,09,0.9,43.5,M,60.8,M,,0000*7B
$GPGSA,A,3,18,22,12,09,01,27,17,14,15,,,,1.9,0.9,1.7*35
$GPGSV,3,1,12,09,68,109,41,27,56,099,43,12,39,180,45,22,38,264,34*7E
$GPGSV,3,2,12,14,36,291,42,17,28,055,35,18,24,218,31,15,22,143,38*72
$GPGSV,3,3,12,01,15,355,34,11,08,338,31,25,07,203,32,28,05,038,37*79
$GPRMC,073647.000,A,6358.6985,N,02220.5498,W,42.50,60.08,290812,,,A*78
$GPGGA,073648.000,6358.7043,N,02220.5266,W,1,09,0.9,43.7,M,60.8,M,,0000*73
$GPGSA,A,3,18,22,12,09,01,27,17,14,15,,,,1.9,0.9,1.7*35
$GPRMC,073648.000,A,6358.7043,N,02220.5266,W,42.58,60.02,290812,,,A*70
$GPGGA,073649.000,6358.7102,N,02220.5034,W,1,09,0.9,43.8,M,60.8,M,,0000*7C
$GPGSA,A,3,18,22,12,09,01,27,17,14,15,,,,1.9,0.9,1.7*35
$GPRMC,073649.000,A,6358.7102,N,02220.5034,W,42.55,60.00,290812,,,A*7F
$GPGGA,073650.000,6358.7161,N,02220.4803,W,1,09,0.9,43.9,M,60.8,M,,0000*7D
$GPGSA,A,3,18,22,12,09,01,27,17,14,15,,,,1.9,0.9,1.7*35
$GPRMC,073650.000,A,6358.7161,N,02220.4803,W,42.34,60.03,290812,,,A*7B
$GPGGA,073651.000,6358.7218,N,02220.4574,W,1,09,0.9,44.0,M,60.8,M,,0000*72
$GPGSA,A,3,18,22,12,09,01,27,17,14,15,,,,1.9,0.9,1.7*35
$GPRMC,073651.000,A,6358.7218,N,02220.4574,W,42.04,60.07,290812,,,A*7D
$GPGGA,073652.000,6358.7276,N,02220.4345,W,1,09,0.9,44.1,M,60.8,M,,0000*7C
$GPGSA,A,3,18,22,12,09,01,27,17,14,15,,,,1.9,0.9,1.7*35
$GPGSV,3,1,12,09,68,109,41,27,56,099,43,12,39,180,46,22,38,264,34*7D
$GPGSV,3,2,12,14,36,291,42,17,28,055,35,18,24,218,31,15,22,143,38*72
$GPGSV,3,3,12,01,15,355,34,11,08,338,30,25,07,203,32,28,05,038,36*79
$GPRMC,073652.000,A,6358.7276,N,02220.4345,W,41.87,60.15,290812,,,A*79
$GPGGA,073653.000,6358.7334,N,02220.4117,W,1,09,0.9,44.3,M,60.8,M,,0000*7D
$GPGSA,A,3,18,22,12,09,01,27,17,14,15,,,,1.9,0.9,1.7*35
$GPRMC,073653.000,A,6358.7334,N,02220.4117,W,41.79,60.10,290812,,,A*7E
$GPGGA,073654.000,6358.7392,N,02220.3889,W,1,09,0.9,44.4,M,60.8,M,,0000*78
$GPGSA,A,3,18,22,12,09,01,27,17,14,15,,,,1.9,0.9,1.7*35
$GPRMC,073654.000,A,6358.7392,N,02220.3889,W,41.78,59.83,290812,,,A*7D
$GPGGA,073655.000,6358.7449,N,02220.3661,W,1,09,0.9,44.5,M,60.8,M,,0000*71
$GPGSA,A,3,18,22,12,09,01,27,17,14,15,,,,1.9,0.9,1.7*35
$GPRMC,073655.000,A,6358.7449,N,02220.3661,W,41.79,60.06,290812,,,A*73
$GPGGA,073656.000,6358.7507,N,02220.3432,W,1,09,0.9,44.7,M,60.8,M,,0000*7F
$GPGSA,A,3,18,22,12,09,01,27,17,14,15,,,,1.9,0.9,1.7*35
$GPRMC,073656.000,A,6358.7507,N,02220.3432,W,41.86,60.17,290812,,,A*7F
$GPGGA,073657.000,6358.7565,N,02220.3203,W,1,09,0.9,44.8,M,60.8,M,,0000*71
$GPGSA,A,3,18,22,12,09,01,27,17,14,15,,,,1.9,0.9,1.7*35
$GPGSV,3,1,12,09,68,109,41,27,56,099,43,12,39,180,46,22,38,264,34*7D
$GPGSV,3,2,12,14,36,291,42,17,28,055,34,18,24,218,31,15,22,143,37*7C
$GPGSV,3,3,12,01,15,355,34,11,08,338,30,25,07,203,32,28,05,038,33*7C
$GPRMC,073657.000,A,6358.7565,N,02220.3203,W,41.95,60.08,290812,,,A*72
$GPGGA,073658.000,6358.7623,N,02220.2974,W,1,09,0.9,44.9,M,60.8,M,,0000*74
$GPGSA,A,3,18,22,12,09,01,27,17,14,15,,,,1.9,0.9,1.7*35
$GPRMC,073658.000,A,6358.7623,N,02220.2974,W,42.06,59.81,290812,,,A*74
$GPGGA,073659.000,6358.7681,N,02220.2744,W,1,09,0.9,45.0,M,60.8,M,,0000*78
$GPGSA,A,3,18,22,12,09,01,27,17,14,15,,,,1.9,0.9,1.7*35
$GPRMC,073659.000,A,6358.7681,N,02220.2744,W,42.17,59.96,290812,,,A*76
$GPGGA,073700.000,6358.7740,N,02220.2514,W,1,09,0.9,45.2,M,60.8,M,,0000*7C
$GPGSA,A,3,18,22,12,09,01,27,17,14,15,,,,1.9,0.9,1.7*35
$GPRMC,073700.000,A,6358.7740,N,02220.2514,W,42.25,60.00,290812,,,A*74
$GPGGA,073701.000,6358.7798,N,02220.2283,W,1,09,0.9,45.3,M,60.8,M,,0000*70
$GPGSA,A,3,18,22,12,09,01,27,17,14,15,,,,1.9,0.9,1.7*35
$GPRMC,073701.000,A,6358.7798,N,02220.2283,W,42.32,59.95,290812,,,A*79
$GPGGA,073702.000,6358.7857,N,02220.2053,W,1,09,0.9,45.4,M,60.8,M,,0000*77
$GPGSA,A,3,18,22,12,09,01,27,17,14,15,,,,1.9,0.9,1.7*35
$GPGSV,3,1,12,09,68,109,41,27,56,099,43,12,39,180,46,22,38,264,35*7C
$GPGSV,3,2,12,14,36,291,42,17,28,055,34,18,24,218,31,15,22,143,37*7C
$GPGSV,3,3,12,01,15,355,34,11,08,338,31,25,07,203,34,28,05,038,32*7A
$GPRMC,073702.000,A,6358.7857,N,02220.2053,W,42.24,59.92,290812,,,A*79
$GPGGA,073703.000,6358.7915,N,02220.1824,W,1,09,0.9,45.6,M,60.8,M,,0000*78
$GPGSA,A,3,18,22,12,09,01,27,17,14,15,,,,1.9,0.9,1.7*35
$GPRMC,073703.000,A,6358.7915,N,02220.1824,W,42.02,59.99,290812,,,A*7B
$GPGGA,073704.000,6358.7972,N,02220.1596,W,1,09,0.9,45.7,M,60.8,M,,0000*7B
$GPGSA,A,3,18,22,12,09,01,27,17,14,15,,,,1.9,0.9,1.7*35
$GPRMC,073704.000,A,6358.7972,N,02220.1596,W,41.70,60.14,290812,,,A*70
$GPGGA,073705.000,6358.8029,N,02220.1370,W,1,09,0.9,45.9,M,60.8,M,,0000*72
$GPGSA,A,3,18,22,12,09,01,27,17,14,15,,,,1.9,0.9,1.7*35
$GPRMC,073705.000,A,6358.8029,N,02220.1370,W,41.46,60.21,290812,,,A*74
$GPGGA,073706.000,6358.8086,N,02220.1144,W,1,09,0.9,46.0,M,60.8,M,,0000*7B
$GPGSA,A,3,18,22,12,09,01,27,17,14,15,,,,1.9,0.9,1.7*35
$GPRMC,073706.000,A,6358.8086,N,02220.1144,W,41.31,60.14,290812,,,A*71
$GPGGA,073707.000,6358.8143,N,02220.0919,W,1,09,0.9,46.2,M,60.8,M,,0000*71
$GPGSA,A,3,18,22,12,09,01,27,17,14,15,,,,1.9,0.9,1.7*35
$GPGSV,3,1,12,09,68,109,41,27,56,099,43,12,39,180,46,22,38,264,36*7F
$GPGSV,3,2,12,14,36,291,42,17,28,055,35,18,24,218,31,15,22,143,37*7D
$GPGSV,3,3,12,01,15,355,34,11,08,338,31,25,07,203,32,28,05,038,33*7D
$GPRMC,073707.000,A,6358.8143,N,02220.0919,W,41.20,60.10,290812,,,A*7D
$GPGGA,073708.000,6358.8199,N,02220.0694,W,1,09,0.9,46.3,M,60.8,M,,0000*72
$GPGSA,A,3,18,22,12,09,01,27,17,14,15,,,,1.9,0.9,1.7*35
$GPRMC,073708.000,A,6358.8199,N,02220.0694,W,41.11,59.99,290812,,,A*76
$GPGGA,073709.000,6358.8257,N,02220.0472,W,1,09,0.9,46.5,M,60.8,M,,0000*7E
$GPGSA,A,3,18,22,12,09,01,27,17,14,15,,,,1.9,0.9,1.7*35
$GPRMC,073709.000,A,6358.8257,N,02220.0472,W,41.00,59.33,290812,,,A*7C
$GPGGA,073710.000,6358.8315,N,02220.0251,W,1,09,0.9,46.7,M,60.8,M,,0000*74
$GPGSA,A,3,18,22,12,09,01,27,17,14,15,,,,1.9,0.9,1.7*35
$GPRMC,073710.000,A,6358.8315,N,02220.0251,W,40.92,59.07,290812,,,A*79
$GPGGA,073711.000,6358.8374,N,02220.0031,W,1,09,0.9,46.8,M,60.8,M,,0000*79
$GPGSA,A,3,18,22,12,09,01,27,17,14,15,,,,1.9,0.9,1.7*35
$GPRMC,073711.000,A,6358.8374,N,02220.0031,W,40.83,58.74,290812,,,A*7E
$GPGGA,073712.000,6358.8431,N,02219.9810,W,1,09,0.9,47.0,M,60.8,M,,0000*7D
$GPGSA,A,3,18,22,12,09,01,27,17,14,15,,,,1.9,0.9,1.7*35
$GPGSV,3,1,12,09,68,109,42,27,56,099,42,12,39,180,46,22,38,264,36*7D
$GPGSV,3,2,12,14,36,291,42,17,28,055,36,18,24,218,35,15,22,143,38*75
$GPGSV,3,3,12,01,15,355,31,11,08,338,31,25,07,203,30,28,05,038,29*71
$GPRMC,073712.000,A,6358.8431,N,02219.9810,W,40.77,59.35,290812,,,A*7C
$GPGGA,073713.000,6358.8487,N,02219.9588,W,1,09,0.9,47.2,M,60.8,M,,0000*7F
$GPGSA,A,3,18,22,12,09,01,27,17,14,15,,,,1.9,0.9,1.7*35
$GPRMC,073713.000,A,6358.8487,N,02219.9588,W,40.72,59.90,290812,,,A*76
$GPGGA,073714.000,6358.8543,N,02219.9366,W,1,09,0.9,47.3,M,60.8,M,,0000*76
$GPGSA,A,3,18,22,12,09,01,27,17,14,15,,,,1.9,0.9,1.7*35
$GPRMC,073714.000,A,6358.8543,N,02219.9366,W,40.68,60.25,290812,,,A*71
$GPGGA,073715.000,6358.8599,N,02219.9143,W,1,09,0.9,47.5,M,60.8,M,,0000*73
$GPGSA,A,3,18,22,12,09,01,27,17,14,15,,,,1.9,0.9,1.7*35
$GPRMC,073715.000,A,6358.8599,N,02219.9143,W,40.65,60.40,290812,,,A*7C
$GPGGA,073716.000,6358.8654,N,02219.8920,W,1,09,0.9,47.7,M,60.8,M,,0000*7C
$GPGSA,A,3,18,22,12,09,01,27,17,14,15,,,,1.9,0.9,1.7*35
$GPRMC,073716.000,A,6358.8654,N,02219.8920,W,40.69,60.57,290812,,,A*7B
$GPGGA,073717.000,6358.8709,N,02219.8697,W,1,09,0.9,47.9,M,60.8,M,,0000*79
$GPGSA,A,3,18,22,12,09,01,27,17,14,15,,,,1.9,0.9,1.7*35
$GPGSV,3,1,12,09,68,109,42,27,56,099,42,12,39,180,45,22,38,264,36*7E
$GPGSV,3,2,12,14,36,291,41,17,28,055,36,18,24,218,26,15,22,143,38*74
$GPGSV,3,3,12,01,15,355,32,25,08,203,32,11,07,338,31,28,05,038,31*79
$GPRMC,073717.000,A,6358.8709,N,02219.8697,W,40.65,60.44,290812,,,A*7E
$GPGGA,073718.000,6358.8765,N,02219.8476,W,1,09,0.9,48.1,M,60.8,M,,0000*76
$GPGSA,A,3,18,22,12,09,01,27,17,14,15,,,,1.9,0.9,1.7*35
$GPRMC,073718.000,A,6358.8765,N,02219.8476,W,40.61,60.06,290812,,,A*74
$GPGGA,073719.000,6358.8821,N,02219.8254,W,1,09,0.9,48.3,M,60.8,M,,0000*7C
$GPGSA,A,3,18,22,12,09,01,27,17,14,15,,,,1.9,0.9,1.7*35
$GPRMC,073719.000,A,6358.8821,N,02219.8254,W,40.56,60.02,290812,,,A*7C
$GPGGA,073720.000,6358.8877,N,02219.8034,W,1,09,0.9,48.5,M,60.8,M,,0000*77
$GPGSA,A,3,18,22,12,09,01,27,17,14,15,,,,1.9,0.9,1.7*35
$GPRMC,073720.000,A,6358.8877,N,02219.8034,W,40.48,59.91,290812,,,A*7E
$GPGGA,073721.000,6358.8933,N,02219.7813,W,1,09,0.9,48.7,M,60.8,M,,0000*77
$GPGSA,A,3,18,22,12,09,01,27,17,14,15,,,,1.9,0.9,1.7*35
$GPRMC,073721.000,A,6358.8933,N,02219.7813,W,40.47,60.08,290812,,,A*79
$GPGGA,073722.000,6358.8989,N,02219.7592,W,1,09,0.9,48.9,M,60.8,M,,0000*7F
$GPGSA,A,3,18,22,12,09,01,27,17,14,15,,,,1.9,0.9,1.7*35
$GPGSV,3,1,12,09,68,109,42,27,56,099,41,12,39,180,45,22,38,264,37*7C
$GPGSV,3,2,12,14,36,291,41,17,28,055,36,18,24,218,27,15,22,143,32*7F
$GPGSV,3,3,12,01,15,355,36,25,08,203,30,11,07,338,31,28,05,038,32*7C
$GPRMC,073722.000,A,6358.8989,N,02219.7592,W,40.50,60.09,290812,,,A*78
$GPGGA,073723.000,6358.9045,N,02219.7370,W,1,09,0.9,49.1,M,60.8,M,,0000*75
$GPGSA,A,3,18,22,12,09,01,27,17,14,15,,,,1.9,0.9,1.7*35
$GPRMC,073723.000,A,6358.9045,N,02219.7370,W,40.63,59.77,290812,,,A*78
$GPGGA,073724.000,6358.9102,N,02219.7148,W,1,09,0.9,49.3,M,60.8,M,,0000*7B
$GPGSA,A,3,18,22,12,09,01,27,17,14,15,,,,1.9,0.9,1.7*35
$GPRMC,073724.000,A,6358.9102,N,02219.7148,W,40.82,59.78,290812,,,A*74
$GPGGA,073725.000,6358.9159,N,02219.6925,W,1,09,0.9,49.4,M,60.8,M,,0000*71
$GPGSA,A,3,18,22,12,09,01,27,17,14,15,,,,1.9,0.9,1.7*35
$GPRMC,073725.000,A,6358.9159,N,02219.6925,W,41.07,59.79,290812,,,A*74
$GPGGA,073726.000,6358.9216,N,02219.6700,W,1,09,0.9,49.6,M,60.8,M,,0000*71
$GPGSA,A,3,18,22,12,09,01,27,17,14,15,,,,1.9,0.9,1.7*35
$GPRMC,073726.000,A,6358.9216,N,02219.6700,W,41.30,60.00,290812,,,A*76
$GPGGA,073727.000,6358.9273,N,02219.6473,W,1,09,0.9,49.8,M,60.8,M,,0000*7A
$GPGSA,A,3,18,22,12,09,01,27,17,14,15,,,,1.9,0.9,1.7*35
$GPGSV,3,1,12,09,68,109,42,27,56,099,41,12,39,180,46,22,38,264,36*7E
$GPGSV,3,2,12,14,36,291,41,17,28,055,37,18,24,218,27,15,22,143,35*79
$GPGSV,3,3,12,01,15,355,35,25,08,203,29,11,07,338,28,28,05,038,32*7F
$GPRMC,073727.000,A,6358.9273,N,02219.6473,W,41.51,60.11,290812,,,A*74
$GPGGA,073728.000,6358.9331,N,02219.6246,W,1,09,0.9,50.0,M,60.8,M,,0000*72
$GPGSA,A,3,18,22,12,09,01,27,17,14,15,,,,1.9,0.9,1.7*35
$GPRMC,073728.000,A,6358.9331,N,02219.6246,W,41.69,60.05,290812,,,A*72
$GPGGA,073729.000,6358.9389,N,02219.6018,W,1,09,0.9,50.2,M,60.8,M,,0000*7B
$GPGSA,A,3,18,22,12,09,01,27,17,14,15,,,,1.9,0.9,1.7*35
$GPRMC,073729.000,A,6358.9389,N,02219.6018,W,41.88,59.87,290812,,,A*76
$GPGGA,073730.000,6358.9446,N,02219.5788,W,1,09,0.9,50.3,M,60.8,M,,0000*7B
$GPGSA,A,3,18,22,12,09,01,27,17,14,15,,,,1.9,0.9,1.7*35
$GPRMC,073730.000,A,6358.9446,N,02219.5788,W,42.05,60.23,290812,,,A*75
$GPGGA,073731.000,6358.9504,N,02219.5557,W,1,09,0.9,50.5,M,60.8,M,,0000*7B
$GPGSA,A,3,18,22,12,09,01,27,17,14,15,,,,1.9,0.9,1.7*35
$GPRMC,073731.000,A,6358.9504,N,02219.5557,W,42.23,60.49,290812,,,A*7B
$GPGGA,073732.000,6358.9562,N,02219.5325,W,1,09,0.9,50.6,M,60.8,M,,0000*78
$GPGSA,A,3,18,22,12,09,01,27,17,14,15,,,,1.9,0.9,1.7*35
$GPGSV,3,1,12,09,68,109,42,27,56,099,42,12,39,180,45,22,38,264,37*7F
$GPGSV,3,2,12,14,36,291,41,17,28,055,36,18,24,218,27,15,22,143,40*7A
$GPGSV,3,3,12,01,15,355,33,25,08,203,36,11,07,338,30,28,05,038,32*7E
$GPRMC,073732.000,A,6358.9562,N,02219.5325,W,42.39,60.43,290812,,,A*7A
$GPGGA,073733.000,6358.9621,N,02219.5094,W,1,09,0.9,50.8,M,60.8,M,,0000*7A
$GPGSA,A,3,18,22,12,09,01,27,17,14,15,,,,1.9,0.9,1.7*35
$GPRMC,073733.000,A,6358.9621,N,02219.5094,W,42.53,59.65,290812,,,A*74
$GPGGA,073734.000,6358.9680,N,02219.4862,W,1,09,0.9,50.9,M,60.8,M,,0000*77
$GPGSA,A,3,18,22,12,09,01,27,17,14,15,,,,1.9,0.9,1.7*35
$GPRMC,073734.000,A,6358.9680,N,02219.4862,W,42.69,59.67,290812,,,A*73
$GPGGA,073735.000,6358.9740,N,02219.4629,W,1,09,0.9,51.0,M,60.8,M,,0000*72
$GPGSA,A,3,18,22,12,09,01,27,17,14,15,,,,1.9,0.9,1.7*35
$GPRMC,073735.000,A,6358.9740,N,02219.4629,W,42.85,59.73,290812,,,A*79
$GPGGA,073736.000,6358.9800,N,02219.4394,W,1,09,0.9,51.1,M,60.8,M,,0000*78
$GPGSA,A,3,18,22,12,09,01,27,17,14,15,,,,1.9,0.9,1.7*35
$GPRMC,073736.000,A,6358.9800,N,02219.4394,W,43.03,59.98,290812,,,A*78
$GPGGA,073737.000,6358.9859,N,02219.4159,W,1,09,0.9,51.2,M,60.8,M,,0000*75
$GPGSA,A,3,18,22,12,09,01,27,17,14,15,,,,1.9,0.9,1.7*35
$GPGSV,3,1,12,09,68,109,42,27,56,099,42,12,39,180,46,22,38,264,37*7C
$GPGSV,3,2,12,14,36,291,41,17,28,055,36,18,24,218,26,15,22,143,39*75
$GPGSV,3,3,12,01,15,355,35,25,08,203,27,11,07,338,30,28,05,038,33*79
$GPRMC,073737.000,A,6358.9859,N,02219.4159,W,43.17,60.08,290812,,,A*70
$GPGGA,073738.000,6358.9919,N,02219.3923,W,1,09,0.9,51.3,M,60.8,M,,0000*7C
$GPGSA,A,3,18,22,12,09,01,27,17,14,15,,,,1.9,0.9,1.7*35
$GPRMC,073738.000,A,6358.9919,N,02219.3923,W,43.29,59.93,290812,,,A*7D
$GPGGA,073739.000,6358.9979,N,02219.3687,W,1,09,0.9,51.3,M,60.8,M,,0000*7A
$GPGSA,A,3,18,22,12,09,01,27,17,14,15,,,,1.9,0.9,1.7*35
$GPRMC,073739.000,A,6358.9979,N,02219.3687,W,43.36,59.91,290812,,,A*77
$GPGGA,073740.000,6359.0039,N,02219.3451,W,1,09,0.9,51.4,M,60.8,M,,0000*7F
$GPGSA,A,3,18,22,12,09,01,27,17,14,15,,,,1.9,0.9,1.7*35
$GPRMC,073740.000,A,6359.0039,N,02219.3451,W,43.43,59.79,290812,,,A*71
$GPGGA,073741.000,6359.0100,N,02219.3214,W,1,09,0.9,51.5,M,60.8,M,,0000*73
$GPGSA,A,3,18,22,12,09,01,27,17,14,15,,,,1.9,0.9,1.7*35
$GPRMC,073741.000,A,6359.0100,N,02219.3214,W,43.50,59.79,290812,,,A*7E
$GPGGA,073742.000,6359.0160,N,02219.2977,W,1,09,0.9,51.5,M,60.8,M,,0000*79
$GPGSA,A,3,18,22,12,09,01,27,17,14,15,,,,1.9,0.9,1.7*35
$GPGSV,3,1,12,09,68,109,42,27,56,099,42,12,39,180,46,22,38,264,36*7D
$GPGSV,3,2,12,14,36,291,41,17,28,055,35,18,24,218,27,15,22,143,38*76
$GPGSV,3,3,12,01,15,355,36,25,08,203,33,11,07,338,30,28,05,038,34*78
$GPRMC,073742.000,A,6359.0160,N,02219.2977,W,43.49,59.97,290812,,,A*7C
$GPGGA,073743.000,6359.0220,N,02219.2739,W,1,09,0.9,51.5,M,60.8,M,,0000*7B
$GPGSA,A,3,18,22,12,09,01,27,17,14,15,,,,1.9,0.9,1.7*35
$GPRMC,073743.000,A,6359.0220,N,02219.2739,W,43.53,60.07,290812,,,A*76
$GPGGA,073744.000,6359.0280,N,02219.2502,W,1,09,0.9,51.6,M,60.8,M,,0000*7F
