$GPGGA,181904.000,6500.6189,N,02148.9279,W,1,10,0.9,53.7,M,60.7,M,,0000*7C
$GPGSA,A,3,27,19,32,09,14,28,01,22,11,17,,,1.9,0.9,1.6*39
$GPGSV,3,1,12,11,71,176,32,01,61,219,37,28,46,281,32,19,38,131,26*71
$GPGSV,3,2,12,22,30,055,38,32,26,168,28,14,20,078,21,27,18,350,32*73
$GPGSV,3,3,12,17,15,291,24,09,14,004,31,20,07,192,,03,07,133,29*7F
$GPRMC,181904.000,A,6500.6189,N,02148.9279,W,28.42,283.19,040912,,,A*45
$GPGGA,181905.000,6500.6208,N,02148.9461,W,1,10,0.9,54.7,M,60.7,M,,0000*7F
$GPGSA,A,3,27,19,32,09,14,28,01,22,11,17,,,1.9,0.9,1.6*39
$GPRMC,181905.000,A,6500.6208,N,02148.9461,W,28.66,283.31,040912,,,A*4D
$GPGGA,181906.000,6500.6226,N,02148.9642,W,1,10,0.9,55.8,M,60.7,M,,0000*7D
$GPGSA,A,3,27,19,32,09,14,28,01,22,11,17,,,1.9,0.9,1.6*39
$GPRMC,181906.000,A,6500.6226,N,02148.9642,W,28.61,282.89,040912,,,A*44
$GPGGA,181907.000,6500.6244,N,02148.9826,W,1,09,0.9,56.9,M,60.7,M,,0000*7E
$GPGSA,A,3,27,32,09,14,28,01,22,11,17,,,,1.9,0.9,1.7*30
$GPRMC,181907.000,A,6500.6244,N,02148.9826,W,28.85,282.67,040912,,,A*47
$GPGGA,181908.000,6500.6263,N,02149.0011,W,1,10,0.9,58.0,M,60.7,M,,0000*7F
$GPGSA,A,3,27,19,32,09,14,28,01,22,11,17,,,1.9,0.9,1.7*38
$GPRMC,181908.000,A,6500.6263,N,02149.0011,W,29.14,283.13,040912,,,A*42
$GPGGA,181909.000,6500.6283,N,02149.0197,W,1,10,0.9,59.1,M,60.7,M,,0000*7F
$GPGSA,A,3,27,19,32,09,14,28,01,22,11,17,,,1.9,0.9,1.7*38
$GPGSV,3,1,12,11,71,176,33,01,61,219,38,28,46,281,33,19,38,131,19*72
$GPGSV,3,2,12,22,30,055,39,32,26,168,31,14,20,078,27,27,18,350,30*7E
$GPGSV,3,3,12,17,15,291,30,09,14,004,31,20,07,192,,03,07,133,33*71
$GPRMC,181909.000,A,6500.6283,N,02149.0197,W,29.46,283.50,040912,,,A*42
$GPGGA,181910.000,6500.6303,N,02149.0385,W,1,10,0.9,60.0,M,60.7,M,,0000*74
$GPGSA,A,3,27,19,32,09,14,28,01,22,11,17,,,1.9,0.9,1.7*38
$GPRMC,181910.000,A,6500.6303,N,02149.0385,W,29.60,283.33,040912,,,A*43
$GPGGA,181911.000,6500.6323,N,02149.0575,W,1,10,0.9,61.1,M,60.7,M,,0000*7E
$GPGSA,A,3,27,19,32,09,14,28,01,22,11,17,,,1.9,0.9,1.7*38
$GPRMC,181911.000,A,6500.6323,N,02149.0575,W,29.97,283.56,040912,,,A*42
$GPGGA,181912.000,6500.6342,N,02149.0765,W,1,10,0.9,62.0,M,60.7,M,,0000*7B
$GPGSA,A,3,27,19,32,09,14,28,01,22,11,17,,,1.9,0.9,1.7*38
$GPRMC,181912.000,A,6500.6342,N,02149.0765,W,29.92,282.83,040912,,,A*49
$GPGGA,181913.000,6500.6360,N,02149.0956,W,1,10,0.9,62.9,M,60.7,M,,0000*7D
$GPGSA,A,3,27,19,32,09,14,28,01,22,11,17,,,1.9,0.9,1.7*38
$GPRMC,181913.000,A,6500.6360,N,02149.0956,W,29.98,282.64,040912,,,A*45
$GPGGA,181914.000,6500.6379,N,02149.1148,W,1,10,0.9,63.7,M,60.7,M,,0000*7B
$GPGSA,A,3,27,19,32,09,14,28,01,22,11,17,,,1.9,0.9,1.7*38
$GPGSV,3,1,12,11,71,176,33,01,61,219,39,28,46,281,34,19,38,131,18*75
$GPGSV,3,2,12,22,30,055,39,32,26,168,30,14,20,078,27,27,18,350,27*79
$GPGSV,3,3,12,17,15,291,37,09,14,004,31,20,07,192,,03,07,133,24*70
$GPRMC,181914.000,A,6500.6379,N,02149.1148,W,30.18,282.53,040912,,,A*48
$GPGGA,181915.000,6500.6397,N,02149.1340,W,1,10,0.9,64.4,M,60.7,M,,0000*74
$GPGSA,A,3,27,19,32,09,14,28,01,22,11,17,,,1.9,0.9,1.7*38
$GPRMC,181915.000,A,6500.6397,N,02149.1340,W,30.19,282.73,040912,,,A*40
$GPGGA,181916.000,6500.6417,N,02149.1534,W,1,10,0.9,65.1,M,60.7,M,,0000*79
$GPGSA,A,3,27,19,32,09,14,28,01,22,11,17,,,1.9,0.9,1.7*38
$GPRMC,181916.000,A,6500.6417,N,02149.1534,W,30.45,283.19,040912,,,A*4D
$GPGGA,181917.000,6500.6437,N,02149.1729,W,1,10,0.9,65.8,M,60.7,M,,0000*7D
$GPGSA,A,3,27,19,32,09,14,28,01,22,11,17,,,1.9,0.9,1.7*38
$GPRMC,181917.000,A,6500.6437,N,02149.1729,W,30.72,283.35,040912,,,A*4A
$GPGGA,181918.000,6500.6456,N,02149.1925,W,1,10,0.9,66.4,M,60.7,M,,0000*78
$GPGSA,A,3,27,19,32,09,14,28,01,22,11,17,,,1.9,0.9,1.7*38
$GPRMC,181918.000,A,6500.6456,N,02149.1925,W,30.88,282.95,040912,,,A*4E
$GPGGA,181919.000,6500.6475,N,02149.2122,W,1,10,0.9,67.0,M,60.7,M,,0000*71
$GPGSA,A,3,27,19,32,09,14,28,01,22,11,17,,,1.9,0.9,1.7*38
$GPGSV,3,1,12,11,71,176,33,01,61,219,40,28,46,281,34,19,38,131,24*74
$GPGSV,3,2,12,22,30,055,38,32,26,168,33,14,20,078,28,27,18,350,34*76
$GPGSV,3,3,12,17,15,291,36,09,14,004,31,20,07,192,,03,07,133,25*70
$GPRMC,181919.000,A,6500.6475,N,02149.2122,W,30.79,282.69,040912,,,A*4F
$GPGGA,181920.000,6500.6493,N,02149.2317,W,1,10,0.9,67.5,M,60.7,M,,0000*72
$GPGSA,A,3,27,19,32,09,14,28,01,22,11,17,,,1.9,0.9,1.7*38
$GPRMC,181920.000,A,6500.6493,N,02149.2317,W,30.56,282.58,040912,,,A*46
$GPGGA,181921.000,6500.6513,N,02149.2510,W,1,10,0.9,68.0,M,60.7,M,,0000*71
$GPGSA,A,3,27,19,32,09,14,28,01,22,11,17,,,1.9,0.9,1.7*38
$GPRMC,181921.000,A,6500.6513,N,02149.2510,W,30.46,283.43,040912,,,A*45
$GPGGA,181922.000,6500.6532,N,02149.2703,W,1,10,0.9,68.5,M,60.7,M,,0000*74
$GPGSA,A,3,27,19,32,09,14,28,01,22,11,17,,,1.9,0.9,1.7*38
$GPRMC,181922.000,A,6500.6532,N,02149.2703,W,30.33,283.83,040912,,,A*4B
$GPGGA,181923.000,6500.6551,N,02149.2897,W,1,10,0.9,68.9,M,60.7,M,,0000*7E
$GPGSA,A,3,27,19,32,09,14,28,01,22,11,17,,,1.9,0.9,1.7*38
$GPRMC,181923.000,A,6500.6551,N,02149.2897,W,30.41,283.21,040912,,,A*40
$GPGGA,181924.000,6500.6570,N,02149.3090,W,1,10,0.9,69.4,M,60.7,M,,0000*78
$GPGSA,A,3,27,19,32,09,14,28,01,22,11,17,,,1.9,0.9,1.7*38
$GPGSV,3,1,12,11,71,176,33,01,61,219,40,28,46,281,33,19,38,131,28*7F
$GPGSV,3,2,12,22,30,055,32,32,26,168,34,14,20,078,29,27,18,350,35*7B
$GPGSV,3,3,12,17,15,291,36,09,14,004,26,20,07,192,,03,07,133,28*7B
$GPRMC,181924.000,A,6500.6570,N,02149.3090,W,30.33,282.63,040912,,,A*48
$GPGGA,181925.000,6500.6588,N,02149.3284,W,1,10,0.9,69.8,M,60.7,M,,0000*75
$GPGSA,A,3,27,19,32,09,14,28,01,22,11,17,,,1.9,0.9,1.7*38
$GPRMC,181925.000,A,6500.6588,N,02149.3284,W,30.29,282.76,040912,,,A*46
$GPGGA,181926.000,6500.6606,N,02149.3477,W,1,10,0.9,70.2,M,60.7,M,,0000*7B
$GPGSA,A,3,27,19,32,09,14,28,01,22,11,17,,,1.9,0.9,1.7*38
$GPRMC,181926.000,A,6500.6606,N,02149.3477,W,30.34,282.67,040912,,,A*46
$GPGGA,181927.000,6500.6624,N,02149.3671,W,1,10,0.9,70.5,M,60.7,M,,0000*79
$GPGSA,A,3,27,19,32,09,14,28,01,22,11,17,,,1.9,0.9,1.7*38
$GPRMC,181927.000,A,6500.6624,N,02149.3671,W,30.36,282.70,040912,,,A*47
$GPGGA,181928.000,6500.6643,N,02149.3865,W,1,10,0.9,70.7,M,60.7,M,,0000*7E
$GPGSA,A,3,27,19,32,09,14,28,01,22,11,17,,,1.9,0.9,1.7*38
$GPRMC,181928.000,A,6500.6643,N,02149.3865,W,30.46,283.32,040912,,,A*42
$GPGGA,181929.000,6500.6663,N,02149.4059,W,1,10,0.9,70.9,M,60.7,M,,0000*73
$GPGSA,A,3,27,19,32,09,14,28,01,22,11,17,,,1.9,0.9,1.7*38
$GPGSV,3,1,12,11,71,176,33,01,61,219,41,28,46,281,33,19,38,131,23*75
$GPGSV,3,2,12,22,30,055,32,32,26,168,31,14,20,078,29,27,18,350,30*7B
$GPGSV,3,3,12,17,15,291,37,09,14,004,28,20,07,192,,03,07,133,31*7C
$GPRMC,181929.000,A,6500.6663,N,02149.4059,W,30.55,283.93,040912,,,A*48
$GPGGA,181930.000,6500.6683,N,02149.4255,W,1,10,0.9,71.1,M,60.7,M,,0000*72
$GPGSA,A,3,27,19,32,09,14,28,01,22,11,17,,,1.9,0.9,1.7*38
$GPRMC,181930.000,A,6500.6683,N,02149.4255,W,30.68,283.28,040912,,,A*4E
$GPGGA,181931.000,6500.6701,N,02149.4453,W,1,10,0.9,71.3,M,60.7,M,,0000*7A
$GPGSA,A,3,27,19,32,09,14,28,01,22,11,17,,,1.9,0.9,1.7*38
$GPRMC,181931.000,A,6500.6701,N,02149.4453,W,30.95,282.39,040912,,,A*47
$GPGGA,181932.000,6500.6718,N,02149.4653,W,1,10,0.9,71.5,M,60.7,M,,0000*75
$GPGSA,A,3,27,19,32,09,14,28,01,22,11,17,,,1.9,0.9,1.7*38
$GPRMC,181932.000,A,6500.6718,N,02149.4653,W,31.24,281.63,040912,,,A*49
$GPGGA,181933.000,6500.6737,N,02149.4854,W,1,10,0.9,71.8,M,60.7,M,,0000*7D
$GPGSA,A,3,27,19,32,09,14,28,01,22,11,17,,,1.9,0.9,1.7*38
$GPRMC,181933.000,A,6500.6737,N,02149.4854,W,31.50,282.66,040912,,,A*49
$GPGGA,181934.000,6500.6757,N,02149.5056,W,1,10,0.9,72.0,M,60.7,M,,0000*7C
$GPGSA,A,3,27,19,32,09,14,28,01,22,11,17,,,1.9,0.9,1.7*38
$GPGSV,3,1,12,11,71,174,32,01,62,219,41,28,46,281,33,19,37,131,23*7A
$GPGSV,3,2,12,22,30,054,33,32,27,168,33,14,20,078,29,27,18,350,34*7C
$GPGSV,3,3,12,17,15,291,37,09,14,003,27,20,08,192,,03,06,133,36*7D
$GPRMC,181934.000,A,6500.6757,N,02149.5056,W,31.65,283.43,040912,,,A*43
$GPGGA,181935.000,6500.6776,N,02149.5258,W,1,10,0.9,72.2,M,60.7,M,,0000*70
$GPGSA,A,3,27,19,32,09,14,28,01,22,11,17,,,1.9,0.9,1.7*38
$GPRMC,181935.000,A,6500.6776,N,02149.5258,W,31.70,282.95,040912,,,A*43
$GPGGA,181936.000,6500.6795,N,02149.5460,W,1,10,0.9,72.4,M,60.7,M,,0000*75
$GPGSA,A,3,27,19,32,09,14,28,01,22,11,17,,,1.9,0.9,1.7*38
$GPRMC,181936.000,A,6500.6795,N,02149.5460,W,31.52,282.08,040912,,,A*44
$GPGGA,181937.000,6500.6812,N,02149.5661,W,1,10,0.9,72.7,M,60.7,M,,0000*74
$GPGSA,A,3,27,19,32,09,14,28,01,22,11,17,,,1.9,0.9,1.7*38
$GPRMC,181937.000,A,6500.6812,N,02149.5661,W,31.43,281.47,040912,,,A*4E
$GPGGA,181938.000,6500.6829,N,02149.5862,W,1,10,0.9,73.0,M,60.7,M,,0000*78
$GPGSA,A,3,27,19,32,09,14,28,01,22,11,17,,,1.9,0.9,1.7*38
$GPRMC,181938.000,A,6500.6829,N,02149.5862,W,31.29,281.66,040912,,,A*4B
$GPGGA,181939.000,6500.6847,N,02149.6062,W,1,10,0.9,73.4,M,60.7,M,,0000*7E
$GPGSA,A,3,27,19,32,09,14,28,01,22,11,17,,,1.9,0.9,1.7*38
$GPGSV,3,1,12,11,71,174,32,01,62,219,41,28,46,281,34,19,37,131,26*78
$GPGSV,3,2,12,22,30,054,37,32,27,168,28,14,20,078,22,27,18,350,27*7B
$GPGSV,3,3,12,17,15,291,37,09,14,003,28,20,08,192,,03,06,133,24*71
$GPRMC,181939.000,A,6500.6847,N,02149.6062,W,31.25,282.01,040912,,,A*47
$GPGGA,181940.000,6500.6865,N,02149.6263,W,1,10,0.9,73.8,M,60.7,M,,0000*7F
$GPGSA,A,3,27,19,32,09,14,28,01,22,11,17,,,1.9,0.9,1.7*38
$GPRMC,181940.000,A,6500.6865,N,02149.6263,W,31.33,282.08,040912,,,A*44
$GPGGA,181941.000,6500.6885,N,02149.6463,W,1,10,0.9,74.2,M,60.7,M,,0000*7B
$GPGSA,A,3,27,19,32,09,14,28,01,22,11,17,,,1.9,0.9,1.7*38
$GPRMC,181941.000,A,6500.6885,N,02149.6463,W,31.35,283.06,040912,,,A*44
$GPGGA,181942.000,6500.6905,N,02149.6664,W,1,10,0.9,74.5,M,60.7,M,,0000*73
$GPGSA,A,3,27,19,32,09,14,28,01,22,11,17,,,1.9,0.9,1.7*38
$GPRMC,181942.000,A,6500.6905,N,02149.6664,W,31.52,283.25,040912,,,A*4B
$GPGGA,181943.000,6500.6925,N,02149.6865,W,1,10,0.9,74.9,M,60.7,M,,0000*73
$GPGSA,A,3,27,19,32,09,14,28,01,22,11,17,,,1.9,0.9,1.7*38
$GPRMC,181943.000,A,6500.6925,N,02149.6865,W,31.50,283.73,040912,,,A*46
$GPGGA,181944.000,6500.6945,N,02149.7066,W,1,10,0.9,75.3,M,60.7,M,,0000*73
$GPGSA,A,3,27,19,32,09,14,28,01,22,11,17,,,1.9,0.9,1.7*38
$GPGSV,3,1,12,11,71,174,32,01,62,219,41,28,46,281,34,19,37,131,26*78
$GPGSV,3,2,12,22,30,054,36,32,27,168,31,14,20,078,28,27,18,350,35*7B
$GPGSV,3,3,12,17,15,291,37,09,14,003,28,20,08,192,,03,06,133,33*77
$GPRMC,181944.000,A,6500.6945,N,02149.7066,W,31.55,283.53,040912,,,A*4A
$GPGGA,181945.000,6500.6966,N,02149.7266,W,1,10,0.9,75.8,M,60.7,M,,0000*7A
$GPGSA,A,3,27,19,32,09,14,28,01,22,11,17,,,1.9,0.9,1.7*38
$GPRMC,181945.000,A,6500.6966,N,02149.7266,W,31.41,283.41,040912,,,A*4E
$GPGGA,181946.000,6500.6985,N,02149.7466,W,1,10,0.9,76.2,M,60.7,M,,0000*7B
$GPGSA,A,3,27,19,32,09,14,28,01,22,11,17,,,1.9,0.9,1.7*38
$GPRMC,181946.000,A,6500.6985,N,02149.7466,W,31.33,283.15,040912,,,A*42
$GPGGA,181947.000,6500.7005,N,02149.7666,W,1,10,0.9,76.6,M,60.7,M,,0000*7C
$GPGSA,A,3,27,19,32,09,14,28,01,22,11,17,,,1.9,0.9,1.7*38
$GPRMC,181947.000,A,6500.7005,N,02149.7666,W,31.19,283.13,040912,,,A*4F
$GPGGA,181948.000,6500.7024,N,02149.7864,W,1,10,0.9,77.1,M,60.7,M,,0000*7A
$GPGSA,A,3,27,19,32,09,14,28,01,22,11,17,,,1.9,0.9,1.7*38
$GPRMC,181948.000,A,6500.7024,N,02149.7864,W,31.03,283.25,040912,,,A*41
$GPGGA,181949.000,6500.7043,N,02149.8061,W,1,10,0.9,77.6,M,60.7,M,,0000*7F
$GPGSA,A,3,27,19,32,09,14,28,01,22,11,17,,,1.9,0.9,1.7*38
$GPGSV,3,1,12,11,71,174,32,01,62,219,41,28,46,281,35,19,37,131,23*7C
$GPGSV,3,2,12,22,30,054,37,32,27,168,27,14,20,078,27,27,18,350,26*70
$GPGSV,3,3,12,17,15,291,36,09,14,003,33,20,08,192,19,03,06,133,33*74
$GPRMC,181949.000,A,6500.7043,N,02149.8061,W,30.80,282.84,040912,,,A*43
$GPGGA,181950.000,6500.7062,N,02149.8257,W,1,10,0.9,78.1,M,60.7,M,,0000*7B
$GPGSA,A,3,27,19,32,09,14,28,01,22,11,17,,,1.9,0.9,1.7*38
$GPRMC,181950.000,A,6500.7062,N,02149.8257,W,30.66,282.68,040912,,,A*45
$GPGGA,181951.000,6500.7080,N,02149.8452,W,1,10,0.9,78.7,M,60.7,M,,0000*73
$GPGSA,A,3,27,19,32,09,14,28,01,22,11,17,,,1.9,0.9,1.7*38
$GPRMC,181951.000,A,6500.7080,N,02149.8452,W,30.47,282.17,040912,,,A*40
$GPGGA,181952.000,6500.7098,N,02149.8647,W,1,10,0.9,79.3,M,60.7,M,,0000*7A
$GPGSA,A,3,27,19,32,09,14,28,01,22,11,17,,,1.9,0.9,1.7*38
$GPRMC,181952.000,A,6500.7098,N,02149.8647,W,30.37,282.15,040912,,,A*49
$GPGGA,181953.000,6500.7116,N,02149.8840,W,1,10,0.9,79.9,M,60.7,M,,0000*7F
$GPGSA,A,3,27,19,32,09,14,28,01,22,11,17,,,1.9,0.9,1.7*38
$GPRMC,181953.000,A,6500.7116,N,02149.8840,W,30.10,282.50,040912,,,A*42
$GPGGA,181954.000,6500.7135,N,02149.9032,W,1,10,0.9,80.5,M,60.7,M,,0000*7F
$GPGSA,A,3,27,19,32,09,14,28,01,22,11,17,,,1.9,0.9,1.7*38
$GPGSV,3,1,12,11,71,174,32,01,62,219,42,28,46,281,35,19,37,131,25*79
$GPGSV,3,2,12,22,30,054,38,32,27,168,28,14,20,078,22,27,18,350,28*7B
$GPGSV,3,3,12,17,15,291,37,09,14,003,34,20,08,192,26,03,06,133,29*75
$GPRMC,181954.000,A,6500.7135,N,02149.9032,W,29.94,283.05,040912,,,A*4D
$GPGGA,181955.000,6500.7154,N,02149.9223,W,1,10,0.9,81.0,M,60.7,M,,0000*7F
$GPGSA,A,3,27,19,32,09,14,28,01,22,11,17,,,1.9,0.9,1.7*38
$GPRMC,181955.000,A,6500.7154,N,02149.9223,W,29.88,283.42,040912,,,A*47
$GPGGA,181956.000,6500.7173,N,02149.9413,W,1,10,0.9,81.6,M,60.7,M,,0000*7A
$GPGSA,A,3,27,19,32,09,14,28,01,22,11,17,,,1.9,0.9,1.7*38
$GPRMC,181956.000,A,6500.7173,N,02149.9413,W,29.76,283.28,040912,,,A*49
$GPGGA,181957.000,6500.7192,N,02149.9600,W,1,10,0.9,82.1,M,60.7,M,,0000*70
$GPGSA,A,3,27,19,32,09,14,28,01,22,11,17,,,1.9,0.9,1.7*38
$GPRMC,181957.000,A,6500.7192,N,02149.9600,W,29.32,283.57,040912,,,A*4F
$GPGGA,181958.000,6500.7211,N,02149.9782,W,1,10,0.9,82.5,M,60.7,M,,0000*78
$GPGSA,A,3,27,19,32,09,14,28,01,22,11,17,,,1.9,0.9,1.7*38
$GPRMC,181958.000,A,6500.7211,N,02149.9782,W,28.57,283.81,040912,,,A*4A
$GPGGA,181959.000,6500.7229,N,02149.9962,W,1,10,0.9,82.7,M,60.7,M,,0000*70
$GPGSA,A,3,27,19,32,09,14,28,01,22,11,17,,,1.9,0.9,1.7*38
$GPGSV,3,1,12,11,71,174,28,01,62,219,42,28,46,281,35,19,37,131,27*70
$GPGSV,3,2,12,22,30,054,38,32,27,168,32,14,20,078,24,27,18,350,28*76
$GPGSV,3,3,12,17,15,291,37,09,14,003,34,20,08,192,23,03,06,133,29*70
$GPRMC,181959.000,A,6500.7229,N,02149.9962,W,28.23,283.98,040912,,,A*4B
$GPGGA,182000.000,6500.7249,N,02150.0143,W,1,10,0.9,82.8,M,60.7,M,,0000*75
$GPGSA,A,3,27,19,32,09,14,28,01,22,11,17,,,1.9,0.9,1.7*38
$GPRMC,182000.000,A,6500.7249,N,02150.0143,W,28.45,284.64,040912,,,A*45
$GPGGA,182001.000,6500.7269,N,02150.0325,W,1,10,0.9,82.7,M,60.7,M,,0000*7B
$GPGSA,A,3,27,19,32,09,14,28,01,22,11,17,,,1.9,0.9,1.7*38
$GPRMC,182001.000,A,6500.7269,N,02150.0325,W,28.73,285.28,040912,,,A*48
$GPGGA,182002.000,6500.7287,N,02150.0509,W,1,10,0.9,82.4,M,60.7,M,,0000*73
$GPGSA,A,3,27,19,32,09,14,28,01,22,11,17,,,1.9,0.9,1.7*38
$GPRMC,182002.000,A,6500.7287,N,02150.0509,W,28.87,283.95,040912,,,A*48
$GPGGA,182003.000,6500.7303,N,02150.0695,W,1,10,0.9,82.1,M,60.7,M,,0000*7C
$GPGSA,A,3,27,19,32,09,14,28,01,22,11,17,,,1.9,0.9,1.7*38
$GPRMC,182003.000,A,6500.7303,N,02150.0695,W,28.95,281.66,040912,,,A*4F
$GPGGA,182004.000,6500.7316,N,02150.0883,W,1,10,0.9,81.7,M,60.7,M,,0000*73
$GPGSA,A,3,27,19,32,09,14,28,01,22,11,17,,,1.9,0.9,1.7*38
$GPGSV,3,1,12,11,71,174,32,01,62,219,42,28,46,281,35,19,37,131,31*7C
$GPGSV,3,2,12,22,30,054,38,32,27,168,32,14,20,078,24,27,18,350,23*7D
$GPGSV,3,3,12,17,15,291,33,09,14,003,28,20,08,192,19,03,06,133,19*73
$GPRMC,182004.000,A,6500.7316,N,02150.0883,W,29.14,279.82,040912,,,A*40
$GPGGA,182005.000,6500.7327,N,02150.1073,W,1,10,0.9,81.4,M,60.7,M,,0000*75
$GPGSA,A,3,27,19,32,09,14,28,01,22,11,17,,,1.9,0.9,1.7*38
$GPRMC,182005.000,A,6500.7327,N,02150.1073,W,29.22,278.37,040912,,,A*4F
$GPGGA,182006.000,6500.7334,N,02150.1264,W,1,10,0.9,80.9,M,60.7,M,,0000*7C
$GPGSA,A,3,27,19,32,09,14,28,01,22,11,17,,,1.9,0.9,1.7*38
$GPRMC,182006.000,A,6500.7334,N,02150.1264,W,29.18,274.90,040912,,,A*42
$GPGGA,182007.000,6500.7336,N,02150.1454,W,1,10,0.9,80.5,M,60.7,M,,0000*76
$GPGSA,A,3,27,19,32,09,14,28,01,22,11,17,,,1.9,0.9,1.7*38
$GPRMC,182007.000,A,6500.7336,N,02150.1454,W,28.98,271.58,040912,,,A*4C
$GPGGA,182008.000,6500.7335,N,02150.1642,W,1,10,0.9,80.2,M,60.7,M,,0000*78
$GPGSA,A,3,27,19,32,09,14,28,01,22,11,17,,,1.9,0.9,1.7*38
$GPRMC,182008.000,A,6500.7335,N,02150.1642,W,28.64,269.78,040912,,,A*4D
$GPGGA,182009.000,6500.7333,N,02150.1828,W,1,10,0.9,80.1,M,60.7,M,,0000*7E
$GPGSA,A,3,27,19,32,09,14,28,01,22,11,17,,,1.9,0.9,1.7*38
$GPGSV,3,1,12,11,71,174,33,01,62,219,40,28,46,281,27,19,37,131,25*79
$GPGSV,3,2,12,22,30,054,30,32,27,168,29,14,20,078,24,27,18,350,31*7C
$GPGSV,3,3,12,17,15,291,29,09,14,003,30,20,08,192,09,03,06,133,29*73
$GPRMC,182009.000,A,6500.7333,N,02150.1828,W,28.31,267.89,040912,,,A*48
$GPGGA,182010.000,6500.7328,N,02150.2013,W,1,10,0.9,80.1,M,60.7,M,,0000*7F
$GPGSA,A,3,27,19,32,09,14,28,01,22,11,17,,,1.9,0.9,1.7*38
$GPRMC,182010.000,A,6500.7328,N,02150.2013,W,28.35,266.48,040912,,,A*41
$GPGGA,182011.000,6500.7323,N,02150.2199,W,1,10,0.9,80.3,M,60.7,M,,0000*74
$GPGSA,A,3,27,19,32,09,14,28,01,22,11,17,,,1.9,0.9,1.7*38
$GPRMC,182011.000,A,6500.7323,N,02150.2199,W,28.42,266.25,040912,,,A*43
$GPGGA,182012.000,6500.7318,N,02150.2384,W,1,10,0.9,80.5,M,60.7,M,,0000*77
$GPGSA,A,3,27,19,32,09,14,28,01,22,11,17,,,1.9,0.9,1.7*38
$GPRMC,182012.000,A,6500.7318,N,02150.2384,W,28.28,265.75,040912,,,A*4C
$GPGGA,182013.000,6500.7311,N,02150.2569,W,1,10,0.9,80.8,M,60.7,M,,0000*77
$GPGSA,A,3,27,19,32,09,14,28,01,22,11,17,,,1.9,0.9,1.7*38
$GPRMC,182013.000,A,6500.7311,N,02150.2569,W,28.17,264.97,040912,,,A*40
$GPGGA,182014.000,6500.7304,N,02150.2752,W,1,10,0.9,81.2,M,60.7,M,,0000*75
$GPGSA,A,3,27,19,32,09,14,28,01,22,11,17,,,1.9,0.9,1.7*38
$GPGSV,3,1,12,11,71,174,33,01,62,219,36,28,46,281,21,19,37,131,26*7D
$GPGSV,3,2,12,22,30,054,30,32,27,168,27,14,20,078,22,27,18,350,31*74
$GPGSV,3,3,12,17,15,291,29,09,14,003,25,20,08,192,13,03,06,133,33*77
$GPRMC,182014.000,A,6500.7304,N,02150.2752,W,27.99,264.59,040912,,,A*42
$GPGGA,182015.000,6500.7297,N,02150.2932,W,1,10,0.9,81.7,M,60.7,M,,0000*72
$GPGSA,A,3,27,19,32,09,14,28,01,22,11,17,,,1.9,0.9,1.7*38
$GPRMC,182015.000,A,6500.7297,N,02150.2932,W,27.49,264.22,040912,,,A*41
$GPGGA,182016.000,6500.7289,N,02150.3106,W,1,10,0.9,82.2,M,60.7,M,,0000*76
$GPGSA,A,3,27,19,32,09,14,28,01,22,11,17,,,1.9,0.9,1.7*38
$GPRMC,182016.000,A,6500.7289,N,02150.3106,W,26.53,263.81,040912,,,A*47
$GPGGA,182017.000,6500.7282,N,02150.3267,W,1,10,0.9,82.6,M,60.7,M,,0000*7C
$GPGSA,A,3,27,19,32,09,14,28,01,22,11,17,,,1.9,0.9,1.7*38
$GPRMC,182017.000,A,6500.7282,N,02150.3267,W,24.54,264.46,040912,,,A*40
$GPGGA,182018.000,6500.7276,N,02150.3422,W,1,10,0.9,83.0,M,60.7,M,,0000*78
$GPGSA,A,3,27,19,32,09,14,28,01,22,11,17,,,1.9,0.9,1.7*38
$GPRMC,182018.000,A,6500.7276,N,02150.3422,W,23.60,264.37,040912,,,A*45
$GPGGA,182019.000,6500.7269,N,02150.3576,W,1,10,0.9,83.4,M,60.7,M,,0000*73
$GPGSA,A,3,27,19,32,09,14,28,01,22,11,17,,,1.9,0.9,1.7*38
$GPGSV,3,1,12,11,71,174,31,01,62,219,38,28,46,281,28,19,37,131,29*77
$GPGSV,3,2,12,22,30,054,31,32,27,168,30,14,20,078,22,27,18,350,31*73
$GPGSV,3,3,12,17,15,291,31,09,14,003,34,20,08,192,27,03,06,133,29*72
$GPRMC,182019.000,A,6500.7269,N,02150.3576,W,23.45,264.20,040912,,,A*4B
$GPGGA,182020.000,6500.7262,N,02150.3735,W,1,10,0.9,83.8,M,60.7,M,,0000*7B
$GPGSA,A,3,27,19,32,09,14,28,01,22,11,17,,,1.9,0.9,1.7*38
$GPRMC,182020.000,A,6500.7262,N,02150.3735,W,24.30,264.11,040912,,,A*48
$GPGGA,182021.000,6500.7256,N,02150.3900,W,1,10,0.9,84.2,M,60.7,M,,0000*78
$GPGSA,A,3,27,19,32,09,14,28,01,22,11,17,,,1.9,0.9,1.7*38
$GPRMC,182021.000,A,6500.7256,N,02150.3900,W,25.13,264.65,040912,,,A*45
$GPGGA,182022.000,6500.7250,N,02150.4070,W,1,10,0.9,84.5,M,60.7,M,,0000*73
$GPGSA,A,3,27,19,32,09,14,28,01,22,11,17,,,1.9,0.9,1.7*38
$GPRMC,182022.000,A,6500.7250,N,02150.4070,W,25.89,265.28,040912,,,A*42
$GPGGA,182023.000,6500.7243,N,02150.4243,W,1,10,0.9,84.7,M,60.7,M,,0000*70
$GPGSA,A,3,27,19,32,09,14,28,01,22,11,17,,,1.9,0.9,1.7*38
$GPRMC,182023.000,A,6500.7243,N,02150.4243,W,26.50,265.06,040912,,,A*48
$GPGGA,182024.000,6500.7236,N,02150.4420,W,1,10,0.9,85.0,M,60.7,M,,0000*70
$GPGSA,A,3,27,19,32,09,14,28,01,22,11,17,,,1.9,0.9,1.7*38
$GPGSV,3,1,12,11,71,174,32,01,62,219,38,28,46,281,25,19,37,131,23*73
$GPGSV,3,2,12,22,30,054,31,32,27,168,27,14,20,078,22,27,18,350,32*76
$GPGSV,3,3,12,17,15,291,31,09,14,003,28,20,08,192,28,03,06,133,31*79
$GPRMC,182024.000,A,6500.7236,N,02150.4420,W,27.11,264.96,040912,,,A*42
$GPGGA,182025.000,6500.7229,N,02150.4600,W,1,10,0.9,85.4,M,60.7,M,,0000*7B
$GPGSA,A,3,27,19,32,09,14,28,01,22,11,17,,,1.9,0.9,1.7*38
$GPRMC,182025.000,A,6500.7229,N,02150.4600,W,27.42,264.66,040912,,,A*44
$GPGGA,182026.000,6500.7222,N,02150.4779,W,1,10,0.9,85.7,M,60.7,M,,0000*7F
$GPGSA,A,3,27,19,32,09,14,28,01,22,11,17,,,1.9,0.9,1.7*38
$GPRMC,182026.000,A,6500.7222,N,02150.4779,W,27.39,264.71,040912,,,A*49
$GPGGA,182027.000,6500.7215,N,02150.4958,W,1,10,0.9,86.1,M,60.7,M,,0000*72
$GPGSA,A,3,27,19,32,09,14,28,01,22,11,17,,,1.9,0.9,1.7*38
$GPRMC,182027.000,A,6500.7215,N,02150.4958,W,27.44,265.03,040912,,,A*4F
$GPGGA,182028.000,6500.7209,N,02150.5140,W,1,10,0.9,86.3,M,60.7,M,,0000*72
$GPGSA,A,3,27,19,32,09,14,28,01,22,11,17,,,1.9,0.9,1.7*38
$GPRMC,182028.000,A,6500.7209,N,02150.5140,W,27.74,265.66,040912,,,A*4D
$GPGGA,182029.000,6500.7203,N,02150.5324,W,1,10,0.9,86.6,M,60.7,M,,0000*7C
$GPGSA,A,3,27,19,32,09,14,28,01,22,11,17,,,1.9,0.9,1.7*38
$GPGSV,3,1,12,11,71,173,32,01,62,219,39,28,46,280,29,19,37,131,25*7E
$GPGSV,3,2,12,22,29,054,30,32,27,168,27,14,20,077,21,27,18,349,33*7A
$GPGSV,3,3,12,17,16,291,32,09,14,003,30,20,08,192,29,03,06,133,31*71
$GPRMC,182029.000,A,6500.7203,N,02150.5324,W,28.20,265.85,040912,,,A*45
$GPGGA,182030.000,6500.7197,N,02150.5511,W,1,10,0.9,86.7,M,60.7,M,,0000*7B
$GPGSA,A,3,27,19,32,09,14,28,01,22,11,17,,,1.9,0.9,1.7*38
$GPRMC,182030.000,A,6500.7197,N,02150.5511,W,28.51,265.34,040912,,,A*4F
$GPGGA,182031.000,6500.7189,N,02150.5702,W,1,10,0.9,86.7,M,60.7,M,,0000*75
$GPGSA,A,3,27,19,32,09,14,28,01,22,11,17,,,1.9,0.9,1.7*38
$GPRMC,182031.000,A,6500.7189,N,02150.5702,W,29.19,264.96,040912,,,A*45
$GPGGA,182032.000,6500.7182,N,02150.5897,W,1,10,0.9,86.6,M,60.7,M,,0000*7F
$GPGSA,A,3,27,19,32,09,14,28,01,22,11,17,,,1.9,0.9,1.7*38
$GPRMC,182032.000,A,6500.7182,N,02150.5897,W,29.82,264.87,040912,,,A*4C
$GPGGA,182033.000,6500.7174,N,02150.6097,W,1,10,0.9,86.5,M,60.7,M,,0000*7F
$GPGSA,A,3,27,19,32,09,14,28,01,22,11,17,,,1.9,0.9,1.7*38
$GPRMC,182033.000,A,6500.7174,N,02150.6097,W,30.72,264.92,040912,,,A*4C
$GPGGA,182034.000,6500.7167,N,02150.6305,W,1,10,0.9,86.2,M,60.7,M,,0000*75
$GPGSA,A,3,27,19,32,09,14,28,01,22,11,17,,,1.9,0.9,1.7*38
$GPGSV,3,1,12,11,71,173,31,01,62,219,40,28,46,280,29,19,37,131,32*75
$GPGSV,3,2,12,22,29,054,31,32,27,168,28,14,20,077,22,27,18,349,33*77
$GPGSV,3,3,12,17,16,291,36,09,14,003,31,20,08,192,27,03,06,133,25*7F
$GPRMC,182034.000,A,6500.7167,N,02150.6305,W,31.71,265.54,040912,,,A*48
$GPGGA,182035.000,6500.7160,N,02150.6517,W,1,10,0.9,85.9,M,60.7,M,,0000*7E
$GPGSA,A,3,27,19,32,09,14,28,01,22,11,17,,,1.9,0.9,1.7*38
$GPRMC,182035.000,A,6500.7160,N,02150.6517,W,32.43,265.57,040912,,,A*4A
$GPGGA,182036.000,6500.7152,N,02150.6731,W,1,10,0.9,85.6,M,60.7,M,,0000*75
$GPGSA,A,3,27,19,32,09,14,28,01,22,11,17,,,1.9,0.9,1.7*38
$GPRMC,182036.000,A,6500.7152,N,02150.6731,W,32.68,265.32,040912,,,A*44
$GPGGA,182037.000,6500.7143,N,02150.6944,W,1,10,0.9,85.3,M,60.7,M,,0000*7D
$GPGSA,A,3,27,19,32,09,14,28,01,22,11,17,,,1.9,0.9,1.7*38
$GPRMC,182037.000,A,6500.7143,N,02150.6944,W,32.67,264.67,040912,,,A*47
$GPGGA,182038.000,6500.7134,N,02150.7157,W,1,10,0.9,85.1,M,60.7,M,,0000*7B
$GPGSA,A,3,27,19,32,09,14,28,01,22,11,17,,,1.9,0.9,1.7*38
$GPRMC,182038.000,A,6500.7134,N,02150.7157,W,32.51,264.45,040912,,,A*46
$GPGGA,182039.000,6500.7126,N,02150.7369,W,1,10,0.9,84.9,M,60.7,M,,0000*7F
$GPGSA,A,3,27,19,32,09,14,28,01,22,11,17,,,1.9,0.9,1.7*38
$GPGSV,3,1,12,11,71,173,30,01,62,219,41,28,46,280,29,19,37,131,27*71
$GPGSV,3,2,12,22,29,054,31,32,27,168,28,14,20,077,23,27,18,349,33*76
$GPGSV,3,3,12,17,16,291,36,09,14,003,31,20,08,192,21,03,06,133,25*79
$GPRMC,182039.000,A,6500.7126,N,02150.7369,W,32.45,264.60,040912,,,A*49
$GPGGA,182040.000,6500.7117,N,02150.7581,W,1,10,0.9,84.7,M,60.7,M,,0000*7D
$GPGSA,A,3,27,19,32,09,14,28,01,22,11,17,,,1.9,0.9,1.7*38
$GPRMC,182040.000,A,6500.7117,N,02150.7581,W,32.49,264.44,040912,,,A*4F
$GPGGA,182041.000,6500.7108,N,02150.7793,W,1,10,0.9,84.6,M,60.7,M,,0000*72
$GPGSA,A,3,27,19,32,09,14,28,01,22,11,17,,,1.9,0.9,1.7*38
$GPRMC,182041.000,A,6500.7108,N,02150.7793,W,32.37,264.51,040912,,,A*4C
$GPGGA,182042.000,6500.7099,N,02150.8002,W,1,10,0.9,84.4,M,60.7,M,,0000*7A
$GPGSA,A,3,27,19,32,09,14,28,01,22,11,17,,,1.9,0.9,1.7*38
$GPRMC,182042.000,A,6500.7099,N,02150.8002,W,31.95,264.51,040912,,,A*4D
$GPGGA,182043.000,6500.7090,N,02150.8209,W,1,10,0.9,84.2,M,60.7,M,,0000*7D
$GPGSA,A,3,27,19,32,09,14,28,01,22,11,17,,,1.9,0.9,1.7*38
$GPRMC,182043.000,A,6500.7090,N,02150.8209,W,31.71,264.50,040912,,,A*47
$GPGGA,182044.000,6500.7081,N,02150.8416,W,1,10,0.9,84.0,M,60.7,M,,0000*70
$GPGSA,A,3,27,19,32,09,14,28,01,22,11,17,,,1.9,0.9,1.7*38
$GPGSV,3,1,12,11,71,173,30,01,62,219,41,28,46,280,28,19,37,131,27*70
$GPGSV,3,2,12,22,29,054,25,32,27,168,27,14,20,077,23,27,18,349,32*7D
$GPGSV,3,3,12,17,16,291,36,09,14,003,30,20,08,192,28,03,06,133,23*77
$GPRMC,182044.000,A,6500.7081,N,02150.8416,W,31.69,264.30,040912,,,A*47
$GPGGA,182045.000,6500.7071,N,02150.8624,W,1,10,0.9,83.8,M,60.7,M,,0000*72
$GPGSA,A,3,27,19,32,09,14,28,01,22,11,17,,,1.9,0.9,1.7*38
$GPRMC,182045.000,A,6500.7071,N,02150.8624,W,31.87,264.32,040912,,,A*48
$GPGGA,182046.000,6500.7062,N,02150.8831,W,1,10,0.9,83.7,M,60.7,M,,0000*76
$GPGSA,A,3,27,19,32,09,14,28,01,22,11,17,,,1.9,0.9,1.7*38
$GPRMC,182046.000,A,6500.7062,N,02150.8831,W,31.72,264.28,040912,,,A*42
$GPGGA,182047.000,6500.7052,N,02150.9037,W,1,10,0.9,83.5,M,60.7,M,,0000*79
$GPGSA,A,3,27,19,32,09,14,28,01,22,11,17,,,1.9,0.9,1.7*38
$GPRMC,182047.000,A,6500.7052,N,02150.9037,W,31.75,264.04,040912,,,A*46
$GPGGA,182048.000,6500.7042,N,02150.9244,W,1,10,0.9,83.5,M,60.7,M,,0000*71
$GPGSA,A,3,27,19,32,09,14,28,01,22,11,17,,,1.9,0.9,1.7*38
$GPRMC,182048.000,A,6500.7042,N,02150.9244,W,31.78,263.73,040912,,,A*44
$GPGGA,182049.000,6500.7032,N,02150.9448,W,1,09,1.0,83.4,M,60.7,M,,0000*7C
$GPGSA,A,3,27,19,32,09,28,01,22,11,17,,,,2.0,1.0,1.7*3F
$GPGSV,3,1,12,11,71,173,31,01,62,219,40,28,46,280,30,19,37,131,28*76
$GPGSV,3,2,12,22,29,054,34,32,27,168,35,14,20,077,20,27,18,349,33*7C
$GPGSV,3,3,12,17,16,291,35,09,14,003,30,20,08,192,27,03,06,133,24*7C
$GPRMC,182049.000,A,6500.7032,N,02150.9448,W,31.28,263.73,040912,,,A*4D
$GPGGA,182050.000,6500.7022,N,02150.9649,W,1,10,0.9,83.4,M,60.7,M,,0000*76
$GPGSA,A,3,27,19,32,09,14,28,01,22,11,17,,,1.9,0.9,1.7*38
$GPRMC,182050.000,A,6500.7022,N,02150.9649,W,31.00,263.71,040912,,,A*4F
$GPGGA,182051.000,6500.7012,N,02150.9853,W,1,10,0.9,83.4,M,60.7,M,,0000*71
$GPGSA,A,3,27,19,32,09,14,28,01,22,11,17,,,1.9,0.9,1.7*38
$GPRMC,182051.000,A,6500.7012,N,02150.9853,W,31.37,263.45,040912,,,A*4B
$GPGGA,182052.000,6500.6999,N,02151.0061,W,1,10,0.9,83.4,M,60.7,M,,0000*78
$GPGSA,A,3,27,19,32,09,14,28,01,22,11,17,,,1.9,0.9,1.7*38
$GPRMC,182052.000,A,6500.6999,N,02151.0061,W,32.03,262.10,040912,,,A*47
$GPGGA,182053.000,6500.6984,N,02151.0269,W,1,10,0.9,83.4,M,60.7,M,,0000*7F
$GPGSA,A,3,27,19,32,09,14,28,01,22,11,17,,,1.9,0.9,1.7*38
$GPRMC,182053.000,A,6500.6984,N,02151.0269,W,32.31,260.58,040912,,,A*4F
$GPGGA,182054.000,6500.6967,N,02151.0480,W,1,10,0.9,83.5,M,60.7,M,,0000*75
$GPGSA,A,3,27,19,32,09,14,28,01,22,11,17,,,1.9,0.9,1.7*38
$GPGSV,3,1,12,11,71,173,30,01,62,219,32,28,46,280,30,19,37,131,31*7A
$GPGSV,3,2,12,22,29,054,33,32,27,168,32,14,20,077,23,27,18,349,26*7B
$GPGSV,3,3,12,17,16,291,30,09,14,003,25,20,08,192,27,03,06,133,31*79
$GPRMC,182054.000,A,6500.6967,N,02151.0480,W,32.66,259.21,040912,,,A*42
$GPGGA,182055.000,6500.6948,N,02151.0688,W,1,10,0.9,83.6,M,60.7,M,,0000*70
$GPGSA,A,3,27,19,32,09,14,28,01,22,11,17,,,1.9,0.9,1.7*38
$GPRMC,182055.000,A,6500.6948,N,02151.0688,W,32.51,258.20,040912,,,A*40
$GPGGA,182056.000,6500.6929,N,02151.0895,W,1,09,1.0,83.7,M,60.7,M,,0000*77
$GPGSA,A,3,27,19,32,09,28,01,22,11,17,,,,2.0,1.0,1.7*3F
$GPRMC,182056.000,A,6500.6929,N,02151.0895,W,32.22,257.72,040912,,,A*4A
$GPGGA,182057.000,6500.6909,N,02151.1099,W,1,10,0.9,83.8,M,60.7,M,,0000*7E
$GPGSA,A,3,27,19,32,09,14,28,01,22,11,17,,,1.9,0.9,1.7*38
$GPRMC,182057.000,A,6500.6909,N,02151.1099,W,31.90,257.25,040912,,,A*44
$GPGGA,182058.000,6500.6887,N,02151.1304,W,1,10,0.9,83.9,M,60.7,M,,0000*70
$GPGSA,A,3,27,19,32,09,14,28,01,22,11,17,,,1.9,0.9,1.7*38
$GPRMC,182058.000,A,6500.6887,N,02151.1304,W,32.05,256.20,040912,,,A*40
$GPGGA,182059.000,6500.6864,N,02151.1509,W,1,10,0.9,83.9,M,60.7,M,,0000*77
$GPGSA,A,3,27,19,32,09,14,28,01,22,11,17,,,1.9,0.9,1.7*38
$GPGSV,3,1,12,11,71,173,29,01,62,219,31,28,46,280,37,19,37,131,31*76
$GPGSV,3,2,12,22,29,054,34,32,27,168,34,14,20,077,19,27,18,349,16*70
$GPGSV,3,3,12,17,16,291,33,09,14,003,32,20,08,192,21,03,06,133,24*7E
$GPRMC,182059.000,A,6500.6864,N,02151.1509,W,32.41,255.53,040912,,,A*40
$GPGGA,182100.000,6500.6842,N,02151.1717,W,1,10,0.9,83.9,M,60.7,M,,0000*73
$GPGSA,A,3,27,19,32,09,14,28,01,22,11,17,,,1.9,0.9,1.7*38
$GPRMC,182100.000,A,6500.6842,N,02151.1717,W,32.66,255.86,040912,,,A*49
$GPGGA,182101.000,6500.6820,N,02151.1928,W,1,10,0.9,84.0,M,60.7,M,,0000*7A
$GPGSA,A,3,27,19,32,09,14,28,01,22,11,17,,,1.9,0.9,1.7*38
$GPRMC,182101.000,A,6500.6820,N,02151.1928,W,32.95,256.41,040912,,,A*4A
$GPGGA,182102.000,6500.6798,N,02151.2139,W,1,10,0.9,84.1,M,60.7,M,,0000*7F
$GPGSA,A,3,27,19,32,09,14,28,01,22,11,17,,,1.9,0.9,1.7*38
$GPRMC,182102.000,A,6500.6798,N,02151.2139,W,33.03,256.65,040912,,,A*46
$GPGGA,182103.000,6500.6779,N,02151.2350,W,1,10,0.9,84.4,M,60.7,M,,0000*79
$GPGSA,A,3,27,19,32,09,14,28,01,22,11,17,,,1.9,0.9,1.7*38
$GPRMC,182103.000,A,6500.6779,N,02151.2350,W,32.86,257.86,040912,,,A*45
$GPGGA,182104.000,6500.6761,N,02151.2561,W,1,10,0.9,84.8,M,60.7,M,,0000*7F
$GPGSA,A,3,27,19,32,09,14,28,01,22,11,17,,,1.9,0.9,1.7*38
$GPGSV,3,1,12,11,71,173,31,01,62,219,33,28,46,280,24,19,37,131,32*7C
$GPGSV,3,2,12,22,29,054,24,32,27,168,35,14,20,077,33,27,18,349,23*7E
$GPGSV,3,3,12,17,16,291,29,09,14,003,31,20,08,192,11,03,06,133,30*70
$GPRMC,182104.000,A,6500.6761,N,02151.2561,W,32.70,258.87,040912,,,A*48
$GPGGA,182105.000,6500.6745,N,02151.2769,W,1,10,0.9,85.3,M,60.7,M,,0000*78
$GPGSA,A,3,27,19,32,09,14,28,01,22,11,17,,,1.9,0.9,1.7*38
$GPRMC,182105.000,A,6500.6745,N,02151.2769,W,32.16,260.46,040912,,,A*43
$GPGGA,182106.000,6500.6730,N,02151.2978,W,1,10,0.9,85.8,M,60.7,M,,0000*7C
$GPGSA,A,3,27,19,32,09,14,28,01,22,11,17,,,1.9,0.9,1.7*38
$GPRMC,182106.000,A,6500.6730,N,02151.2978,W,32.17,260.68,040912,,,A*41
$GPGGA,182107.000,6500.6718,N,02151.3185,W,1,10,0.9,86.4,M,60.7,M,,0000*73
$GPGSA,A,3,27,19,32,09,14,28,01,22,11,17,,,1.9,0.9,1.7*38
$GPRMC,182107.000,A,6500.6718,N,02151.3185,W,31.95,262.21,040912,,,A*47
$GPGGA,182108.000,6500.6706,N,02151.3392,W,1,10,0.9,87.1,M,60.7,M,,0000*73
$GPGSA,A,3,27,19,32,09,14,28,01,22,11,17,,,1.9,0.9,1.7*38
$GPRMC,182108.000,A,6500.6706,N,02151.3392,W,31.84,262.87,040912,,,A*4F
$GPGGA,182109.000,6500.6694,N,02151.3598,W,1,10,0.9,87.8,M,60.7,M,,0000*7D
$GPGSA,A,3,27,19,32,09,14,28,01,22,11,17,,,1.9,0.9,1.7*38
$GPGSV,3,1,12,11,71,173,31,01,62,219,36,28,46,280,20,19,37,131,22*7C
$GPGSV,3,2,12,22,29,054,31,32,27,168,32,14,20,077,26,27,18,349,26*7C
$GPGSV,3,3,12,17,16,291,31,09,14,003,23,20,08,192,12,03,06,133,34*7D
$GPRMC,182109.000,A,6500.6694,N,02151.3598,W,31.67,261.80,040912,,,A*41
$GPGGA,182110.000,6500.6682,N,02151.3806,W,1,10,0.9,88.4,M,60.7,M,,0000*7B
$GPGSA,A,3,27,19,32,09,14,28,01,22,11,17,,,1.9,0.9,1.7*38
$GPRMC,182110.000,A,6500.6682,N,02151.3806,W,32.01,262.88,040912,,,A*4C
$GPGGA,182111.000,6500.6672,N,02151.4016,W,1,10,0.9,89.1,M,60.7,M,,0000*7F
$GPGSA,A,3,27,19,32,09,14,28,01,22,11,17,,,1.9,0.9,1.7*38
$GPRMC,182111.000,A,6500.6672,N,02151.4016,W,32.16,263.59,040912,,,A*47
$GPGGA,182112.000,6500.6663,N,02151.4225,W,1,10,0.9,89.7,M,60.7,M,,0000*78
$GPGSA,A,3,27,19,32,09,14,28,01,22,11,17,,,1.9,0.9,1.7*38
$GPRMC,182112.000,A,6500.6663,N,02151.4225,W,32.12,263.98,040912,,,A*4F
$GPGGA,182113.000,6500.6653,N,02151.4434,W,1,10,0.9,90.4,M,60.7,M,,0000*77
$GPGSA,A,3,27,19,32,09,14,28,01,22,11,17,,,1.9,0.9,1.7*38
$GPRMC,182113.000,A,6500.6653,N,02151.4434,W,31.99,264.01,040912,,,A*4C
$GPGGA,182114.000,6500.6645,N,02151.4643,W,1,10,0.9,91.2,M,60.7,M,,0000*72
$GPGSA,A,3,27,19,32,09,14,28,01,22,11,17,,,1.9,0.9,1.7*38
$GPGSV,3,1,12,11,71,173,31,01,62,219,36,28,46,280,27,19,37,131,29*70
$GPGSV,3,2,12,22,29,054,31,32,27,168,26,14,20,077,20,27,18,349,31*79
$GPGSV,3,3,12,17,16,291,32,09,14,003,23,20,08,192,,03,06,133,32*7B
$GPRMC,182114.000,A,6500.6645,N,02151.4643,W,31.92,264.82,040912,,,A*4E
$GPGGA,182115.000,6500.6638,N,02151.4852,W,1,10,0.9,91.9,M,60.7,M,,0000*7C
$GPGSA,A,3,27,19,32,09,14,28,01,22,11,17,,,1.9,0.9,1.7*38
$GPRMC,182115.000,A,6500.6638,N,02151.4852,W,31.88,265.44,040912,,,A*4B
$GPGGA,182116.000,6500.6630,N,02151.5061,W,1,10,0.9,92.5,M,60.7,M,,0000*71
$GPGSA,A,3,27,19,32,09,14,28,01,22,11,17,,,1.9,0.9,1.7*38
$GPRMC,182116.000,A,6500.6630,N,02151.5061,W,31.89,265.21,040912,,,A*4B
$GPGGA,182117.000,6500.6622,N,02151.5270,W,1,10,0.9,93.1,M,60.7,M,,0000*74
$GPGSA,A,3,27,19,32,09,14,28,01,22,11,17,,,1.9,0.9,1.7*38
$GPRMC,182117.000,A,6500.6622,N,02151.5270,W,31.99,264.81,040912,,,A*41
$GPGGA,182118.000,6500.6613,N,02151.5480,W,1,10,0.9,93.6,M,60.7,M,,0000*77
$GPGSA,A,3,27,19,32,09,14,28,01,22,11,17,,,1.9,0.9,1.7*38
$GPRMC,182118.000,A,6500.6613,N,02151.5480,W,32.20,264.32,040912,,,A*4C
$GPGGA,182119.000,6500.6604,N,02151.5691,W,1,10,0.9,94.0,M,60.7,M,,0000*73
$GPGSA,A,3,27,19,32,09,14,28,01,22,11,17,,,1.9,0.9,1.7*38
$GPGSV,3,1,12,11,71,173,30,01,62,219,37,28,46,280,32,19,37,131,25*78
$GPGSV,3,2,12,22,29,054,30,32,27,168,28,14,20,077,20,27,18,349,31*76
$GPGSV,3,3,12,17,16,291,33,09,14,003,20,20,08,192,14,03,06,133,27*78
$GPRMC,182119.000,A,6500.6604,N,02151.5691,W,32.24,264.53,040912,,,A*4A
$GPGGA,182120.000,6500.6595,N,02151.5901,W,1,10,0.9,94.4,M,60.7,M,,0000*70
$GPGSA,A,3,27,19,32,09,14,28,01,22,11,17,,,1.9,0.9,1.7*38
$GPRMC,182120.000,A,6500.6595,N,02151.5901,W,32.14,264.44,040912,,,A*48
$GPGGA,182121.000,6500.6586,N,02151.6112,W,1,10,0.9,94.8,M,60.7,M,,0000*76
$GPGSA,A,3,27,19,32,09,14,28,01,22,11,17,,,1.9,0.9,1.7*38
$GPRMC,182121.000,A,6500.6586,N,02151.6112,W,32.24,264.50,040912,,,A*44
$GPGGA,182122.000,6500.6577,N,02151.6321,W,1,10,0.9,95.1,M,60.7,M,,0000*71
$GPGSA,A,3,27,19,32,09,14,28,01,22,11,17,,,1.9,0.9,1.7*38
$GPRMC,182122.000,A,6500.6577,N,02151.6321,W,32.07,264.40,040912,,,A*4B
$GPGGA,182123.000,6500.6568,N,02151.6533,W,1,10,0.9,95.4,M,60.7,M,,0000*7E
$GPGSA,A,3,27,19,32,09,14,28,01,22,11,17,,,1.9,0.9,1.7*38
$GPRMC,182123.000,A,6500.6568,N,02151.6533,W,32.34,264.37,040912,,,A*41
$GPGGA,182124.000,6500.6559,N,02151.6743,W,1,10,0.9,95.6,M,60.7,M,,0000*7C
$GPGSA,A,3,27,19,32,09,14,28,01,22,11,17,,,1.9,0.9,1.7*38
$GPGSV,3,1,12,11,71,173,30,01,62,219,39,28,46,280,33,19,37,131,25*77
$GPGSV,3,2,12,22,29,054,30,32,27,168,28,14,20,077,21,27,18,349,32*74
$GPGSV,3,3,12,17,16,291,34,09,14,003,25,20,08,192,13,03,06,133,22*78
$GPRMC,182124.000,A,6500.6559,N,02151.6743,W,32.22,264.34,040912,,,A*45
$GPGGA,182125.000,6500.6549,N,02151.6954,W,1,10,0.9,95.8,M,60.7,M,,0000*7A
$GPGSA,A,3,27,19,32,09,14,28,01,22,11,17,,,1.9,0.9,1.7*38
$GPRMC,182125.000,A,6500.6549,N,02151.6954,W,32.24,264.01,040912,,,A*4D
$GPGGA,182126.000,6500.6539,N,02151.7164,W,1,10,0.9,96.0,M,60.7,M,,0000*7F
$GPGSA,A,3,27,19,32,09,14,28,01,22,11,17,,,1.9,0.9,1.7*38
$GPRMC,182126.000,A,6500.6539,N,02151.7164,W,32.16,263.69,040912,,,A*4B
$GPGGA,182127.000,6500.6528,N,02151.7372,W,1,10,0.9,96.2,M,60.7,M,,0000*79
$GPGSA,A,3,27,19,32,09,14,28,01,22,11,17,,,1.9,0.9,1.7*38
$GPRMC,182127.000,A,6500.6528,N,02151.7372,W,31.92,263.28,040912,,,A*45
$GPGGA,182128.000,6500.6515,N,02151.7579,W,1,10,0.9,96.2,M,60.7,M,,0000*75
$GPGSA,A,3,27,19,32,09,14,28,01,22,11,17,,,1.9,0.9,1.7*38
$GPRMC,182128.000,A,6500.6515,N,02151.7579,W,31.74,262.56,040912,,,A*49
$GPGGA,182129.000,6500.6502,N,02151.7786,W,1,10,0.9,96.2,M,60.7,M,,0000*70
$GPGSA,A,3,27,19,32,09,14,28,01,22,11,17,,,1.9,0.9,1.7*38
$GPGSV,3,1,12,11,71,173,30,01,62,219,33,28,46,280,22,19,37,131,27*7F
$GPGSV,3,2,12,22,29,054,30,32,27,168,28,14,20,077,21,27,18,349,32*74
$GPGSV,3,3,12,17,16,291,34,09,14,003,25,20,08,192,22,03,06,133,31*78
$GPRMC,182129.000,A,6500.6502,N,02151.7786,W,31.77,262.35,040912,,,A*4A
$GPGGA,182130.000,6500.6489,N,02151.7991,W,1,10,0.9,96.3,M,60.7,M,,0000*73
$GPGSA,A,3,27,19,32,09,14,28,01,22,11,17,,,1.9,0.9,1.7*38
$GPRMC,182130.000,A,6500.6489,N,02151.7991,W,31.38,261.71,040912,,,A*40
$GPGGA,182131.000,6500.6475,N,02151.8195,W,1,10,0.9,96.4,M,60.7,M,,0000*75
$GPGSA,A,3,27,19,32,09,14,28,01,22,11,17,,,1.9,0.9,1.7*38
$GPRMC,182131.000,A,6500.6475,N,02151.8195,W,31.38,261.49,040912,,,A*4A
$GPGGA,182132.000,6500.6461,N,02151.8399,W,1,10,0.9,96.5,M,60.7,M,,0000*7C
$GPGSA,A,3,27,19,32,09,14,28,01,22,11,17,,,1.9,0.9,1.7*38
$GPRMC,182132.000,A,6500.6461,N,02151.8399,W,31.33,261.63,040912,,,A*41
$GPGGA,182133.000,6500.6447,N,02151.8605,W,1,10,0.9,96.7,M,60.7,M,,0000*7B
$GPGSA,A,3,27,19,32,09,14,28,01,22,11,17,,,1.9,0.9,1.7*38
$GPRMC,182133.000,A,6500.6447,N,02151.8605,W,31.61,261.57,040912,,,A*44
$GPGGA,182134.000,6500.6433,N,02151.8811,W,1,10,0.9,96.9,M,60.7,M,,0000*7A
$GPGSA,A,3,27,19,32,09,14,28,01,22,11,17,,,1.9,0.9,1.7*38
$GPGSV,3,1,12,11,71,173,27,01,62,219,33,28,46,280,21,19,37,131,27*7A
$GPGSV,3,2,12,22,29,054,31,32,27,168,31,14,20,077,22,27,18,349,24*79
$GPGSV,3,3,12,17,16,291,30,09,14,003,21,20,08,192,22,03,06,133,31*78
$GPRMC,182134.000,A,6500.6433,N,02151.8811,W,31.75,261.15,040912,,,A*48
$GPGGA,182135.000,6500.6418,N,02151.9018,W,1,09,1.0,97.1,M,60.7,M,,0000*7B
$GPGSA,A,3,27,19,32,09,28,01,22,11,17,,,,2.0,1.0,1.7*3F
$GPRMC,182135.000,A,6500.6418,N,02151.9018,W,31.74,261.06,040912,,,A*43
$GPGGA,182136.000,6500.6403,N,02151.9224,W,1,09,1.0,97.4,M,60.7,M,,0000*7A
$GPGSA,A,3,27,19,32,09,28,01,22,11,17,,,,2.0,1.0,1.7*3F
$GPRMC,182136.000,A,6500.6403,N,02151.9224,W,31.78,260.35,040912,,,A*4A
$GPGGA,182137.000,6500.6386,N,02151.9430,W,1,10,0.9,97.6,M,60.7,M,,0000*70
$GPGSA,A,3,27,19,32,09,14,28,01,22,11,17,,,1.9,0.9,1.7*38
$GPRMC,182137.000,A,6500.6386,N,02151.9430,W,31.69,259.64,040912,,,A*4C
$GPGGA,182138.000,6500.6368,N,02151.9634,W,1,10,0.9,97.8,M,60.7,M,,0000*77
$GPGSA,A,3,27,19,32,09,14,28,01,22,11,17,,,1.9,0.9,1.7*38
$GPRMC,182138.000,A,6500.6368,N,02151.9634,W,31.62,258.49,040912,,,A*40
$GPGGA,182139.000,6500.6347,N,02151.9840,W,1,10,0.9,97.9,M,60.7,M,,0000*77
$GPGSA,A,3,27,19,32,09,14,28,01,22,11,17,,,1.9,0.9,1.7*38
$GPGSV,3,1,12,11,71,173,28,01,62,219,24,28,46,280,35,19,37,131,17*75
$GPGSV,3,2,12,22,29,054,32,32,27,168,31,14,20,077,24,27,18,349,24*7C
$GPGSV,3,3,12,17,16,291,30,09,14,003,31,20,08,192,24,03,06,133,30*7E
$GPRMC,182139.000,A,6500.6347,N,02151.9840,W,32.22,257.00,040912,,,A*44
$GPGGA,182140.000,6500.6325,N,02152.0050,W,1,10,0.9,97.9,M,60.7,M,,0000*7E
$GPGSA,A,3,27,19,32,09,14,28,01,22,11,17,,,1.9,0.9,1.7*38
$GPRMC,182140.000,A,6500.6325,N,02152.0050,W,32.73,256.07,040912,,,A*4F
$GPGGA,182141.000,6500.6301,N,02152.0262,W,1,10,0.9,97.9,M,60.7,M,,0000*7A
$GPGSA,A,3,27,19,32,09,14,28,01,22,11,17,,,1.9,0.9,1.7*38
$GPRMC,182141.000,A,6500.6301,N,02152.0262,W,33.30,255.20,040912,,,A*4B
$GPGGA,182142.000,6500.6275,N,02152.0474,W,1,10,0.9,98.0,M,60.7,M,,0000*7C
$GPGSA,A,3,27,19,32,09,14,28,01,22,11,17,,,1.9,0.9,1.7*38
$GPRMC,182142.000,A,6500.6275,N,02152.0474,W,33.57,254.08,040912,,,A*41
$GPGGA,182143.000,6500.6249,N,02152.0685,W,1,10,0.9,98.0,M,60.7,M,,0000*7E
$GPGSA,A,3,27,19,32,09,14,28,01,22,11,17,,,1.9,0.9,1.7*38
$GPRMC,182143.000,A,6500.6249,N,02152.0685,W,33.37,253.83,040912,,,A*41
$GPGGA,182144.000,6500.6223,N,02152.0893,W,1,10,0.9,98.0,M,60.7,M,,0000*7C
$GPGSA,A,3,27,19,32,09,14,28,01,22,11,17,,,1.9,0.9,1.7*38
$GPGSV,3,1,12,11,71,173,28,01,62,219,27,28,46,280,36,19,37,131,33*73
$GPGSV,3,2,12,22,29,054,33,32,27,168,32,14,20,077,22,27,18,349,26*7A
$GPGSV,3,3,12,17,16,291,32,09,14,003,30,20,08,192,33,03,06,133,20*7A
$GPRMC,182144.000,A,6500.6223,N,02152.0893,W,32.83,253.78,040912,,,A*49
$GPGGA,182145.000,6500.6198,N,02152.1099,W,1,10,0.9,98.1,M,60.7,M,,0000*7C
$GPGSA,A,3,27,19,32,09,14,28,01,22,11,17,,,1.9,0.9,1.7*38
$GPRMC,182145.000,A,6500.6198,N,02152.1099,W,32.46,253.47,040912,,,A*4D
$GPGGA,182146.000,6500.6172,N,02152.1302,W,1,10,0.9,98.1,M,60.7,M,,0000*7A
$GPGSA,A,3,27,19,32,09,14,28,01,22,11,17,,,1.9,0.9,1.7*38
$GPRMC,182146.000,A,6500.6172,N,02152.1302,W,32.08,253.53,040912,,,A*44
$GPGGA,182147.000,6500.6147,N,02152.1502,W,1,10,0.9,98.0,M,60.7,M,,0000*7A
$GPGSA,A,3,27,19,32,09,14,28,01,22,11,17,,,1.9,0.9,1.7*38
$GPRMC,182147.000,A,6500.6147,N,02152.1502,W,31.69,253.48,040912,,,A*4B
$GPGGA,182148.000,6500.6122,N,02152.1700,W,1,10,0.9,98.0,M,60.7,M,,0000*76
$GPGSA,A,3,27,19,32,09,14,28,01,22,11,17,,,1.9,0.9,1.7*38
$GPRMC,182148.000,A,6500.6122,N,02152.1700,W,31.28,253.22,040912,,,A*4E
$GPGGA,182149.000,6500.6097,N,02152.1895,W,1,10,0.9,98.0,M,60.7,M,,0000*7B
$GPGSA,A,3,27,19,32,09,14,28,01,22,11,17,,,1.9,0.9,1.7*38
$GPGSV,3,1,12,11,71,171,30,01,63,218,30,28,46,279,36,19,36,131,35*7F
$GPGSV,3,2,12,22,29,054,26,32,28,168,37,14,20,077,27,27,19,349,27*71
$GPGSV,3,3,12,17,16,291,33,09,14,003,27,20,09,192,24,03,05,133,27*7E
$GPRMC,182149.000,A,6500.6097,N,02152.1895,W,30.76,253.28,040912,,,A*43
$GPGGA,182150.000,6500.6073,N,02152.2087,W,1,10,0.9,98.0,M,60.7,M,,0000*71
$GPGSA,A,3,27,19,32,09,14,28,01,22,11,17,,,1.9,0.9,1.7*38
$GPRMC,182150.000,A,6500.6073,N,02152.2087,W,30.39,253.12,040912,,,A*4B
$GPGGA,182151.000,6500.6049,N,02152.2277,W,1,09,0.9,98.1,M,60.7,M,,0000*7D
$GPGSA,A,3,27,19,32,14,28,01,22,11,17,,,,2.0,0.9,1.7*3B
$GPRMC,182151.000,A,6500.6049,N,02152.2277,W,30.05,253.40,040912,,,A*46
$GPGGA,182152.000,6500.6025,N,02152.2466,W,1,10,0.9,98.1,M,60.7,M,,0000*7A
$GPGSA,A,3,27,19,32,09,14,28,01,22,11,17,,,1.9,0.9,1.7*38
$GPRMC,182152.000,A,6500.6025,N,02152.2466,W,29.80,253.58,040912,,,A*45
$GPGGA,182153.000,6500.6001,N,02152.2655,W,1,10,0.9,98.1,M,60.7,M,,0000*7F
$GPGSA,A,3,27,19,32,09,14,28,01,22,11,17,,,1.9,0.9,1.7*38
$GPRMC,182153.000,A,6500.6001,N,02152.2655,W,29.83,253.29,040912,,,A*45
$GPGGA,182154.000,6500.5977,N,02152.2844,W,1,10,0.9,98.2,M,60.7,M,,0000*7E
$GPGSA,A,3,27,19,32,09,14,28,01,22,11,17,,,1.9,0.9,1.7*38
$GPGSV,3,1,12,11,71,171,31,01,63,218,31,28,46,279,36,19,36,131,36*7C
$GPGSV,3,2,12,22,29,054,27,32,28,168,37,14,20,077,26,27,19,349,28*7E
$GPGSV,3,3,12,17,16,291,34,09,14,003,28,20,09,192,,03,05,133,20*77
$GPRMC,182154.000,A,6500.5977,N,02152.2844,W,30.02,253.14,040912,,,A*48
$GPGGA,182155.000,6500.5953,N,02152.3035,W,1,10,0.9,98.2,M,60.7,M,,0000*76
$GPGSA,A,3,27,19,32,09,14,28,01,22,11,17,,,1.9,0.9,1.7*38
$GPRMC,182155.000,A,6500.5953,N,02152.3035,W,30.21,253.29,040912,,,A*4F
$GPGGA,182156.000,6500.5929,N,02152.3227,W,1,10,0.9,98.2,M,60.7,M,,0000*79
$GPGSA,A,3,27,19,32,09,14,28,01,22,11,17,,,1.9,0.9,1.7*38
$GPRMC,182156.000,A,6500.5929,N,02152.3227,W,30.39,253.59,040912,,,A*4E
$GPGGA,182157.000,6500.5905,N,02152.3421,W,1,10,0.9,98.2,M,60.7,M,,0000*76
$GPGSA,A,3,27,19,32,09,14,28,01,22,11,17,,,1.9,0.9,1.7*38
$GPRMC,182157.000,A,6500.5905,N,02152.3421,W,30.59,253.37,040912,,,A*4F
$GPGGA,182158.000,6500.5880,N,02152.3613,W,1,10,0.9,98.1,M,60.7,M,,0000*75
$GPGSA,A,3,27,19,32,09,14,28,01,22,11,17,,,1.9,0.9,1.7*38
$GPRMC,182158.000,A,6500.5880,N,02152.3613,W,30.55,253.08,040912,,,A*4F
$GPGGA,182159.000,6500.5854,N,02152.3804,W,1,10,0.9,98.0,M,60.7,M,,0000*74
$GPGSA,A,3,27,19,32,09,14,28,01,22,11,17,,,1.9,0.9,1.7*38
$GPGSV,3,1,12,11,71,171,32,01,63,218,18,28,46,279,37,19,36,131,36*75
$GPGSV,3,2,12,22,29,054,27,32,28,168,36,14,20,077,27,27,19,349,29*7F
$GPGSV,3,3,12,17,16,291,35,09,14,003,31,20,09,192,27,03,05,133,21*7A
$GPRMC,182159.000,A,6500.5854,N,02152.3804,W,30.50,252.01,040912,,,A*42
$GPGGA,182200.000,6500.5825,N,02152.3994,W,1,10,0.9,97.9,M,60.7,M,,0000*73
$GPGSA,A,3,27,19,32,09,14,28,01,22,11,17,,,1.9,0.9,1.7*38
$GPRMC,182200.000,A,6500.5825,N,02152.3994,W,30.57,250.50,040912,,,A*42
$GPGGA,182201.000,6500.5795,N,02152.4183,W,1,10,0.9,97.7,M,60.7,M,,0000*71
$GPGSA,A,3,27,19,32,09,14,28,01,22,11,17,,,1.9,0.9,1.7*38
$GPRMC,182201.000,A,6500.5795,N,02152.4183,W,30.69,249.02,040912,,,A*4C
$GPGGA,182202.000,6500.5761,N,02152.4371,W,1,09,1.0,97.4,M,60.7,M,,0000*75
$GPGSA,A,3,27,19,32,09,14,01,22,11,17,,,,2.0,1.0,1.8*3F
$GPRMC,182202.000,A,6500.5761,N,02152.4371,W,30.96,246.67,040912,,,A*47
$GPGGA,182203.000,6500.5725,N,02152.4555,W,1,10,0.9,97.0,M,60.7,M,,0000*70
$GPGSA,A,3,27,19,32,09,14,28,01,22,11,17,,,1.9,0.9,1.7*38
$GPRMC,182203.000,A,6500.5725,N,02152.4555,W,31.03,244.49,040912,,,A*45
$GPGGA,182204.000,6500.5685,N,02152.4743,W,1,10,0.9,96.5,M,60.7,M,,0000*7D
$GPGSA,A,3,27,19,32,09,14,28,01,22,11,17,,,1.9,0.9,1.7*38
$GPGSV,3,1,12,11,71,171,31,01,63,218,35,28,46,279,18,19,36,131,36*74
$GPGSV,3,2,12,22,29,054,17,32,28,168,30,14,20,077,21,27,19,349,29*7C
$GPGSV,3,3,12,17,16,291,25,09,14,003,36,20,09,192,25,03,05,133,30*7E
$GPRMC,182204.000,A,6500.5685,N,02152.4743,W,31.78,243.23,040912,,,A*4B
$GPGGA,182205.000,6500.5644,N,02152.4932,W,1,10,0.9,95.9,M,60.7,M,,0000*76
$GPGSA,A,3,27,19,32,09,14,28,01,22,11,17,,,1.9,0.9,1.7*38
$GPRMC,182205.000,A,6500.5644,N,02152.4932,W,32.41,242.39,040912,,,A*4C
$GPGGA,182206.000,6500.5601,N,02152.5126,W,1,10,0.9,95.3,M,60.7,M,,0000*72
$GPGSA,A,3,27,19,32,09,14,28,01,22,11,17,,,1.9,0.9,1.7*38
$GPRMC,182206.000,A,6500.5601,N,02152.5126,W,33.18,242.06,040912,,,A*43
$GPGGA,182207.000,6500.5557,N,02152.5319,W,1,09,1.1,94.8,M,60.7,M,,0000*76
$GPGSA,A,3,27,19,32,09,14,28,01,22,11,,,,2.3,1.1,2.1*3B
$GPRMC,182207.000,A,6500.5557,N,02152.5319,W,33.35,241.74,040912,,,A*45
$GPGGA,182208.000,6500.5513,N,02152.5510,W,1,09,0.9,94.2,M,60.7,M,,0000*75
$GPGSA,A,3,27,19,32,09,14,28,01,22,17,,,,2.3,0.9,2.1*34
$GPRMC,182208.000,A,6500.5513,N,02152.5510,W,33.05,241.11,040912,,,A*45
$GPGGA,182209.000,6500.5469,N,02152.5701,W,1,10,0.9,93.8,M,60.7,M,,0000*7F
$GPGSA,A,3,27,19,32,09,14,28,01,22,11,17,,,1.9,0.9,1.7*38
$GPGSV,3,1,12,11,71,171,30,01,63,218,36,28,46,279,21,19,36,131,35*7F
$GPGSV,3,2,12,22,29,054,31,32,28,168,22,14,20,077,20,27,19,349,28*7B
$GPGSV,3,3,12,17,16,291,13,09,14,003,35,20,09,192,,03,05,133,26*78
$GPRMC,182209.000,A,6500.5469,N,02152.5701,W,32.92,241.02,040912,,,A*47
$GPGGA,182210.000,6500.5425,N,02152.5888,W,1,10,0.9,93.4,M,60.7,M,,0000*7D
$GPGSA,A,3,27,19,32,09,14,28,01,22,11,17,,,1.9,0.9,1.7*38
$GPRMC,182210.000,A,6500.5425,N,02152.5888,W,32.45,240.68,040912,,,A*4E
$GPGGA,182211.000,6500.5381,N,02152.6072,W,1,10,0.9,93.1,M,60.7,M,,0000*7E
$GPGSA,A,3,27,19,32,09,14,28,01,22,11,17,,,1.9,0.9,1.7*38
$GPRMC,182211.000,A,6500.5381,N,02152.6072,W,32.01,240.51,040912,,,A*42
$GPGGA,182212.000,6500.5338,N,02152.6252,W,1,10,0.9,92.8,M,60.7,M,,0000*77
$GPGSA,A,3,27,19,32,09,14,28,01,22,11,17,,,1.9,0.9,1.7*38
$GPRMC,182212.000,A,6500.5338,N,02152.6252,W,31.44,240.16,040912,,,A*42
$GPGGA,182213.000,6500.5295,N,02152.6431,W,1,10,0.9,92.5,M,60.7,M,,0000*7E
$GPGSA,A,3,27,19,32,09,14,28,01,22,11,17,,,1.9,0.9,1.7*38
$GPRMC,182213.000,A,6500.5295,N,02152.6431,W,31.15,240.25,040912,,,A*42
$GPGGA,182214.000,6500.5251,N,02152.6610,W,1,10,0.9,92.1,M,60.7,M,,0000*74
$GPGSA,A,3,27,19,32,09,14,28,01,22,11,17,,,1.9,0.9,1.7*38
$GPGSV,3,1,12,11,71,171,32,01,63,218,36,28,46,279,29,19,36,131,33*73
$GPGSV,3,2,12,22,29,054,31,32,28,168,20,14,20,077,23,27,19,349,35*76
$GPGSV,3,3,12,17,16,291,24,09,14,003,28,20,09,192,33,03,05,133,27*71
$GPRMC,182214.000,A,6500.5251,N,02152.6610,W,31.29,239.69,040912,,,A*45
$GPGGA,182215.000,6500.5207,N,02152.6793,W,1,10,0.9,91.6,M,60.7,M,,0000*78
$GPGSA,A,3,27,19,32,09,14,28,01,22,11,17,,,1.9,0.9,1.7*38
$GPRMC,182215.000,A,6500.5207,N,02152.6793,W,31.94,240.01,040912,,,A*4B
$GPGGA,182216.000,6500.5162,N,02152.6977,W,1,10,0.9,91.0,M,60.7,M,,0000*79
$GPGSA,A,3,27,19,32,09,14,28,01,22,11,17,,,1.9,0.9,1.7*38
$GPRMC,182216.000,A,6500.5162,N,02152.6977,W,32.29,239.65,040912,,,A*45
$GPGGA,182217.000,6500.5116,N,02152.7165,W,1,10,0.9,90.4,M,60.7,M,,0000*74
$GPGSA,A,3,27,19,32,09,14,28,01,22,11,17,,,1.9,0.9,1.7*38
$GPRMC,182217.000,A,6500.5116,N,02152.7165,W,32.92,239.83,040912,,,A*45
$GPGGA,182218.000,6500.5069,N,02152.7355,W,1,10,0.9,89.6,M,60.7,M,,0000*79
$GPGSA,A,3,27,19,32,09,14,28,01,22,11,17,,,1.9,0.9,1.7*38
$GPRMC,182218.000,A,6500.5069,N,02152.7355,W,33.29,239.82,040912,,,A*42
$GPGGA,182219.000,6500.5023,N,02152.7545,W,1,10,0.9,89.0,M,60.7,M,,0000*77
$GPGSA,A,3,27,19,32,09,14,28,01,22,11,17,,,1.9,0.9,1.7*38
$GPGSV,3,1,12,11,71,171,31,01,63,218,35,28,46,279,25,19,36,131,34*78
$GPGSV,3,2,12,22,29,054,30,32,28,168,20,14,20,077,17,27,19,349,35*70
$GPGSV,3,3,12,17,16,291,23,09,14,003,28,20,09,192,30,03,05,133,23*71
$GPRMC,182219.000,A,6500.5023,N,02152.7545,W,33.25,239.78,040912,,,A*43
$GPGGA,182220.000,6500.4975,N,02152.7736,W,1,10,0.9,88.3,M,60.7,M,,0000*72
$GPGSA,A,3,27,19,32,09,14,28,01,22,11,17,,,1.9,0.9,1.7*38
$GPRMC,182220.000,A,6500.4975,N,02152.7736,W,33.67,239.72,040912,,,A*48
$GPGGA,182221.000,6500.4928,N,02152.7930,W,1,10,0.9,87.7,M,60.7,M,,0000*78
$GPGSA,A,3,27,19,32,09,14,28,01,22,11,17,,,1.9,0.9,1.7*38
$GPRMC,182221.000,A,6500.4928,N,02152.7930,W,34.02,239.66,040912,,,A*48
$GPGGA,182222.000,6500.4880,N,02152.8124,W,1,10,0.9,87.0,M,60.7,M,,0000*7D
$GPGSA,A,3,27,19,32,09,14,28,01,22,11,17,,,1.9,0.9,1.7*38
$GPRMC,182222.000,A,6500.4880,N,02152.8124,W,34.12,239.67,040912,,,A*4A
$GPGGA,182223.000,6500.4832,N,02152.8314,W,1,10,0.9,86.4,M,60.7,M,,0000*71
$GPGSA,A,3,27,19,32,09,14,28,01,22,11,17,,,1.9,0.9,1.7*38
$GPRMC,182223.000,A,6500.4832,N,02152.8314,W,33.51,239.49,040912,,,A*4F
$GPGGA,182224.000,6500.4785,N,02152.8503,W,1,10,0.9,85.8,M,60.7,M,,0000*7A
$GPGSA,A,3,27,19,32,09,14,28,01,22,11,17,,,1.9,0.9,1.7*38
$GPGSV,3,1,12,11,71,171,31,01,63,218,36,28,46,279,20,19,36,131,34*7E
$GPGSV,3,2,12,22,29,054,30,32,28,168,21,14,20,077,26,27,19,349,34*72
$GPGSV,3,3,12,17,16,291,23,09,14,003,22,20,09,192,31,03,05,133,30*78
$GPRMC,182224.000,A,6500.4785,N,02152.8503,W,33.20,239.50,040912,,,A*45
$GPGGA,182225.000,6500.4738,N,02152.8692,W,1,10,0.9,85.1,M,60.7,M,,0000*7F
$GPGSA,A,3,27,19,32,09,14,28,01,22,11,17,,,1.9,0.9,1.7*38
$GPRMC,182225.000,A,6500.4738,N,02152.8692,W,33.30,239.40,040912,,,A*49
$GPGGA,182226.000,6500.4691,N,02152.8879,W,1,10,0.9,84.5,M,60.7,M,,0000*70
$GPGSA,A,3,27,19,32,09,14,28,01,22,11,17,,,1.9,0.9,1.7*38
$GPRMC,182226.000,A,6500.4691,N,02152.8879,W,32.99,239.30,040912,,,A*46
$GPGGA,182227.000,6500.4645,N,02152.9065,W,1,09,1.1,83.7,M,60.7,M,,0000*78
$GPGSA,A,3,27,19,32,09,14,28,01,22,11,,,,2.4,1.1,2.1*3C
$GPRMC,182227.000,A,6500.4645,N,02152.9065,W,32.80,239.61,040912,,,A*46
$GPGGA,182228.000,6500.4599,N,02152.9249,W,1,09,1.1,83.0,M,60.7,M,,0000*7E
$GPGSA,A,3,27,19,32,09,14,28,01,22,11,,,,2.4,1.1,2.1*3C
$GPRMC,182228.000,A,6500.4599,N,02152.9249,W,32.47,239.27,040912,,,A*4E
$GPGGA,182229.000,6500.4552,N,02152.9435,W,1,09,1.1,82.3,M,60.7,M,,0000*77
$GPGSA,A,3,27,19,32,09,14,28,01,22,11,,,,2.4,1.1,2.1*3C
$GPGSV,3,1,12,11,71,171,25,01,63,218,36,28,46,279,24,19,36,131,34*7F
$GPGSV,3,2,12,22,29,054,29,32,28,168,22,14,20,077,17,27,19,349,34*7B
$GPGSV,3,3,12,17,16,291,,09,14,003,25,20,09,192,31,03,05,133,28*77
$GPRMC,182229.000,A,6500.4552,N,02152.9435,W,32.87,239.30,040912,,,A*4F
$GPGGA,182230.000,6500.4506,N,02152.9624,W,1,09,1.1,81.7,M,60.7,M,,0000*7B
$GPGSA,A,3,27,19,32,09,14,28,01,22,11,,,,2.4,1.1,2.1*3C
$GPRMC,182230.000,A,6500.4506,N,02152.9624,W,33.07,240.08,040912,,,A*48
$GPGGA,182231.000,6500.4459,N,02152.9813,W,1,09,1.1,81.0,M,60.7,M,,0000*7C
$GPGSA,A,3,27,19,32,09,14,28,01,22,11,,,,2.4,1.1,2.1*3C
$GPRMC,182231.000,A,6500.4459,N,02152.9813,W,33.27,239.73,040912,,,A*48
$GPGGA,182232.000,6500.4413,N,02153.0003,W,1,09,1.1,80.3,M,60.7,M,,0000*72
$GPGSA,A,3,27,19,32,09,14,28,01,22,11,,,,2.4,1.1,2.1*3C
$GPRMC,182232.000,A,6500.4413,N,02153.0003,W,33.36,240.12,040912,,,A*4D
$GPGGA,182233.000,6500.4366,N,02153.0194,W,1,09,1.1,79.6,M,60.7,M,,0000*7A
$GPGSA,A,3,27,19,32,09,14,28,01,22,11,,,,2.4,1.1,2.1*3C
$GPRMC,182233.000,A,6500.4366,N,02153.0194,W,33.61,239.88,040912,,,A*49
$GPGGA,182234.000,6500.4318,N,02153.0385,W,1,09,1.1,78.8,M,60.7,M,,0000*79
$GPGSA,A,3,27,19,32,09,14,28,01,22,11,,,,2.4,1.1,2.1*3C
$GPGSV,3,1,12,11,71,170,26,01,63,218,36,28,46,279,23,19,36,131,34*7A
$GPGSV,3,2,12,22,29,053,29,32,28,168,21,14,21,077,16,27,19,348,34*7E
$GPGSV,3,3,12,17,17,291,,09,15,002,25,20,09,192,31,03,05,133,27*79
$GPRMC,182234.000,A,6500.4318,N,02153.0385,W,33.79,239.74,040912,,,A*4F
$GPGGA,182235.000,6500.4270,N,02153.0575,W,1,09,1.1,78.0,M,60.7,M,,0000*76
$GPGSA,A,3,27,19,32,09,14,28,01,22,11,,,,2.4,1.1,2.1*3C
$GPRMC,182235.000,A,6500.4270,N,02153.0575,W,33.73,239.04,040912,,,A*45
$GPGGA,182236.000,6500.4221,N,02153.0763,W,1,09,1.0,77.1,M,60.7,M,,0000*7B
$GPGSA,A,3,27,19,32,09,14,28,01,11,17,,,,2.0,1.0,1.8*35
$GPRMC,182236.000,A,6500.4221,N,02153.0763,W,33.48,238.77,040912,,,A*4A
$GPGGA,182237.000,6500.4173,N,02153.0944,W,1,10,0.9,76.3,M,60.7,M,,0000*76
$GPGSA,A,3,27,19,32,09,14,28,01,22,11,17,,,1.9,0.9,1.7*38
$GPRMC,182237.000,A,6500.4173,N,02153.0944,W,32.59,237.60,040912,,,A*4C
$GPGGA,182238.000,6500.4125,N,02153.1121,W,1,10,0.9,75.4,M,60.7,M,,0000*74
$GPGSA,A,3,27,19,32,09,14,28,01,22,11,17,,,1.9,0.9,1.7*38
$GPRMC,182238.000,A,6500.4125,N,02153.1121,W,31.88,237.77,040912,,,A*43
$GPGGA,182239.000,6500.4081,N,02153.1288,W,1,10,0.9,74.7,M,60.7,M,,0000*78
$GPGSA,A,3,27,19,32,09,14,28,01,22,11,17,,,1.9,0.9,1.7*38
$GPGSV,3,1,12,11,71,170,31,01,63,218,40,28,46,279,26,19,36,131,28*75
$GPGSV,3,2,12,22,29,053,29,32,28,168,27,14,21,077,27,27,19,348,30*7E
$GPGSV,3,3,12,17,17,291,31,09,15,002,30,20,09,192,30,03,05,133,34*7C
$GPRMC,182239.000,A,6500.4081,N,02153.1288,W,30.11,238.19,040912,,,A*4B
$GPGGA,182240.000,6500.4040,N,02153.1447,W,1,10,0.9,74.1,M,60.7,M,,0000*78
$GPGSA,A,3,27,19,32,09,14,28,01,22,11,17,,,1.9,0.9,1.7*38
$GPRMC,182240.000,A,6500.4040,N,02153.1447,W,28.28,238.94,040912,,,A*4B
$GPGGA,182241.000,6500.4000,N,02153.1602,W,1,10,0.9,73.6,M,60.7,M,,0000*7E
$GPGSA,A,3,27,19,32,09,14,28,01,22,11,17,,,1.9,0.9,1.7*38
$GPRMC,182241.000,A,6500.4000,N,02153.1602,W,27.68,238.22,040912,,,A*4B
$GPGGA,182242.000,6500.3959,N,02153.1751,W,1,09,1.0,73.2,M,60.7,M,,0000*7C
$GPGSA,A,3,27,32,09,14,28,01,22,11,17,,,,2.0,1.0,1.7*32
$GPRMC,182242.000,A,6500.3959,N,02153.1751,W,27.17,237.24,040912,,,A*4C
$GPGGA,182243.000,6500.3920,N,02153.1899,W,1,09,1.0,73.0,M,60.7,M,,0000*7A
$GPGSA,A,3,27,32,09,14,28,01,22,11,17,,,,2.0,1.0,1.7*32
$GPRMC,182243.000,A,6500.3920,N,02153.1899,W,26.42,238.29,040912,,,A*4B
$GPGGA,182244.000,6500.3884,N,02153.2042,W,1,10,0.9,72.9,M,60.7,M,,0000*77
$GPGSA,A,3,27,19,32,09,14,28,01,22,11,17,,,1.9,0.9,1.7*38
$GPGSV,3,1,12,11,71,170,34,01,63,218,36,28,46,279,26,19,36,131,30*78
$GPGSV,3,2,12,22,29,053,29,32,28,168,24,14,21,077,25,27,19,348,31*7E
$GPGSV,3,3,12,17,17,291,31,09,15,002,36,20,09,192,31,03,05,133,30*7F
$GPRMC,182244.000,A,6500.3884,N,02153.2042,W,25.39,239.69,040912,,,A*44
$GPGGA,182245.000,6500.3850,N,02153.2186,W,1,10,0.9,72.9,M,60.7,M,,0000*76
$GPGSA,A,3,27,19,32,09,14,28,01,22,11,17,,,1.9,0.9,1.7*38
$GPRMC,182245.000,A,6500.3850,N,02153.2186,W,25.15,241.01,040912,,,A*4A
$GPGGA,182246.000,6500.3817,N,02153.2335,W,1,10,0.9,72.9,M,60.7,M,,0000*7C
$GPGSA,A,3,27,19,32,09,14,28,01,22,11,17,,,1.9,0.9,1.7*38
$GPRMC,182246.000,A,6500.3817,N,02153.2335,W,25.77,242.14,040912,,,A*43
$GPGGA,182247.000,6500.3785,N,02153.2488,W,1,10,0.9,73.0,M,60.7,M,,0000*70
$GPGSA,A,3,27,19,32,09,14,28,01,22,11,17,,,1.9,0.9,1.7*38
$GPRMC,182247.000,A,6500.3785,N,02153.2488,W,26.16,244.26,040912,,,A*44
$GPGGA,182248.000,6500.3756,N,02153.2649,W,1,10,0.9,73.3,M,60.7,M,,0000*7D
$GPGSA,A,3,27,19,32,09,14,28,01,22,11,17,,,1.9,0.9,1.7*38
$GPRMC,182248.000,A,6500.3756,N,02153.2649,W,26.85,246.97,040912,,,A*48
$GPGGA,182249.000,6500.3730,N,02153.2816,W,1,10,0.9,73.5,M,60.7,M,,0000*7E
$GPGSA,A,3,27,19,32,09,14,28,01,22,11,17,,,1.9,0.9,1.7*38
$GPGSV,3,1,12,11,71,170,35,01,63,218,35,28,46,279,35,19,36,131,35*7D
$GPGSV,3,2,12,22,29,053,23,32,28,168,32,14,21,077,27,27,19,348,33*73
$GPGSV,3,3,12,17,17,291,32,09,15,002,35,20,09,192,29,03,05,133,30*76
$GPRMC,182249.000,A,6500.3730,N,02153.2816,W,27.37,250.03,040912,,,A*4F
$GPGGA,182250.000,6500.3707,N,02153.2987,W,1,10,0.9,73.9,M,60.7,M,,0000*77
$GPGSA,A,3,27,19,32,09,14,28,01,22,11,17,,,1.9,0.9,1.7*38
$GPRMC,182250.000,A,6500.3707,N,02153.2987,W,27.60,252.62,040912,,,A*4D
$GPGGA,182251.000,6500.3687,N,02153.3165,W,1,10,0.9,74.3,M,60.7,M,,0000*77
$GPGSA,A,3,27,19,32,09,14,28,01,22,11,17,,,1.9,0.9,1.7*38
$GPRMC,182251.000,A,6500.3687,N,02153.3165,W,28.30,255.52,040912,,,A*4E
$GPGGA,182252.000,6500.3672,N,02153.3347,W,1,10,0.9,74.6,M,60.7,M,,0000*79
$GPGSA,A,3,27,19,32,09,14,28,01,22,11,17,,,1.9,0.9,1.7*38
$GPRMC,182252.000,A,6500.3672,N,02153.3347,W,28.57,258.76,040912,,,A*4F
$GPGGA,182253.000,6500.3659,N,02153.3533,W,1,10,0.9,75.0,M,60.7,M,,0000*73
$GPGSA,A,3,27,19,32,09,14,28,01,22,11,17,,,1.9,0.9,1.7*38
$GPRMC,182253.000,A,6500.3659,N,02153.3533,W,28.88,260.77,040912,,,A*4A
$GPGGA,182254.000,6500.3649,N,02153.3722,W,1,10,0.9,75.5,M,60.7,M,,0000*72
$GPGSA,A,3,27,19,32,09,14,28,01,22,11,17,,,1.9,0.9,1.7*38
$GPGSV,3,1,12,11,71,170,29,01,63,218,38,28,46,279,26,19,36,131,34*7E
$GPGSV,3,2,12,22,29,053,35,32,28,168,19,14,21,077,27,27,19,348,33*7D
$GPGSV,3,3,12,17,17,291,33,09,15,002,34,20,09,192,28,03,05,133,25*73
$GPRMC,182254.000,A,6500.3649,N,02153.3722,W,29.46,262.75,040912,,,A*4D
$GPGGA,182255.000,6500.3642,N,02153.3917,W,1,09,1.0,76.0,M,60.7,M,,0000*76
$GPGSA,A,3,27,19,32,09,28,01,22,11,17,,,,2.0,1.0,1.8*30
$GPRMC,182255.000,A,6500.3642,N,02153.3917,W,30.13,265.03,040912,,,A*41
$GPGGA,182256.000,6500.3637,N,02153.4117,W,1,10,0.9,76.4,M,60.7,M,,0000*7C
$GPGSA,A,3,27,19,32,09,14,28,01,22,11,17,,,2.0,0.9,1.7*32
$GPRMC,182256.000,A,6500.3637,N,02153.4117,W,30.72,266.70,040912,,,A*4F
$GPGGA,182257.000,6500.3633,N,02153.4320,W,1,10,0.9,76.8,M,60.7,M,,0000*73
$GPGSA,A,3,27,19,32,09,14,28,01,22,11,17,,,2.0,0.9,1.7*32
$GPRMC,182257.000,A,6500.3633,N,02153.4320,W,31.30,267.39,040912,,,A*47
$GPGGA,182258.000,6500.3629,N,02153.4527,W,1,10,0.9,77.2,M,60.7,M,,0000*7D
$GPGSA,A,3,27,19,32,09,14,28,01,22,11,17,,,2.0,0.9,1.7*32
$GPRMC,182258.000,A,6500.3629,N,02153.4527,W,31.85,267.01,040912,,,A*47
$GPGGA,182259.000,6500.3625,N,02153.4738,W,1,10,0.9,77.4,M,60.7,M,,0000*7A
$GPGSA,A,3,27,19,32,09,14,28,01,22,11,17,,,2.0,0.9,1.7*32
$GPGSV,3,1,12,11,71,170,28,01,63,218,41,28,46,279,33,19,36,131,33*72
$GPGSV,3,2,12,22,29,053,27,32,28,168,24,14,21,077,20,27,19,348,32*76
$GPGSV,3,3,12,17,17,291,35,09,15,002,28,20,09,192,28,03,05,133,25*78
$GPRMC,182259.000,A,6500.3625,N,02153.4738,W,32.40,267.29,040912,,,A*46
$GPGGA,182300.000,6500.3621,N,02153.4952,W,1,10,0.9,77.4,M,60.7,M,,0000*71
$GPGSA,A,3,27,19,32,09,14,28,01,22,11,17,,,2.0,0.9,1.7*32
$GPRMC,182300.000,A,6500.3621,N,02153.4952,W,32.78,267.56,040912,,,A*4E
$GPGGA,182301.000,6500.3617,N,02153.5164,W,1,10,0.9,77.3,M,60.7,M,,0000*7E
$GPGSA,A,3,27,19,32,09,14,28,01,22,11,17,,,2.0,0.9,1.7*32
$GPRMC,182301.000,A,6500.3617,N,02153.5164,W,32.59,267.84,040912,,,A*4A
$GPGGA,182302.000,6500.3614,N,02153.5376,W,1,10,0.9,77.2,M,60.7,M,,0000*7E
$GPGSA,A,3,27,19,32,09,14,28,01,22,11,17,,,2.0,0.9,1.7*32
$GPRMC,182302.000,A,6500.3614,N,02153.5376,W,32.43,268.14,040912,,,A*46
$GPGGA,182303.000,6500.3611,N,02153.5593,W,1,10,0.9,77.0,M,60.7,M,,0000*75
$GPGSA,A,3,27,19,32,09,14,28,01,22,11,17,,,2.0,0.9,1.7*32
$GPRMC,182303.000,A,6500.3611,N,02153.5593,W,33.12,268.35,040912,,,A*49
