$GPGGA,114915.000,5351.5243,N,01041.2870,E,1,07,1.1,-2.9,M,45.6,M,,0000*78
$GPGSA,A,3,30,16,25,21,29,05,31,,,,,,2.5,1.1,2.2*39
$GPRMC,114915.000,A,5351.5243,N,01041.2870,E,1.09,226.94,180912,,,A*6C
$GPGGA,114916.000,5351.5240,N,01041.2865,E,1,07,1.1,-3.0,M,45.6,M,,0000*74
$GPGSA,A,3,30,16,25,21,29,05,31,,,,,,2.5,1.1,2.2*39
$GPGSV,3,1,12,29,55,075,36,30,54,292,46,21,51,173,35,31,38,222,31*70
$GPGSV,3,2,12,25,28,132,24,16,25,300,42,05,21,057,25,06,11,260,*74
$GPGSV,3,3,12,13,08,341,46,23,07,309,43,10,00,009,,02,00,040,*71
$GPRMC,114916.000,A,5351.5240,N,01041.2865,E,1.38,221.36,180912,,,A*65
$GPGGA,114917.000,5351.5237,N,01041.2861,E,1,07,1.1,-3.0,M,45.6,M,,0000*71
$GPGSA,A,3,30,16,25,21,29,05,31,,,,,,2.5,1.1,2.2*39
$GPRMC,114917.000,A,5351.5237,N,01041.2861,E,1.33,215.54,180912,,,A*68
$GPGGA,114918.000,5351.5234,N,01041.2858,E,1,07,1.1,-3.1,M,45.6,M,,0000*76
$GPGSA,A,3,30,16,25,21,29,05,31,,,,,,2.5,1.1,2.2*39
$GPRMC,114918.000,A,5351.5234,N,01041.2858,E,0.98,215.24,180912,,,A*69
$GPGGA,114919.000,5351.5233,N,01041.2857,E,1,07,1.1,-3.1,M,45.6,M,,0000*7F
$GPGSA,A,3,30,16,25,21,29,05,31,,,,,,2.5,1.1,2.2*39
$GPRMC,114926.000,A,5351.5223,N,01041.2841,E,0.97,228.93,180912,,,A*67
$GPGGA,114927.000,5351.5220,N,01041.2838,E,1,07,1.1,-2.2,M,45.6,M,,0000*7B
$GPGSA,A,3,30,16,25,21,29,05,31,,,,,,2.5,1.1,2.2*39
$GPRMC,114927.000,A,5351.5220,N,01041.2838,E,1.19,208.21,180912,,,A*67
$GPGGA,114928.000,5351.5217,N,01041.2834,E,1,07,1.1,-2.0,M,45.6,M,,0000*7E
$GPGSA,A,3,30,16,25,21,29,05,31,,,,,,2.5,1.1,2.2*39
$GPRMC,114928.000,A,5351.5217,N,01041.2834,E,1.28,210.92,180912,,,A*63
$GPGGA,114929.000,5351.5214,N,01041.2829,E,1,06,1.3,-1.8,M,45.6,M,,0000*78
$GPGSA,A,3,30,16,21,29,05,31,,,,,,,2.9,1.3,2.6*34
$GPRMC,114929.000,A,5351.5214,N,01041.2829,E,1.26,223.23,180912,,,A*69
$GPGGA,114930.000,5351.5212,N,01041.2825,E,1,08,1.0,-1.6,M,45.6,M,,0000*79
$GPGSA,A,3,30,16,25,21,29,06,05,31,,,,,2.0,1.0,1.7*3D
$GPRMC,114930.000,A,5351.5212,N,01041.2825,E,1.04,222.51,180912,,,A*6F
$GPGGA,114931.000,5351.5209,N,01041.2821,E,1,08,1.0,-1.5,M,45.6,M,,0000*75
$GPGSA,A,3,30,16,25,21,29,06,05,31,,,,,2.0,1.0,1.7*3D
$GPGSV,3,1,12,29,55,075,31,30,54,292,44,21,51,173,31,31,38,222,37*77
$GPGSV,3,2,12,25,28,132,34,16,25,300,40,05,21,057,31,06,11,260,26*76
$GPGSV,3,3,12,13,08,341,45,23,07,309,38,10,00,009,,02,00,040,*7E
$GPRMC,114931.000,A,5351.5209,N,01041.2821,E,1.09,210.18,180912,,,A*61
$GPGGA,114932.000,5351.5206,N,01041.2817,E,1,08,1.0,-1.4,M,45.6,M,,0000*7D
$GPGSA,A,3,30,16,25,21,29,06,05,31,,,,,2.0,1.0,1.7*3D
$GPRMC,114932.000,A,5351.5206,N,01041.2817,E,1.38,206.76,180912,,,A*65
$GPGGA,114933.000,5351.5202,N,01041.2813,E,1,08,1.0,-1.3,M,45.6,M,,0000*7B
$GPGSA,A,3,30,16,25,21,29,06,05,31,,,,,2.0,1.0,1.7*3D
$GPRMC,114933.000,A,5351.5202,N,01041.2813,E,1.34,209.29,180912,,,A*6D
$GPGGA,114934.000,5351.5199,N,01041.2809,E,1,08,1.0,-1.2,M,45.6,M,,0000*77
$GPGSA,A,3,30,16,25,21,29,06,05,31,,,,,2.0,1.0,1.7*3D
$GPRMC,114934.000,A,5351.5199,N,01041.2809,E,1.27,212.25,180912,,,A*64
$GPGGA,114935.000,5351.5196,N,01041.2805,E,1,08,1.0,-1.1,M,45.6,M,,0000*76
$GPGSA,A,3,30,16,25,21,29,06,05,31,,,,,2.0,1.0,1.7*3D
$GPRMC,114935.000,A,5351.5196,N,01041.2805,E,1.19,215.44,180912,,,A*6B
$GPGGA,114936.000,5351.5193,N,01041.2800,E,1,08,1.0,-1.1,M,45.6,M,,0000*75
$GPGSA,A,3,30,16,25,21,29,06,05,31,,,,,2.0,1.0,1.7*3D
$GPGSV,3,1,12,29,55,075,31,30,54,292,43,21,51,173,30,31,38,222,37*71
$GPGSV,3,2,12,25,28,132,38,16,25,300,39,05,21,057,31,06,11,260,26*74
$GPGSV,3,3,12,13,08,341,45,23,07,309,41,10,00,009,,02,00,040,*70
$GPRMC,114936.000,A,5351.5193,N,01041.2800,E,1.49,223.40,180912,,,A*6C
$GPGGA,114937.000,5351.5190,N,01041.2794,E,1,08,1.0,-1.0,M,45.6,M,,0000*74
$GPGSA,A,3,30,16,25,21,29,06,05,31,,,,,2.0,1.0,1.7*3D
$GPRMC,114937.000,A,5351.5190,N,01041.2794,E,1.49,226.35,180912,,,A*6B
$GPGGA,114938.000,5351.5187,N,01041.2789,E,1,06,1.1,-1.0,M,45.6,M,,0000*7E
$GPGSA,A,3,30,16,25,29,05,31,,,,,,,2.6,1.1,2.4*3F
$GPRMC,114938.000,A,5351.5187,N,01041.2789,E,1.36,222.12,180912,,,A*67
$GPGGA,114939.000,5351.5183,N,01041.2784,E,1,06,1.1,-1.0,M,45.6,M,,0000*76
$GPGSA,A,3,30,16,25,29,05,31,,,,,,,2.6,1.1,2.4*3F
$GPRMC,114939.000,A,5351.5183,N,01041.2784,E,1.53,222.68,180912,,,A*61
$GPGGA,114940.000,5351.5180,N,01041.2779,E,1,07,1.1,-0.9,M,45.6,M,,0000*70
$GPGSA,A,3,30,16,25,29,21,05,31,,,,,,2.5,1.1,2.2*39
$GPRMC,114940.000,A,5351.5180,N,01041.2779,E,1.49,219.07,180912,,,A*64
$GPGGA,114941.000,5351.5177,N,01041.2773,E,1,07,1.1,-0.8,M,45.6,M,,0000*72
$GPGSA,A,3,30,16,25,29,21,05,31,,,,,,2.5,1.1,2.2*39
$GPGSV,3,1,12,29,55,075,37,30,54,292,38,21,51,173,27,31,38,222,33*79
$GPGSV,3,2,12,25,28,132,26,16,25,300,39,05,21,057,32,06,11,260,*7C
$GPGSV,3,3,12,13,08,341,46,23,07,309,41,10,00,009,,02,00,040,*73
$GPRMC,114941.000,A,5351.5177,N,01041.2773,E,1.40,227.98,180912,,,A*65
$GPGGA,114942.000,5351.5174,N,01041.2768,E,1,07,1.1,-0.8,M,45.6,M,,0000*78
$GPGSA,A,3,30,16,25,29,21,05,31,,,,,,2.5,1.1,2.2*39
$GPRMC,114942.000,A,5351.5174,N,01041.2768,E,1.44,223.75,180912,,,A*6C
$GPGGA,114943.000,5351.5170,N,01041.2763,E,1,07,1.1,-0.9,M,45.6,M,,0000*77
$GPGSA,A,3,30,16,25,29,21,05,31,,,,,,2.5,1.1,2.2*39
$GPRMC,114943.000,A,5351.5170,N,01041.2763,E,1.76,216.51,180912,,,A*63
$GPGGA,114944.000,5351.5167,N,01041.2758,E,1,07,1.1,-1.0,M,45.6,M,,0000*76
$GPGSA,A,3,30,16,25,29,21,05,31,,,,,,2.5,1.1,2.2*39
$GPRMC,114944.000,A,5351.5167,N,01041.2758,E,1.36,223.66,180912,,,A*6C
$GPGGA,114945.000,5351.5165,N,01041.2752,E,1,08,1.0,-1.0,M,45.6,M,,0000*71
$GPGSA,A,3,30,16,25,06,29,21,05,31,,,,,2.0,1.0,1.7*3D
$GPRMC,114945.000,A,5351.5165,N,01041.2752,E,1.34,238.07,180912,,,A*6A
$GPGGA,114946.000,5351.5162,N,01041.2745,E,1,07,1.0,-1.0,M,45.6,M,,0000*7C
$GPGSA,A,3,30,16,25,06,21,05,31,,,,,,2.2,1.0,1.9*3A
$GPGSV,3,1,12,29,55,075,,30,54,292,39,21,51,173,28,31,38,222,30*70
$GPGSV,3,2,12,25,28,132,25,16,25,300,38,05,21,057,34,06,11,260,25*7F
$GPGSV,3,3,12,13,08,341,43,23,07,309,31,10,00,009,,02,00,040,*71
$GPRMC,114946.000,A,5351.5162,N,01041.2745,E,1.51,243.18,180912,,,A*69
$GPGGA,114947.000,5351.5160,N,01041.2739,E,1,08,1.0,-0.9,M,45.6,M,,0000*73
$GPGSA,A,3,30,16,25,06,29,21,05,31,,,,,2.0,1.0,1.7*3D
$GPRMC,114947.000,A,5351.5160,N,01041.2739,E,1.28,244.86,180912,,,A*6F
$GPGGA,114948.000,5351.5159,N,01041.2732,E,1,08,1.0,-0.8,M,45.6,M,,0000*7C
$GPGSA,A,3,30,16,25,06,29,21,05,31,,,,,2.0,1.0,1.7*3D
$GPRMC,114948.000,A,5351.5159,N,01041.2732,E,1.44,255.75,180912,,,A*67
$GPGGA,114949.000,5351.5157,N,01041.2724,E,1,07,1.1,-0.7,M,45.6,M,,0000*75
$GPGSA,A,3,30,16,25,29,21,05,31,,,,,,2.5,1.1,2.2*39
$GPRMC,114949.000,A,5351.5157,N,01041.2724,E,1.72,248.18,180912,,,A*6D
$GPGGA,114950.000,5351.5154,N,01041.2717,E,1,07,1.1,-0.5,M,45.6,M,,0000*7C
$GPGSA,A,3,30,16,25,29,21,05,31,,,,,,2.5,1.1,2.2*39
$GPRMC,114950.000,A,5351.5154,N,01041.2717,E,1.38,241.85,180912,,,A*65
$GPGGA,114951.000,5351.5152,N,01041.2710,E,1,07,1.1,-0.4,M,45.6,M,,0000*7D
$GPGSA,A,3,30,16,25,29,21,05,31,,,,,,2.5,1.1,2.2*39
$GPGSV,3,1,12,29,55,075,33,30,54,292,42,21,51,173,27,31,38,222,32*71
$GPGSV,3,2,12,25,28,132,26,16,25,300,42,05,21,057,38,06,11,260,*7A
$GPGSV,3,3,12,13,08,341,44,23,07,309,28,10,00,009,,02,00,040,*7E
$GPRMC,114951.000,A,5351.5152,N,01041.2710,E,1.59,244.52,180912,,,A*6D
$GPGGA,114952.000,5351.5151,N,01041.2702,E,1,07,1.1,-0.3,M,45.6,M,,0000*79
$GPGSA,A,3,30,16,25,29,21,05,31,,,,,,2.5,1.1,2.2*39
$GPRMC,114952.000,A,5351.5151,N,01041.2702,E,1.56,255.59,180912,,,A*6A
$GPGGA,114953.000,5351.5147,N,01041.2695,E,1,07,1.1,-0.1,M,45.6,M,,0000*72
$GPGSA,A,3,30,16,25,29,21,05,31,,,,,,2.5,1.1,2.2*39
$GPRMC,114953.000,A,5351.5147,N,01041.2695,E,1.63,225.52,180912,,,A*69
$GPGGA,114954.000,5351.5145,N,01041.2688,E,1,06,1.1,0.0,M,45.6,M,,0000*56
$GPGSA,A,3,30,16,25,29,05,31,,,,,,,2.6,1.1,2.4*3F
$GPRMC,114954.000,A,5351.5145,N,01041.2688,E,1.54,243.78,180912,,,A*6C
$GPGGA,114955.000,5351.5143,N,01041.2680,E,1,06,1.1,0.2,M,45.6,M,,0000*5B
$GPGSA,A,3,30,16,25,29,05,31,,,,,,,2.6,1.1,2.4*3F
$GPRMC,114955.000,A,5351.5143,N,01041.2680,E,1.70,244.68,180912,,,A*63
$GPGGA,114956.000,5351.5141,N,01041.2672,E,1,07,1.1,0.3,M,45.6,M,,0000*57
$GPGSA,A,3,30,16,25,21,29,05,31,,,,,,2.5,1.1,2.2*39
$GPGSV,3,1,12,29,55,075,32,30,54,292,43,21,51,173,32,31,38,222,32*75
$GPGSV,3,2,12,25,28,132,25,16,25,300,36,05,21,057,40,06,11,260,*75
$GPGSV,3,3,12,13,08,341,44,23,07,309,21,10,00,009,,02,00,040,*77
$GPRMC,114956.000,A,5351.5141,N,01041.2672,E,1.55,247.13,180912,,,A*67
$GPGGA,114957.000,5351.5140,N,01041.2666,E,1,07,1.1,0.4,M,45.6,M,,0000*55
$GPGSA,A,3,30,16,25,21,29,05,31,,,,,,2.5,1.1,2.2*39
$GPRMC,114957.000,A,5351.5140,N,01041.2666,E,1.18,255.74,180912,,,A*69
$GPGGA,114958.000,5351.5139,N,01041.2663,E,1,07,1.1,0.4,M,45.6,M,,0000*51
$GPGSA,A,3,30,16,25,21,29,05,31,,,,,,2.5,1.1,2.2*39
$GPRMC,115002.000,A,5351.5137,N,01041.2651,E,1.20,250.76,180912,,,A*69
$GPGGA,115003.000,5351.5136,N,01041.2645,E,1,06,1.2,1.0,M,45.6,M,,0000*5B
$GPGSA,A,3,30,16,25,21,05,31,,,,,,,3.2,1.2,3.0*34
$GPRMC,115003.000,A,5351.5136,N,01041.2645,E,1.38,257.77,180912,,,A*63
$GPGGA,115004.000,5351.5133,N,01041.2636,E,1,07,1.1,1.3,M,45.6,M,,0000*5C
$GPGSA,A,3,30,16,25,21,29,05,31,,,,,,2.5,1.1,2.2*39
$GPRMC,115004.000,A,5351.5133,N,01041.2636,E,1.95,237.65,180912,,,A*67
$GPGGA,115005.000,5351.5130,N,01041.2629,E,1,08,1.0,1.6,M,45.6,M,,0000*5B
$GPGSA,A,3,30,16,25,21,06,29,05,31,,,,,2.0,1.0,1.7*3D
$GPRMC,115005.000,A,5351.5130,N,01041.2629,E,1.74,231.07,180912,,,A*66
$GPGGA,115006.000,5351.5128,N,01041.2622,E,1,07,1.0,1.9,M,45.6,M,,0000*5A
$GPGSA,A,3,30,16,25,21,06,05,31,,,,,,2.1,1.0,1.9*39
$GPGSV,3,1,12,29,55,075,,30,54,292,43,21,51,173,33,31,38,222,39*7E
$GPGSV,3,2,12,25,28,132,29,16,25,300,29,05,21,057,35,06,11,260,22*75
$GPGSV,3,3,12,13,08,341,36,23,07,309,22,10,00,009,,02,00,040,*71
$GPRMC,115006.000,A,5351.5128,N,01041.2622,E,1.58,241.76,180912,,,A*68
$GPGGA,115007.000,5351.5127,N,01041.2614,E,1,07,1.1,2.3,M,45.6,M,,0000*59
$GPGSA,A,3,30,25,21,06,29,05,31,,,,,,2.0,1.1,1.7*3B
$GPRMC,115007.000,A,5351.5127,N,01041.2614,E,1.61,258.99,180912,,,A*60
$GPGGA,115008.000,5351.5126,N,01041.2605,E,1,07,1.2,2.7,M,45.6,M,,0000*50
$GPGSA,A,3,30,16,21,06,29,05,31,,,,,,2.2,1.2,1.9*34
$GPRMC,115008.000,A,5351.5126,N,01041.2605,E,1.69,259.66,180912,,,A*67
$GPGGA,115009.000,5351.5124,N,01041.2598,E,1,07,1.2,3.1,M,45.6,M,,0000*53
$GPGSA,A,3,30,16,21,06,29,05,31,,,,,,2.2,1.2,1.9*34
$GPRMC,115009.000,A,5351.5124,N,01041.2598,E,1.46,260.74,180912,,,A*67
$GPGGA,115010.000,5351.5124,N,01041.2590,E,1,08,1.0,3.5,M,45.6,M,,0000*5A
$GPGSA,A,3,30,16,25,21,06,29,05,31,,,,,2.0,1.0,1.7*3D
$GPRMC,115010.000,A,5351.5124,N,01041.2590,E,1.53,276.45,180912,,,A*66
$GPGGA,115011.000,5351.5124,N,01041.2581,E,1,08,1.0,3.8,M,45.6,M,,0000*56
$GPGSA,A,3,30,16,25,21,06,29,05,31,,,,,2.0,1.0,1.7*3D
$GPGSV,3,1,12,29,55,075,29,30,54,292,39,21,51,173,41,31,38,222,37*73
$GPGSV,3,2,12,25,28,132,33,16,25,300,32,05,21,057,36,06,11,260,23*76
$GPGSV,3,3,12,13,08,341,30,23,07,309,21,10,00,009,,02,00,040,*74
$GPRMC,115011.000,A,5351.5124,N,01041.2581,E,1.82,277.22,180912,,,A*6B
$GPGGA,115012.000,5351.5124,N,01041.2573,E,1,08,1.0,3.9,M,45.6,M,,0000*59
$GPGSA,A,3,30,16,25,21,06,29,05,31,,,,,2.0,1.0,1.7*3D
$GPRMC,115012.000,A,5351.5124,N,01041.2573,E,1.55,277.26,180912,,,A*6B
$GPGGA,115013.000,5351.5126,N,01041.2567,E,1,08,1.0,4.0,M,45.6,M,,0000*51
$GPGSA,A,3,30,16,25,21,06,29,05,31,,,,,2.0,1.0,1.7*3D
$GPRMC,115013.000,A,5351.5126,N,01041.2567,E,1.44,294.67,180912,,,A*65
$GPGGA,115014.000,5351.5127,N,01041.2560,E,1,08,1.0,4.1,M,45.6,M,,0000*51
$GPGSA,A,3,30,16,25,21,06,29,05,31,,,,,2.0,1.0,1.7*3D
$GPRMC,115014.000,A,5351.5127,N,01041.2560,E,1.38,294.59,180912,,,A*62
$GPGGA,115015.000,5351.5127,N,01041.2551,E,1,08,1.0,4.0,M,45.6,M,,0000*53
$GPGSA,A,3,30,16,25,21,06,29,05,31,,,,,2.0,1.0,1.7*3D
$GPRMC,115015.000,A,5351.5127,N,01041.2551,E,1.80,280.79,180912,,,A*65
$GPGGA,115016.000,5351.5128,N,01041.2541,E,1,08,1.0,3.9,M,45.6,M,,0000*50
$GPGSA,A,3,30,16,25,21,06,29,05,31,,,,,2.0,1.0,1.7*3D
$GPGSV,3,1,12,29,55,075,34,30,54,292,39,21,51,173,42,31,38,222,39*72
$GPGSV,3,2,12,25,28,132,29,16,25,300,37,05,21,057,36,06,11,260,16*7E
$GPGSV,3,3,12,13,08,341,33,23,07,309,21,10,00,009,,02,00,040,*77
$GPRMC,115016.000,A,5351.5128,N,01041.2541,E,1.89,286.05,180912,,,A*6C
$GPGGA,115017.000,5351.5130,N,01041.2532,E,1,08,1.0,3.7,M,45.6,M,,0000*52
$GPGSA,A,3,30,16,25,21,06,29,05,31,,,,,2.0,1.0,1.7*3D
$GPRMC,115017.000,A,5351.5130,N,01041.2532,E,1.90,291.14,180912,,,A*6E
$GPGGA,115018.000,5351.5131,N,01041.2522,E,1,08,1.0,3.6,M,45.6,M,,0000*5C
$GPGSA,A,3,30,16,25,21,06,29,05,31,,,,,2.0,1.0,1.7*3D
$GPRMC,115018.000,A,5351.5131,N,01041.2522,E,1.96,290.89,180912,,,A*62
$GPGGA,115019.000,5351.5133,N,01041.2512,E,1,08,1.0,3.5,M,45.6,M,,0000*5F
$GPGSA,A,3,30,16,25,21,06,29,05,31,,,,,2.0,1.0,1.7*3D
$GPRMC,115019.000,A,5351.5133,N,01041.2512,E,2.12,293.09,180912,,,A*66
$GPGGA,115020.000,5351.5135,N,01041.2503,E,1,08,1.0,3.3,M,45.6,M,,0000*55
$GPGSA,A,3,30,16,25,21,06,29,05,31,,,,,2.0,1.0,1.7*3D
$GPRMC,115020.000,A,5351.5135,N,01041.2503,E,2.06,297.79,180912,,,A*6C
$GPGGA,115021.000,5351.5138,N,01041.2494,E,1,08,1.0,3.1,M,45.6,M,,0000*54
$GPGSA,A,3,30,16,25,21,06,29,05,31,,,,,2.0,1.0,1.7*3D
$GPGSV,3,1,11,30,55,291,40,29,53,076,35,21,52,172,39,31,37,221,30*72
$GPGSV,3,2,11,25,27,133,31,16,26,300,37,05,21,056,44,06,12,261,19*70
$GPGSV,3,3,11,13,09,339,28,23,06,308,21,10,00,009,*46
$GPRMC,115021.000,A,5351.5138,N,01041.2494,E,2.03,298.29,180912,,,A*60
$GPGGA,115022.000,5351.5140,N,01041.2486,E,1,08,1.0,3.0,M,45.6,M,,0000*5A
$GPGSA,A,3,30,16,25,21,06,29,05,31,,,,,2.0,1.0,1.7*3D
$GPRMC,115022.000,A,5351.5140,N,01041.2486,E,1.73,303.77,180912,,,A*63
$GPGGA,115023.000,5351.5142,N,01041.2478,E,1,08,1.0,2.8,M,45.6,M,,0000*51
$GPGSA,A,3,30,16,25,21,06,29,05,31,,,,,2.0,1.0,1.7*3D
$GPRMC,115023.000,A,5351.5142,N,01041.2478,E,1.74,302.46,180912,,,A*65
$GPGGA,115024.000,5351.5145,N,01041.2471,E,1,08,1.0,2.6,M,45.6,M,,0000*56
$GPGSA,A,3,30,16,25,21,06,29,05,31,,,,,2.0,1.0,1.7*3D
$GPRMC,115024.000,A,5351.5145,N,01041.2471,E,1.56,306.28,180912,,,A*60
$GPGGA,115025.000,5351.5146,N,01041.2465,E,1,08,1.0,2.4,M,45.6,M,,0000*53
$GPGSA,A,3,30,16,25,21,06,29,05,31,,,,,2.0,1.0,1.7*3D
$GPRMC,115025.000,A,5351.5146,N,01041.2465,E,1.34,301.05,180912,,,A*6B
$GPGGA,115026.000,5351.5147,N,01041.2457,E,1,08,1.0,2.2,M,45.6,M,,0000*56
$GPGSA,A,3,30,16,25,21,06,29,05,31,,,,,2.0,1.0,1.7*3D
$GPGSV,3,1,11,30,55,291,40,29,53,076,42,21,52,172,30,31,37,221,32*79
$GPGSV,3,2,11,25,27,133,31,16,26,300,37,05,21,056,46,06,12,261,20*78
$GPGSV,3,3,11,13,09,339,28,23,06,308,22,10,00,009,*45
$GPRMC,115026.000,A,5351.5147,N,01041.2457,E,1.42,287.13,180912,,,A*61
$GPGGA,115027.000,5351.5149,N,01041.2450,E,1,07,1.0,2.1,M,45.6,M,,0000*52
$GPGSA,A,3,30,16,25,06,29,05,31,,,,,,2.1,1.0,1.8*30
$GPRMC,115027.000,A,5351.5149,N,01041.2450,E,1.45,292.86,180912,,,A*66
$GPGGA,115028.000,5351.5151,N,01041.2443,E,1,08,1.0,2.0,M,45.6,M,,0000*58
$GPGSA,A,3,30,16,25,21,06,29,05,31,,,,,2.0,1.0,1.7*3D
$GPRMC,115028.000,A,5351.5151,N,01041.2443,E,1.51,304.36,180912,,,A*62
$GPGGA,115029.000,5351.5154,N,01041.2438,E,1,08,1.0,1.9,M,45.6,M,,0000*5A
$GPGSA,A,3,30,16,25,21,06,29,05,31,,,,,2.0,1.0,1.7*3D
$GPRMC,115029.000,A,5351.5154,N,01041.2438,E,1.54,322.01,180912,,,A*6F
$GPGGA,115030.000,5351.5157,N,01041.2432,E,1,08,1.0,1.8,M,45.6,M,,0000*5A
$GPGSA,A,3,30,16,25,21,06,29,05,31,,,,,2.0,1.0,1.7*3D
$GPRMC,115030.000,A,5351.5157,N,01041.2432,E,1.71,325.12,180912,,,A*6C
$GPGGA,115031.000,5351.5161,N,01041.2427,E,1,08,1.0,1.7,M,45.6,M,,0000*55
$GPGSA,A,3,30,16,25,21,06,29,05,31,,,,,2.0,1.0,1.7*3D
$GPGSV,3,1,11,30,55,291,40,29,53,076,40,21,52,172,33,31,37,221,32*78
$GPGSV,3,2,11,25,27,133,32,16,26,300,34,05,21,056,42,06,12,261,20*7C
$GPGSV,3,3,11,13,09,339,27,23,06,308,22,10,00,009,*4A
$GPRMC,115031.000,A,5351.5161,N,01041.2427,E,1.59,325.29,180912,,,A*6E
$GPGGA,115032.000,5351.5164,N,01041.2422,E,1,08,1.0,1.6,M,45.6,M,,0000*57
$GPGSA,A,3,30,16,25,21,06,29,05,31,,,,,2.0,1.0,1.7*3D
$GPRMC,115032.000,A,5351.5164,N,01041.2422,E,1.62,326.42,180912,,,A*6B
$GPGGA,115033.000,5351.5168,N,01041.2418,E,1,08,1.0,1.5,M,45.6,M,,0000*50
$GPGSA,A,3,30,16,25,21,06,29,05,31,,,,,2.0,1.0,1.7*3D
$GPRMC,115033.000,A,5351.5168,N,01041.2418,E,1.51,331.99,180912,,,A*6F
$GPGGA,115034.000,5351.5171,N,01041.2413,E,1,08,1.0,1.5,M,45.6,M,,0000*54
$GPGSA,A,3,30,16,25,21,06,29,05,31,,,,,2.0,1.0,1.7*3D
$GPRMC,115034.000,A,5351.5171,N,01041.2413,E,1.44,324.83,180912,,,A*60
$GPGGA,115035.000,5351.5175,N,01041.2408,E,1,08,1.0,1.4,M,45.6,M,,0000*5A
$GPGSA,A,3,30,16,25,21,06,29,05,31,,,,,2.0,1.0,1.7*3D
$GPRMC,115035.000,A,5351.5175,N,01041.2408,E,1.53,329.01,180912,,,A*6E
$GPGGA,115036.000,5351.5179,N,01041.2404,E,1,08,1.0,1.4,M,45.6,M,,0000*59
$GPGSA,A,3,30,16,25,21,06,29,05,31,,,,,2.0,1.0,1.7*3D
$GPGSV,3,1,11,30,55,291,39,29,53,076,37,21,52,172,37,31,37,221,36*76
$GPGSV,3,2,11,25,27,133,32,16,26,300,30,05,21,056,36,06,12,261,20*7B
$GPGSV,3,3,11,13,09,339,27,23,06,308,22,10,00,009,*4A
$GPRMC,115036.000,A,5351.5179,N,01041.2404,E,1.70,333.07,180912,,,A*61
$GPGGA,115037.000,5351.5182,N,01041.2400,E,1,08,1.0,1.5,M,45.6,M,,0000*59
$GPGSA,A,3,30,16,25,21,06,29,05,31,,,,,2.0,1.0,1.7*3D
$GPRMC,115037.000,A,5351.5182,N,01041.2400,E,1.39,332.94,180912,,,A*66
$GPGGA,115038.000,5351.5186,N,01041.2396,E,1,08,1.0,1.5,M,45.6,M,,0000*5A
$GPGSA,A,3,30,16,25,21,06,29,05,31,,,,,2.0,1.0,1.7*3D
$GPRMC,115038.000,A,5351.5186,N,01041.2396,E,1.51,325.06,180912,,,A*66
$GPGGA,115039.000,5351.5189,N,01041.2392,E,1,08,1.0,1.5,M,45.6,M,,0000*50
$GPGSA,A,3,30,16,25,21,06,29,05,31,,,,,2.0,1.0,1.7*3D
$GPRMC,115039.000,A,5351.5189,N,01041.2392,E,1.40,324.45,180912,,,A*6A
$GPGGA,115040.000,5351.5192,N,01041.2387,E,1,08,1.0,1.6,M,45.6,M,,0000*53
$GPGSA,A,3,30,16,25,21,06,29,05,31,,,,,2.0,1.0,1.7*3D
$GPRMC,115040.000,A,5351.5192,N,01041.2387,E,1.46,327.31,180912,,,A*6C
$GPGGA,115041.000,5351.5196,N,01041.2382,E,1,08,1.0,1.7,M,45.6,M,,0000*52
$GPGSA,A,3,30,16,25,21,06,29,05,31,,,,,2.0,1.0,1.7*3D
$GPGSV,3,1,11,30,55,291,39,29,53,076,35,21,52,172,33,31,37,221,44*75
$GPGSV,3,2,11,25,27,133,32,16,26,300,30,05,21,056,44,06,12,261,21*7F
$GPGSV,3,3,11,13,09,339,27,23,06,308,22,10,00,009,*4A
$GPRMC,115041.000,A,5351.5196,N,01041.2382,E,1.61,325.46,180912,,,A*6B
$GPGGA,115042.000,5351.5199,N,01041.2379,E,1,08,1.0,1.8,M,45.6,M,,0000*55
$GPGSA,A,3,30,16,25,21,06,29,05,31,,,,,2.0,1.0,1.7*3D
$GPRMC,115042.000,A,5351.5199,N,01041.2379,E,1.32,334.12,180912,,,A*64
$GPGGA,115043.000,5351.5203,N,01041.2376,E,1,07,1.0,2.0,M,45.6,M,,0000*5F
$GPGSA,A,3,30,16,25,06,29,05,31,,,,,,2.1,1.0,1.8*30
$GPRMC,115043.000,A,5351.5203,N,01041.2376,E,1.47,337.95,180912,,,A*64
$GPGGA,115044.000,5351.5207,N,01041.2372,E,1,08,1.0,2.1,M,45.6,M,,0000*56
$GPGSA,A,3,30,16,25,21,06,29,05,31,,,,,2.0,1.0,1.7*3D
$GPRMC,115044.000,A,5351.5207,N,01041.2372,E,1.63,334.15,180912,,,A*6E
$GPGGA,115045.000,5351.5210,N,01041.2366,E,1,08,1.0,2.2,M,45.6,M,,0000*57
$GPGSA,A,3,30,16,25,21,06,29,05,31,,,,,2.0,1.0,1.7*3D
$GPRMC,115045.000,A,5351.5210,N,01041.2366,E,1.61,320.49,180912,,,A*62
$GPGGA,115046.000,5351.5214,N,01041.2360,E,1,08,1.0,2.1,M,45.6,M,,0000*55
$GPGSA,A,3,30,16,25,21,06,29,05,31,,,,,2.0,1.0,1.7*3D
$GPGSV,3,1,11,30,55,291,33,29,53,076,40,21,52,172,33,31,37,221,45*7C
$GPGSV,3,2,11,25,27,133,32,16,26,300,36,05,21,056,38,06,12,261,26*75
$GPGSV,3,3,11,13,09,339,21,23,06,308,22,10,00,009,*4C
$GPRMC,115046.000,A,5351.5214,N,01041.2360,E,1.76,320.30,180912,,,A*6B
$GPGGA,115047.000,5351.5218,N,01041.2354,E,1,08,1.0,1.9,M,45.6,M,,0000*54
$GPGSA,A,3,30,16,25,21,06,29,05,31,,,,,2.0,1.0,1.7*3D
$GPRMC,115047.000,A,5351.5218,N,01041.2354,E,1.94,325.00,180912,,,A*6B
$GPGGA,115048.000,5351.5223,N,01041.2347,E,1,08,1.0,1.7,M,45.6,M,,0000*5F
$GPGSA,A,3,30,16,25,21,06,29,05,31,,,,,2.0,1.0,1.7*3D
$GPRMC,115048.000,A,5351.5223,N,01041.2347,E,2.06,321.95,180912,,,A*6E
$GPGGA,115049.000,5351.5227,N,01041.2339,E,1,07,1.1,1.4,M,45.6,M,,0000*5E
$GPGSA,A,3,16,25,21,06,29,05,31,,,,,,2.4,1.1,2.1*3E
$GPRMC,115049.000,A,5351.5227,N,01041.2339,E,2.08,318.01,180912,,,A*6B
$GPGGA,115050.000,5351.5230,N,01041.2333,E,1,08,1.0,1.2,M,45.6,M,,0000*52
$GPGSA,A,3,30,16,25,21,06,29,05,31,,,,,2.0,1.0,1.7*3D
$GPRMC,115050.000,A,5351.5230,N,01041.2333,E,1.57,311.05,180912,,,A*6B
$GPGGA,115051.000,5351.5233,N,01041.2325,E,1,08,1.0,0.9,M,45.6,M,,0000*5D
$GPGSA,A,3,30,16,25,21,06,29,05,31,,,,,2.0,1.0,1.7*3D
$GPGSV,3,1,11,30,55,291,38,29,53,076,35,21,52,172,33,31,37,221,45*75
$GPGSV,3,2,11,25,27,133,28,16,26,300,35,05,21,056,46,06,12,261,24*76
$GPGSV,3,3,11,13,09,339,25,23,06,308,22,10,00,009,*48
$GPRMC,115051.000,A,5351.5233,N,01041.2325,E,1.66,302.04,180912,,,A*6F
$GPGGA,115052.000,5351.5235,N,01041.2317,E,1,08,1.0,0.7,M,45.6,M,,0000*57
$GPGSA,A,3,30,16,25,21,06,29,05,31,,,,,2.0,1.0,1.7*3D
$GPRMC,115052.000,A,5351.5235,N,01041.2317,E,1.66,291.92,180912,,,A*6F
$GPGGA,115053.000,5351.5237,N,01041.2309,E,1,08,1.0,0.5,M,45.6,M,,0000*59
$GPGSA,A,3,30,16,25,21,06,29,05,31,,,,,2.0,1.0,1.7*3D
$GPRMC,115053.000,A,5351.5237,N,01041.2309,E,1.69,295.93,180912,,,A*69
$GPGGA,115054.000,5351.5239,N,01041.2301,E,1,08,1.0,0.3,M,45.6,M,,0000*5E
$GPGSA,A,3,30,16,25,21,06,29,05,31,,,,,2.0,1.0,1.7*3D
$GPRMC,115054.000,A,5351.5239,N,01041.2301,E,1.73,303.86,180912,,,A*69
$GPGGA,115055.000,5351.5242,N,01041.2294,E,1,08,1.0,0.1,M,45.6,M,,0000*5C
$GPGSA,A,3,30,16,25,21,06,29,05,31,,,,,2.0,1.0,1.7*3D
$GPRMC,115055.000,A,5351.5242,N,01041.2294,E,1.58,303.35,180912,,,A*68
$GPGGA,115056.000,5351.5244,N,01041.2286,E,1,08,1.0,0.0,M,45.6,M,,0000*5B
$GPGSA,A,3,30,16,25,21,06,29,05,31,,,,,2.0,1.0,1.7*3D
$GPGSV,3,1,11,30,55,291,38,29,53,076,36,21,52,172,34,31,37,221,44*70
$GPGSV,3,2,11,25,27,133,28,16,26,300,33,05,21,056,47,06,12,261,21*74
$GPGSV,3,3,11,13,09,339,25,23,06,308,21,10,00,009,*4B
$GPRMC,115056.000,A,5351.5244,N,01041.2286,E,1.57,298.65,180912,,,A*67
$GPGGA,115057.000,5351.5247,N,01041.2279,E,1,08,1.0,-0.1,M,45.6,M,,0000*75
$GPGSA,A,3,30,16,25,21,06,29,05,31,,,,,2.0,1.0,1.7*3D
$GPRMC,115057.000,A,5351.5247,N,01041.2279,E,1.78,307.07,180912,,,A*6B
$GPGGA,115058.000,5351.5250,N,01041.2272,E,1,08,1.0,-0.2,M,45.6,M,,0000*74
$GPGSA,A,3,30,16,25,21,06,29,05,31,,,,,2.0,1.0,1.7*3D
$GPRMC,115058.000,A,5351.5250,N,01041.2272,E,1.76,308.54,180912,,,A*6E
$GPGGA,115059.000,5351.5253,N,01041.2265,E,1,08,1.0,-0.3,M,45.6,M,,0000*71
$GPGSA,A,3,30,16,25,21,06,29,05,31,,,,,2.0,1.0,1.7*3D
$GPRMC,115059.000,A,5351.5253,N,01041.2265,E,1.71,308.95,180912,,,A*60
$GPGGA,115100.000,5351.5255,N,01041.2259,E,1,08,1.0,-0.3,M,45.6,M,,0000*75
$GPGSA,A,3,30,16,25,21,06,29,05,31,,,,,2.0,1.0,1.7*3D
$GPRMC,115100.000,A,5351.5255,N,01041.2259,E,1.47,310.99,180912,,,A*64
$GPGGA,115101.000,5351.5258,N,01041.2252,E,1,08,1.0,-0.4,M,45.6,M,,0000*75
$GPGSA,A,3,30,16,25,21,06,29,05,31,,,,,2.0,1.0,1.7*3D
$GPGSV,3,1,11,30,55,291,38,29,53,076,36,21,52,172,34,31,37,221,43*77
$GPGSV,3,2,11,25,27,133,29,16,26,300,30,05,21,056,39,06,12,261,21*7F
$GPGSV,3,3,11,13,09,339,29,23,06,308,21,10,00,009,*47
$GPRMC,115101.000,A,5351.5258,N,01041.2252,E,1.45,306.98,180912,,,A*67
$GPGGA,115102.000,5351.5260,N,01041.2247,E,1,08,1.0,-0.3,M,45.6,M,,0000*7E
$GPGSA,A,3,30,16,25,21,06,29,05,31,,,,,2.0,1.0,1.7*3D
$GPRMC,115102.000,A,5351.5260,N,01041.2247,E,1.19,304.70,180912,,,A*66
$GPGGA,115103.000,5351.5262,N,01041.2241,E,1,06,1.2,-0.2,M,45.6,M,,0000*76
$GPGSA,A,3,30,16,21,06,05,31,,,,,,,2.4,1.2,2.0*33
$GPRMC,115103.000,A,5351.5262,N,01041.2241,E,1.31,306.80,180912,,,A*64
$GPGGA,115104.000,5351.5264,N,01041.2236,E,1,08,1.0,-0.1,M,45.6,M,,0000*78
$GPGSA,A,3,30,16,25,21,06,29,05,31,,,,,2.0,1.0,1.7*3D
$GPRMC,115104.000,A,5351.5264,N,01041.2236,E,1.02,308.95,180912,,,A*6F
$GPGGA,115105.000,5351.5265,N,01041.2234,E,1,08,1.0,-0.2,M,45.6,M,,0000*79
$GPGSA,A,3,30,16,25,21,06,29,05,31,,,,,2.0,1.0,1.7*3D
$GPRMC,115108.000,A,5351.5272,N,01041.2224,E,1.38,321.45,180912,,,A*68
$GPGGA,115109.000,5351.5275,N,01041.2219,E,1,08,1.0,-0.8,M,45.6,M,,0000*71
$GPGSA,A,3,30,16,25,21,06,29,05,31,,,,,2.0,1.0,1.7*3D
$GPRMC,115109.000,A,5351.5275,N,01041.2219,E,1.61,327.87,180912,,,A*64
$GPGGA,115110.000,5351.5278,N,01041.2215,E,1,08,1.0,-0.9,M,45.6,M,,0000*79
$GPGSA,A,3,30,16,25,21,06,29,05,31,,,,,2.0,1.0,1.7*3D
$GPRMC,115110.000,A,5351.5278,N,01041.2215,E,1.27,326.69,180912,,,A*6E
$GPGGA,115111.000,5351.5281,N,01041.2212,E,1,08,1.0,-1.0,M,45.6,M,,0000*71
$GPGSA,A,3,30,16,25,21,06,29,05,31,,,,,2.0,1.0,1.7*3D
$GPGSV,3,1,11,30,55,291,37,29,53,076,36,21,52,172,27,31,37,221,41*78
$GPGSV,3,2,11,25,27,133,34,16,26,300,28,05,21,056,38,06,12,261,25*7F
$GPGSV,3,3,11,13,09,339,26,23,06,308,21,10,00,009,*48
$GPRMC,115111.000,A,5351.5281,N,01041.2212,E,1.22,333.08,180912,,,A*68
$GPGGA,115112.000,5351.5285,N,01041.2209,E,1,08,1.0,-1.0,M,45.6,M,,0000*7C
$GPGSA,A,3,30,16,25,21,06,29,05,31,,,,,2.0,1.0,1.7*3D
$GPRMC,115112.000,A,5351.5285,N,01041.2209,E,1.16,339.81,180912,,,A*69
$GPGGA,115113.000,5351.5287,N,01041.2207,E,1,08,1.0,-1.0,M,45.6,M,,0000*71
$GPGSA,A,3,30,16,25,21,06,29,05,31,,,,,2.0,1.0,1.7*3D
$GPRMC,115113.000,A,5351.5287,N,01041.2207,E,1.02,345.87,180912,,,A*6C
$GPGGA,115114.000,5351.5290,N,01041.2206,E,1,07,1.0,-1.0,M,45.6,M,,0000*7E
$GPGSA,A,3,30,16,25,21,29,05,31,,,,,,2.5,1.0,2.2*38
$GPRMC,115115.000,A,5351.5293,N,01041.2206,E,1.21,2.83,180912,,,A*6B
$GPGGA,115116.000,5351.5297,N,01041.2205,E,1,08,1.0,-0.7,M,45.6,M,,0000*71
$GPGSA,A,3,30,16,25,21,06,29,05,31,,,,,2.0,1.0,1.7*3D
$GPGSV,3,1,11,30,55,291,35,29,53,076,41,21,52,172,31,31,37,221,37*7C
$GPGSV,3,2,11,25,27,133,38,16,26,300,28,05,21,056,38,06,12,261,40*70
$GPGSV,3,3,11,13,09,339,27,23,06,308,23,10,00,009,*4B
$GPRMC,115116.000,A,5351.5297,N,01041.2205,E,1.11,4.54,180912,,,A*60
$GPGGA,115117.000,5351.5300,N,01041.2204,E,1,07,1.1,-0.4,M,45.6,M,,0000*73
$GPGSA,A,3,30,25,21,06,29,05,31,,,,,,2.0,1.1,1.7*3B
$GPRMC,115117.000,A,5351.5300,N,01041.2204,E,1.12,357.86,180912,,,A*66
$GPGGA,115118.000,5351.5304,N,01041.2202,E,1,07,1.1,-0.3,M,45.6,M,,0000*79
$GPGSA,A,3,30,21,25,06,29,05,31,,,,,,2.0,1.1,1.7*3B
$GPRMC,115118.000,A,5351.5304,N,01041.2202,E,1.23,350.58,180912,,,A*6D
$GPGGA,115119.000,5351.5308,N,01041.2200,E,1,07,1.0,-0.1,M,45.6,M,,0000*75
$GPGSA,A,3,30,21,25,16,29,05,31,,,,,,2.5,1.0,2.2*38
$GPRMC,115119.000,A,5351.5308,N,01041.2200,E,1.13,349.86,180912,,,A*6A
$GPGGA,115120.000,5351.5311,N,01041.2197,E,1,08,1.0,-0.1,M,45.6,M,,0000*75
$GPGSA,A,3,30,21,25,16,06,29,05,31,,,,,2.0,1.0,1.7*3D
$GPRMC,115120.000,A,5351.5311,N,01041.2197,E,1.01,341.62,180912,,,A*64
$GPGGA,115121.000,5351.5314,N,01041.2196,E,1,08,1.0,0.1,M,45.6,M,,0000*5D
$GPGSA,A,3,30,21,25,16,06,29,05,31,,,,,2.0,1.0,1.7*3D
$GPGSV,3,1,11,30,55,291,36,29,53,076,36,21,52,172,30,31,37,221,39*70
$GPGSV,3,2,11,25,27,133,35,16,26,300,31,05,21,056,40,06,12,261,39*74
$GPGSV,3,3,11,13,09,339,25,23,06,308,22,10,00,009,*48
$GPRMC,115125.000,A,5351.5326,N,01041.2189,E,1.01,349.11,180912,,,A*66
$GPGGA,115126.000,5351.5331,N,01041.2186,E,1,08,1.0,0.4,M,45.6,M,,0000*59
$GPGSA,A,3,30,21,25,16,06,29,05,31,,,,,2.0,1.0,1.7*3D
$GPGSV,3,1,11,30,55,291,40,29,53,076,38,21,52,172,37,31,37,221,42*74
$GPGSV,3,2,11,25,27,133,31,16,26,300,32,05,21,056,41,06,12,261,39*72
$GPGSV,3,3,11,13,09,339,24,23,06,308,22,10,00,009,*49
$GPRMC,115126.000,A,5351.5331,N,01041.2186,E,1.35,353.17,180912,,,A*66
$GPGGA,115127.000,5351.5336,N,01041.2184,E,1,08,1.0,0.4,M,45.6,M,,0000*5D
$GPGSA,A,3,30,21,25,16,06,29,05,31,,,,,2.0,1.0,1.7*3D
$GPRMC,115127.000,A,5351.5336,N,01041.2184,E,1.44,354.84,180912,,,A*69
$GPGGA,115128.000,5351.5341,N,01041.2183,E,1,08,1.0,0.3,M,45.6,M,,0000*52
$GPGSA,A,3,30,21,25,16,06,29,05,31,,,,,2.0,1.0,1.7*3D
$GPRMC,115128.000,A,5351.5341,N,01041.2183,E,1.18,4.77,180912,,,A*62
$GPGGA,115129.000,5351.5345,N,01041.2183,E,1,08,1.0,0.4,M,45.6,M,,0000*50
$GPGSA,A,3,30,21,25,16,06,29,05,31,,,,,2.0,1.0,1.7*3D
$GPRMC,115129.000,A,5351.5345,N,01041.2183,E,1.09,20.89,180912,,,A*50
$GPGGA,115130.000,5351.5348,N,01041.2182,E,1,08,1.0,0.5,M,45.6,M,,0000*55
$GPGSA,A,3,30,21,25,16,06,29,05,31,,,,,2.0,1.0,1.7*3D
$GPRMC,115130.000,A,5351.5348,N,01041.2182,E,0.83,8.04,180912,,,A*68
$GPGGA,115131.000,5351.5351,N,01041.2181,E,1,08,1.0,0.5,M,45.6,M,,0000*5F
$GPGSA,A,3,30,21,25,16,06,29,05,31,,,,,2.0,1.0,1.7*3D
$GPGSV,3,1,11,30,55,291,39,29,53,076,43,21,52,172,33,31,37,221,35*72
$GPGSV,3,2,11,25,27,133,36,16,26,300,33,05,21,056,40,06,12,261,40*7B
$GPGSV,3,3,11,13,09,339,23,23,06,308,22,10,00,009,*4E
$GPRMC,115209.000,A,5351.5398,N,01041.2159,E,0.83,27.59,180912,,,A*5F
$GPGGA,115210.000,5351.5400,N,01041.2158,E,1,08,1.0,0.7,M,45.6,M,,0000*5A
$GPGSA,A,3,30,21,25,16,06,29,05,31,,,,,2.0,1.0,1.7*3D
$GPRMC,115212.000,A,5351.5399,N,01041.2149,E,1.05,241.83,180912,,,A*6F
$GPGGA,115213.000,5351.5400,N,01041.2148,E,1,08,1.0,0.7,M,45.6,M,,0000*58
$GPGSA,A,3,30,21,25,16,06,29,05,31,,,,,2.0,1.0,1.7*3D
$GPRMC,124618.000,A,5351.5376,N,01041.2144,E,0.90,332.28,180912,,,A*66
$GPGGA,124619.000,5351.5378,N,01041.2139,E,1,08,0.9,1.9,M,45.6,M,,0000*5D
$GPGSA,A,3,30,21,03,16,18,29,05,31,,,,,1.5,0.9,1.2*3D
$GPRMC,124619.000,A,5351.5378,N,01041.2139,E,1.16,304.69,180912,,,A*6C
$GPGGA,124620.000,5351.5379,N,01041.2134,E,1,08,0.9,2.0,M,45.6,M,,0000*51
$GPGSA,A,3,30,21,03,16,18,29,05,31,,,,,1.5,0.9,1.2*3D
$GPRMC,124620.000,A,5351.5379,N,01041.2134,E,1.31,296.01,180912,,,A*6B
$GPGGA,124621.000,5351.5381,N,01041.2129,E,1,08,0.9,2.1,M,45.6,M,,0000*5A
$GPGSA,A,3,30,21,03,16,18,29,05,31,,,,,1.5,0.9,1.2*3D
$GPGSV,3,1,12,21,71,135,37,30,69,241,48,16,49,297,40,06,33,272,*7A
$GPGSV,3,2,12,29,31,086,43,18,16,145,30,03,15,275,22,05,15,034,37*73
$GPGSV,3,3,12,31,14,209,19,25,05,141,15,13,04,319,12,07,00,345,*77
$GPRMC,124621.000,A,5351.5381,N,01041.2129,E,1.13,302.37,180912,,,A*68
$GPGGA,124622.000,5351.5383,N,01041.2124,E,1,08,0.9,2.3,M,45.6,M,,0000*54
$GPGSA,A,3,30,21,03,16,18,29,05,31,,,,,1.5,0.9,1.2*3D
$GPRMC,124622.000,A,5351.5383,N,01041.2124,E,1.21,299.92,180912,,,A*69
$GPGGA,124623.000,5351.5384,N,01041.2119,E,1,08,0.9,2.4,M,45.6,M,,0000*5B
$GPGSA,A,3,30,21,03,16,18,29,05,31,,,,,1.5,0.9,1.2*3D
$GPRMC,124623.000,A,5351.5384,N,01041.2119,E,1.13,293.64,180912,,,A*63
$GPGGA,124624.000,5351.5385,N,01041.2114,E,1,08,0.9,2.6,M,45.6,M,,0000*52
$GPGSA,A,3,30,21,03,16,18,29,05,31,,,,,1.5,0.9,1.2*3D
$GPRMC,124624.000,A,5351.5385,N,01041.2114,E,1.00,276.35,180912,,,A*65
$GPGGA,124625.000,5351.5384,N,01041.2109,E,1,08,0.9,2.7,M,45.6,M,,0000*5F
$GPGSA,A,3,30,21,03,16,18,29,05,31,,,,,1.5,0.9,1.2*3D
$GPRMC,124625.000,A,5351.5384,N,01041.2109,E,0.96,253.57,180912,,,A*64
$GPGGA,124626.000,5351.5384,N,01041.2106,E,1,08,0.9,2.9,M,45.6,M,,0000*5D
$GPGSA,A,3,30,21,03,16,18,29,05,31,,,,,1.5,0.9,1.2*3D
$GPGSV,3,1,12,21,71,135,39,30,69,241,42,16,49,297,41,06,33,272,*7F
$GPGSV,3,2,12,29,31,086,38,18,16,145,32,03,15,275,23,05,15,034,42*7E
$GPGSV,3,3,12,31,14,209,20,25,05,141,,13,04,319,14,07,00,345,*7F
$GPRMC,124642.000,A,5351.5382,N,01041.2095,E,1.07,231.06,180912,,,A*6E
$GPGGA,124643.000,5351.5381,N,01041.2091,E,1,09,0.9,2.2,M,45.6,M,,0000*5E
$GPGSA,A,3,30,21,03,16,06,18,29,05,31,,,,1.5,0.9,1.2*3B
$GPRMC,124643.000,A,5351.5381,N,01041.2091,E,1.16,239.95,180912,,,A*6A
$GPGGA,124644.000,5351.5380,N,01041.2088,E,1,09,0.9,2.3,M,45.6,M,,0000*51
$GPGSA,A,3,30,21,03,16,06,18,29,05,31,,,,1.5,0.9,1.2*3B
$GPRMC,124646.000,A,5351.5379,N,01041.2081,E,0.95,246.22,180912,,,A*67
$GPGGA,124647.000,5351.5377,N,01041.2077,E,1,09,0.9,2.4,M,45.6,M,,0000*5D
$GPGSA,A,3,30,21,03,16,06,18,29,05,31,,,,1.5,0.9,1.2*3B
$GPRMC,124647.000,A,5351.5377,N,01041.2077,E,1.09,246.38,180912,,,A*6E
$GPGGA,124648.000,5351.5377,N,01041.2072,E,1,09,0.9,2.5,M,45.6,M,,0000*56
$GPGSA,A,3,30,21,03,16,06,18,29,05,31,,,,1.5,0.9,1.2*3B
$GPRMC,124648.000,A,5351.5377,N,01041.2072,E,1.14,259.14,180912,,,A*68
$GPGGA,124649.000,5351.5376,N,01041.2067,E,1,09,0.9,2.6,M,45.6,M,,0000*51
$GPGSA,A,3,30,21,03,16,06,18,29,05,31,,,,1.5,0.9,1.2*3B
$GPRMC,124649.000,A,5351.5376,N,01041.2067,E,1.22,258.12,180912,,,A*6E
$GPGGA,124650.000,5351.5375,N,01041.2062,E,1,09,0.9,2.7,M,45.6,M,,0000*5E
$GPGSA,A,3,30,21,03,16,06,18,29,05,31,,,,1.5,0.9,1.2*3B
$GPRMC,124650.000,A,5351.5375,N,01041.2062,E,1.21,254.00,180912,,,A*6C
$GPGGA,124651.000,5351.5374,N,01041.2058,E,1,09,0.9,2.9,M,45.6,M,,0000*59
$GPGSA,A,3,30,21,03,16,06,18,29,05,31,,,,1.5,0.9,1.2*3B
$GPGSV,3,1,12,21,71,131,42,30,69,237,32,16,51,296,29,06,34,273,27*74
$GPGSV,3,2,12,29,30,087,43,18,17,145,27,03,17,276,23,05,14,033,44*76
$GPGSV,3,3,12,31,13,209,23,13,03,317,16,25,03,141,,07,01,344,*76
$GPRMC,124651.000,A,5351.5374,N,01041.2058,E,1.03,251.51,180912,,,A*64
$GPGGA,124652.000,5351.5372,N,01041.2055,E,1,09,0.9,3.2,M,45.6,M,,0000*5B
$GPGSA,A,3,30,21,03,16,06,18,29,05,31,,,,1.5,0.9,1.2*3B
$GPRMC,124652.000,A,5351.5372,N,01041.2055,E,0.98,220.57,180912,,,A*6F
$GPGGA,124653.000,5351.5372,N,01041.2051,E,1,09,0.9,3.6,M,45.6,M,,0000*5A
$GPGSA,A,3,30,21,03,16,06,18,29,05,31,,,,1.5,0.9,1.2*3B
$GPRMC,124653.000,A,5351.5372,N,01041.2051,E,1.05,258.57,180912,,,A*60
$GPGGA,124654.000,5351.5372,N,01041.2047,E,1,09,0.9,4.0,M,45.6,M,,0000*5B
$GPGSA,A,3,30,21,03,16,06,18,29,05,31,,,,1.5,0.9,1.2*3B
$GPRMC,124654.000,A,5351.5372,N,01041.2047,E,1.01,254.82,180912,,,A*60
$GPGGA,124655.000,5351.5372,N,01041.2044,E,1,09,0.9,4.4,M,45.6,M,,0000*5D
$GPGSA,A,3,30,21,03,16,06,18,29,05,31,,,,1.5,0.9,1.2*3B
$GPGSV,3,1,12,21,71,131,42,30,69,237,29,16,51,296,35,06,34,273,27*73
$GPGSV,3,2,12,29,30,087,45,18,17,145,32,03,17,276,24,05,14,033,46*71
$GPGSV,3,3,12,31,13,209,22,13,03,317,15,25,03,141,,07,01,344,*74
$GPRMC,124655.000,A,5351.5372,N,01041.2044,E,0.88,257.25,180912,,,A*6C
$GPGGA,124656.000,5351.5372,N,01041.2041,E,1,09,0.9,4.8,M,45.6,M,,0000*57
$GPGSA,A,3,30,21,03,16,06,18,29,05,31,,,,1.5,0.9,1.2*3B
$GPGSV,3,1,12,21,71,131,42,30,69,237,30,16,51,296,31,06,34,273,27*7F
$GPGSV,3,2,12,29,30,087,40,18,17,145,28,03,17,276,24,05,14,033,45*7C
$GPGSV,3,3,12,31,13,209,22,13,03,317,15,25,03,141,,07,01,344,*74
$GPRMC,124657.000,A,5351.5371,N,01041.2038,E,0.89,244.47,180912,,,A*61
$GPGGA,124658.000,5351.5370,N,01041.2035,E,1,08,1.0,5.2,M,45.6,M,,0000*5A
$GPGSA,A,3,30,21,03,16,06,29,05,31,,,,,1.7,1.0,1.3*39
$GPRMC,124658.000,A,5351.5370,N,01041.2035,E,0.94,239.87,180912,,,A*68
$GPGGA,124659.000,5351.5369,N,01041.2030,E,1,09,0.9,5.3,M,45.6,M,,0000*5E
$GPGSA,A,3,30,21,03,16,06,18,29,05,31,,,,1.5,0.9,1.2*3B
$GPRMC,124659.000,A,5351.5369,N,01041.2030,E,0.95,252.62,180912,,,A*63
$GPGGA,124700.000,5351.5368,N,01041.2027,E,1,09,0.9,5.4,M,45.6,M,,0000*53
$GPGSA,A,3,30,21,03,16,06,18,29,05,31,,,,1.5,0.9,1.2*3B
$GPRMC,124700.000,A,5351.5368,N,01041.2027,E,0.86,259.11,180912,,,A*64
$GPGGA,124701.000,5351.5368,N,01041.2021,E,1,09,0.9,5.4,M,45.6,M,,0000*54
$GPGSA,A,3,30,21,03,16,06,18,29,05,31,,,,1.5,0.9,1.2*3B
$GPGSV,3,1,12,21,71,131,35,30,69,237,31,16,51,296,34,06,34,273,32*7F
$GPGSV,3,2,12,29,30,087,44,18,17,145,26,03,17,276,23,05,14,033,35*76
$GPGSV,3,3,12,31,13,209,21,13,03,317,15,25,03,141,,07,01,344,*77
$GPRMC,124701.000,A,5351.5368,N,01041.2021,E,1.11,270.77,180912,,,A*67
$GPGGA,124702.000,5351.5368,N,01041.2017,E,1,09,0.9,5.2,M,45.6,M,,0000*54
$GPGSA,A,3,30,21,03,16,06,18,29,05,31,,,,1.5,0.9,1.2*3B
$GPRMC,124702.000,A,5351.5368,N,01041.2017,E,0.93,269.22,180912,,,A*62
$GPGGA,124703.000,5351.5367,N,01041.2010,E,1,09,0.9,5.1,M,45.6,M,,0000*5E
$GPGSA,A,3,30,21,03,16,06,18,29,05,31,,,,1.5,0.9,1.2*3B
$GPRMC,124703.000,A,5351.5367,N,01041.2010,E,1.46,261.63,180912,,,A*6F
$GPGGA,124704.000,5351.5366,N,01041.2003,E,1,09,0.9,5.1,M,45.6,M,,0000*5A
$GPGSA,A,3,30,21,03,16,06,18,29,05,31,,,,1.5,0.9,1.2*3B
$GPRMC,124704.000,A,5351.5366,N,01041.2003,E,1.41,247.66,180912,,,A*6D
$GPGGA,124705.000,5351.5364,N,01041.1996,E,1,09,0.9,5.1,M,45.6,M,,0000*5F
$GPGSA,A,3,30,21,03,16,06,18,29,05,31,,,,1.5,0.9,1.2*3B
$GPRMC,124705.000,A,5351.5364,N,01041.1996,E,1.47,251.06,180912,,,A*6F
$GPGGA,124706.000,5351.5363,N,01041.1990,E,1,09,0.9,5.1,M,45.6,M,,0000*5D
$GPGSA,A,3,30,21,03,16,06,18,29,05,31,,,,1.5,0.9,1.2*3B
$GPGSV,3,1,12,21,71,131,39,30,69,237,40,16,51,296,38,06,34,273,30*7B
$GPGSV,3,2,12,29,30,087,34,18,17,145,30,03,17,276,24,05,14,033,44*77
$GPGSV,3,3,12,31,13,209,22,13,03,317,16,25,03,141,,07,01,344,*77
$GPRMC,124706.000,A,5351.5363,N,01041.1990,E,1.43,246.61,180912,,,A*6E
$GPGGA,124707.000,5351.5361,N,01041.1983,E,1,09,0.9,5.1,M,45.6,M,,0000*5C
$GPGSA,A,3,30,21,03,16,06,18,29,05,31,,,,1.5,0.9,1.2*3B
$GPRMC,124707.000,A,5351.5361,N,01041.1983,E,1.46,244.87,180912,,,A*60
$GPGGA,124708.000,5351.5359,N,01041.1977,E,1,09,0.9,5.1,M,45.6,M,,0000*53
$GPGSA,A,3,30,21,03,16,06,18,29,05,31,,,,1.5,0.9,1.2*3B
$GPRMC,124708.000,A,5351.5359,N,01041.1977,E,1.44,238.71,180912,,,A*6F
$GPGGA,124709.000,5351.5357,N,01041.1969,E,1,09,0.9,5.2,M,45.6,M,,0000*50
$GPGSA,A,3,30,21,03,16,06,18,29,05,31,,,,1.5,0.9,1.2*3B
$GPRMC,124709.000,A,5351.5357,N,01041.1969,E,1.53,244.94,180912,,,A*69
$GPGGA,124710.000,5351.5356,N,01041.1962,E,1,08,0.9,5.3,M,45.6,M,,0000*52
$GPGSA,A,3,30,21,03,16,18,29,05,31,,,,,1.5,0.9,1.2*3D
$GPRMC,124710.000,A,5351.5356,N,01041.1962,E,1.52,263.25,180912,,,A*65
$GPGGA,124711.000,5351.5356,N,01041.1954,E,1,09,0.9,5.4,M,45.6,M,,0000*50
$GPGSA,A,3,30,21,03,16,06,18,29,05,31,,,,1.5,0.9,1.2*3B
$GPGSV,3,1,12,21,71,131,42,30,69,237,37,16,51,296,36,06,34,273,33*7A
$GPGSV,3,2,12,29,30,087,42,18,17,145,29,03,17,276,25,05,14,033,32*7E
$GPGSV,3,3,12,31,13,209,22,13,03,317,18,25,03,141,,07,01,344,*79
$GPRMC,124711.000,A,5351.5356,N,01041.1954,E,1.60,261.72,180912,,,A*60
$GPGGA,124712.000,5351.5355,N,01041.1945,E,1,09,0.9,5.5,M,45.6,M,,0000*51
$GPGSA,A,3,30,21,03,16,06,18,29,05,31,,,,1.5,0.9,1.2*3B
$GPRMC,124712.000,A,5351.5355,N,01041.1945,E,1.63,263.38,180912,,,A*6F
$GPGGA,124713.000,5351.5354,N,01041.1939,E,1,09,0.9,5.5,M,45.6,M,,0000*5A
$GPGSA,A,3,30,21,03,16,06,18,29,05,31,,,,1.5,0.9,1.2*3B
$GPRMC,124713.000,A,5351.5354,N,01041.1939,E,1.19,254.75,180912,,,A*64
$GPGGA,124714.000,5351.5354,N,01041.1934,E,1,09,0.9,5.5,M,45.6,M,,0000*50
$GPGSA,A,3,30,21,03,16,06,18,29,05,31,,,,1.5,0.9,1.2*3B
$GPRMC,124715.000,A,5351.5353,N,01041.1926,E,1.38,265.10,180912,,,A*69
$GPGGA,124716.000,5351.5352,N,01041.1917,E,1,09,0.9,5.4,M,45.6,M,,0000*54
$GPGSA,A,3,30,21,03,16,06,18,29,05,31,,,,1.5,0.9,1.2*3B
$GPGSV,3,1,12,21,71,131,34,30,69,237,42,16,51,296,42,06,34,273,36*7F
$GPGSV,3,2,12,29,30,087,40,18,17,145,26,03,17,276,27,05,14,033,34*77
$GPGSV,3,3,12,31,13,209,23,13,03,317,26,25,03,141,,07,01,344,*75
$GPRMC,124716.000,A,5351.5352,N,01041.1917,E,1.73,260.78,180912,,,A*6D
$GPGGA,124717.000,5351.5350,N,01041.1908,E,1,09,0.9,5.5,M,45.6,M,,0000*58
$GPGSA,A,3,30,21,03,16,06,18,29,05,31,,,,1.5,0.9,1.2*3B
$GPRMC,124717.000,A,5351.5350,N,01041.1908,E,1.89,248.12,180912,,,A*63
$GPGGA,124718.000,5351.5348,N,01041.1900,E,1,09,0.9,5.6,M,45.6,M,,0000*55
$GPGSA,A,3,30,21,03,16,06,18,29,05,31,,,,1.5,0.9,1.2*3B
$GPRMC,124718.000,A,5351.5348,N,01041.1900,E,1.58,238.78,180912,,,A*6A
$GPGGA,124719.000,5351.5346,N,01041.1893,E,1,09,0.9,5.9,M,45.6,M,,0000*5E
$GPGSA,A,3,30,21,03,16,06,18,29,05,31,,,,1.5,0.9,1.2*3B
$GPRMC,124719.000,A,5351.5346,N,01041.1893,E,1.39,253.92,180912,,,A*60
$GPGGA,124720.000,5351.5345,N,01041.1886,E,1,09,0.9,6.2,M,45.6,M,,0000*5B
$GPGSA,A,3,30,21,03,16,06,18,29,05,31,,,,1.5,0.9,1.2*3B
$GPRMC,124720.000,A,5351.5345,N,01041.1886,E,1.28,258.51,180912,,,A*69
$GPGGA,124721.000,5351.5345,N,01041.1881,E,1,09,0.9,6.5,M,45.6,M,,0000*5A
$GPGSA,A,3,30,21,03,16,06,18,29,05,31,,,,1.5,0.9,1.2*3B
$GPGSV,3,1,12,21,71,131,37,30,69,237,42,16,51,296,37,06,34,273,36*7E
$GPGSV,3,2,12,29,30,087,38,18,17,145,30,03,17,276,30,05,14,033,44*7E
$GPGSV,3,3,12,31,13,209,24,13,03,317,23,25,03,141,,07,01,344,*77
$GPRMC,124721.000,A,5351.5345,N,01041.1881,E,0.93,255.50,180912,,,A*62
$GPGGA,124722.000,5351.5345,N,01041.1876,E,1,09,0.9,6.8,M,45.6,M,,0000*5C
$GPGSA,A,3,30,21,03,16,06,18,29,05,31,,,,1.5,0.9,1.2*3B
$GPRMC,124824.000,A,5351.5368,N,01041.1794,E,1.17,330.05,180912,,,A*63
$GPGGA,124825.000,5351.5371,N,01041.1790,E,1,09,0.9,0.6,M,45.6,M,,0000*5C
$GPGSA,A,3,30,21,03,16,06,18,29,05,31,,,,1.5,0.9,1.2*3B
$GPRMC,124825.000,A,5351.5371,N,01041.1790,E,1.36,328.08,180912,,,A*69
$GPGGA,124826.000,5351.5371,N,01041.1787,E,1,09,0.9,0.5,M,45.6,M,,0000*5A
$GPGSA,A,3,30,21,03,16,06,18,29,05,31,,,,1.5,0.9,1.2*3B
$GPGSV,3,1,12,21,71,131,36,30,69,237,47,16,51,296,33,06,34,273,37*7F
$GPGSV,3,2,12,29,30,087,34,18,17,145,29,03,17,276,27,05,14,033,33*7C
$GPGSV,3,3,12,31,13,209,28,13,03,317,21,25,03,141,16,07,01,344,*7E
$GPRMC,124826.000,A,5351.5371,N,01041.1787,E,0.88,298.89,180912,,,A*6B
$GPGGA,124827.000,5351.5372,N,01041.1784,E,1,09,0.9,0.5,M,45.6,M,,0000*5B
$GPGSA,A,3,30,21,03,16,06,18,29,05,31,,,,1.5,0.9,1.2*3B
$GPRMC,124827.000,A,5351.5372,N,01041.1784,E,0.91,312.58,180912,,,A*6D
$GPGGA,124828.000,5351.5374,N,01041.1782,E,1,09,0.9,0.7,M,45.6,M,,0000*56
$GPGSA,A,3,30,21,03,16,06,18,29,05,31,,,,1.5,0.9,1.2*3B
$GPRMC,124828.000,A,5351.5374,N,01041.1782,E,1.06,325.85,180912,,,A*69
$GPGGA,124829.000,5351.5376,N,01041.1780,E,1,09,0.9,0.9,M,45.6,M,,0000*59
$GPGSA,A,3,30,21,03,16,06,18,29,05,31,,,,1.5,0.9,1.2*3B
$GPRMC,124829.000,A,5351.5376,N,01041.1780,E,0.96,333.27,180912,,,A*6F
$GPGGA,124830.000,5351.5378,N,01041.1777,E,1,09,0.9,1.2,M,45.6,M,,0000*5D
$GPGSA,A,3,30,21,03,16,06,18,29,05,31,,,,1.5,0.9,1.2*3B
$GPRMC,124830.000,A,5351.5378,N,01041.1777,E,1.25,329.45,180912,,,A*67
$GPGGA,124831.000,5351.5381,N,01041.1775,E,1,09,0.9,1.4,M,45.6,M,,0000*5E
$GPGSA,A,3,30,21,03,16,06,18,29,05,31,,,,1.5,0.9,1.2*3B
$GPGSV,3,1,12,21,71,131,35,30,69,237,45,16,51,296,34,06,34,273,32*7C
$GPGSV,3,2,12,29,30,087,40,18,17,145,28,03,17,276,27,05,14,033,34*79
$GPGSV,3,3,12,31,13,209,28,13,03,317,20,25,03,141,,07,01,344,*78
$GPRMC,124831.000,A,5351.5381,N,01041.1775,E,1.13,331.91,180912,,,A*67
$GPGGA,124832.000,5351.5383,N,01041.1772,E,1,09,0.9,1.6,M,45.6,M,,0000*5A
$GPGSA,A,3,30,21,03,16,06,18,29,05,31,,,,1.5,0.9,1.2*3B
$GPRMC,124832.000,A,5351.5383,N,01041.1772,E,1.39,327.68,180912,,,A*68
$GPGGA,124833.000,5351.5386,N,01041.1769,E,1,09,0.9,1.7,M,45.6,M,,0000*55
$GPGSA,A,3,30,21,03,16,06,18,29,05,31,,,,1.5,0.9,1.2*3B
$GPRMC,124833.000,A,5351.5386,N,01041.1769,E,1.22,334.15,180912,,,A*64
$GPGGA,124834.000,5351.5388,N,01041.1766,E,1,09,0.9,1.7,M,45.6,M,,0000*53
$GPGSA,A,3,30,21,03,16,06,18,29,05,31,,,,1.5,0.9,1.2*3B
$GPRMC,124834.000,A,5351.5388,N,01041.1766,E,1.24,327.88,180912,,,A*62
$GPGGA,124835.000,5351.5391,N,01041.1763,E,1,09,0.9,1.6,M,45.6,M,,0000*5E
$GPGSA,A,3,30,21,03,16,06,18,29,05,31,,,,1.5,0.9,1.2*3B
$GPRMC,124835.000,A,5351.5391,N,01041.1763,E,1.61,334.69,180912,,,A*62
$GPGGA,124836.000,5351.5394,N,01041.1758,E,1,09,0.9,1.5,M,45.6,M,,0000*53
$GPGSA,A,3,30,21,03,16,06,18,29,05,31,,,,1.5,0.9,1.2*3B
$GPGSV,3,1,12,21,71,131,29,30,69,237,32,16,51,296,41,06,34,273,35*74
$GPGSV,3,2,12,29,30,087,35,18,17,145,27,03,17,276,27,05,14,033,36*76
$GPGSV,3,3,12,31,13,209,31,13,03,317,20,25,03,141,,07,01,344,*70
$GPRMC,124836.000,A,5351.5394,N,01041.1758,E,1.53,320.60,180912,,,A*61
$GPGGA,124837.000,5351.5397,N,01041.1754,E,1,09,0.9,1.5,M,45.6,M,,0000*5D
$GPGSA,A,3,30,21,03,16,06,18,29,05,31,,,,1.5,0.9,1.2*3B
$GPRMC,124837.000,A,5351.5397,N,01041.1754,E,1.27,317.37,180912,,,A*6A
$GPGGA,124838.000,5351.5400,N,01041.1750,E,1,09,0.9,1.5,M,45.6,M,,0000*5F
$GPGSA,A,3,30,21,03,16,06,18,29,05,31,,,,1.5,0.9,1.2*3B
$GPRMC,124838.000,A,5351.5400,N,01041.1750,E,1.41,324.58,180912,,,A*61
$GPGGA,124839.000,5351.5402,N,01041.1746,E,1,09,0.9,1.5,M,45.6,M,,0000*5B
$GPGSA,A,3,30,21,03,16,06,18,29,05,31,,,,1.5,0.9,1.2*3B
$GPRMC,124839.000,A,5351.5402,N,01041.1746,E,1.28,324.57,180912,,,A*65
$GPGGA,124840.000,5351.5404,N,01041.1742,E,1,09,0.9,1.6,M,45.6,M,,0000*54
$GPGSA,A,3,30,21,03,16,06,18,29,05,31,,,,1.5,0.9,1.2*3B
$GPRMC,124840.000,A,5351.5404,N,01041.1742,E,1.10,308.43,180912,,,A*69
$GPGGA,124841.000,5351.5408,N,01041.1736,E,1,09,0.9,1.7,M,45.6,M,,0000*5B
$GPGSA,A,3,30,21,03,16,06,18,29,05,31,,,,1.5,0.9,1.2*3B
$GPGSV,3,1,12,21,71,131,32,30,69,237,39,16,51,296,41,06,34,273,36*76
$GPGSV,3,2,12,29,30,087,42,18,17,145,26,03,17,276,29,05,14,033,33*7C
$GPGSV,3,3,12,31,13,209,30,13,03,317,20,25,03,141,,07,01,344,*71
$GPRMC,124841.000,A,5351.5408,N,01041.1736,E,1.72,323.72,180912,,,A*68
$GPGGA,124842.000,5351.5412,N,01041.1732,E,1,09,0.9,1.9,M,45.6,M,,0000*59
$GPGSA,A,3,30,21,03,16,06,18,29,05,31,,,,1.5,0.9,1.2*3B
$GPRMC,124842.000,A,5351.5412,N,01041.1732,E,1.71,328.76,180912,,,A*68
$GPGGA,124843.000,5351.5415,N,01041.1728,E,1,09,0.9,1.9,M,45.6,M,,0000*54
$GPGSA,A,3,30,21,03,16,06,18,29,05,31,,,,1.5,0.9,1.2*3B
$GPRMC,124843.000,A,5351.5415,N,01041.1728,E,1.31,333.87,180912,,,A*65
$GPGGA,124844.000,5351.5418,N,01041.1726,E,1,09,0.9,2.0,M,45.6,M,,0000*5A
$GPGSA,A,3,30,21,03,16,06,18,29,05,31,,,,1.5,0.9,1.2*3B
$GPRMC,124844.000,A,5351.5418,N,01041.1726,E,1.24,341.66,180912,,,A*6F
$GPGGA,124845.000,5351.5420,N,01041.1725,E,1,09,0.9,2.1,M,45.6,M,,0000*52
$GPGSA,A,3,30,21,03,16,06,18,29,05,31,,,,1.5,0.9,1.2*3B
$GPRMC,124850.000,A,5351.5425,N,01041.1726,E,1.91,21.27,180912,,,A*5A
$GPGGA,124851.000,5351.5430,N,01041.1729,E,1,09,0.9,2.0,M,45.6,M,,0000*5B
$GPGSA,A,3,30,21,03,16,06,18,29,05,31,,,,1.5,0.9,1.2*3B
$GPGSV,3,1,12,21,71,128,36,30,69,234,39,16,51,296,32,06,35,273,39*73
$GPGSV,3,2,12,29,29,087,43,18,18,144,42,03,17,276,39,05,14,033,28*72
$GPGSV,3,3,12,31,12,209,23,13,03,317,19,25,03,142,,07,01,344,*7B
$GPRMC,124851.000,A,5351.5430,N,01041.1729,E,1.91,19.47,180912,,,A*5D
$GPGGA,124852.000,5351.5434,N,01041.1730,E,1,09,0.9,2.1,M,45.6,M,,0000*55
$GPGSA,A,3,30,21,03,16,06,18,29,05,31,,,,1.5,0.9,1.2*3B
$GPRMC,124852.000,A,5351.5434,N,01041.1730,E,1.35,16.55,180912,,,A*50
$GPGGA,124853.000,5351.5437,N,01041.1731,E,1,09,0.9,2.0,M,45.6,M,,0000*57
$GPGSA,A,3,30,21,03,16,06,18,29,05,31,,,,1.5,0.9,1.2*3B
$GPRMC,124853.000,A,5351.5437,N,01041.1731,E,0.99,16.20,180912,,,A*56
$GPGGA,124854.000,5351.5439,N,01041.1732,E,1,09,0.9,2.0,M,45.6,M,,0000*5D
$GPGSA,A,3,30,21,03,16,06,18,29,05,31,,,,1.5,0.9,1.2*3B
$GPRMC,124854.000,A,5351.5439,N,01041.1732,E,0.97,8.83,180912,,,A*64
$GPGGA,124855.000,5351.5439,N,01041.1730,E,1,09,0.9,2.0,M,45.6,M,,0000*5E
$GPGSA,A,3,30,21,03,16,06,18,29,05,31,,,,1.5,0.9,1.2*3B
$GPRMC,124858.000,A,5351.5443,N,01041.1732,E,1.18,50.38,180912,,,A*5E
$GPGGA,124859.000,5351.5447,N,01041.1734,E,1,09,0.9,1.3,M,45.6,M,,0000*5F
$GPGSA,A,3,30,21,03,16,06,18,29,05,31,,,,1.5,0.9,1.2*3B
$GPRMC,124859.000,A,5351.5447,N,01041.1734,E,1.30,20.58,180912,,,A*56
$GPGGA,124900.000,5351.5451,N,01041.1734,E,1,09,0.9,1.1,M,45.6,M,,0000*57
$GPGSA,A,3,30,21,03,16,06,18,29,05,31,,,,1.5,0.9,1.2*3B
$GPRMC,124900.000,A,5351.5451,N,01041.1734,E,1.59,0.41,180912,,,A*69
$GPGGA,124901.000,5351.5457,N,01041.1731,E,1,09,0.9,0.8,M,45.6,M,,0000*5D
$GPGSA,A,3,30,21,03,16,06,18,29,05,31,,,,1.5,0.9,1.2*3B
$GPGSV,3,1,12,21,71,128,30,30,69,234,35,16,51,296,36,06,35,273,34*70
$GPGSV,3,2,12,29,29,087,42,18,18,144,40,03,17,276,31,05,14,033,33*73
$GPGSV,3,3,12,31,12,209,29,13,03,317,20,25,03,142,16,07,01,344,*7C
$GPRMC,124901.000,A,5351.5457,N,01041.1731,E,1.88,341.80,180912,,,A*6C
$GPGGA,124902.000,5351.5461,N,01041.1725,E,1,09,0.9,0.6,M,45.6,M,,0000*50
$GPGSA,A,3,30,21,03,16,06,18,29,05,31,,,,1.5,0.9,1.2*3B
$GPRMC,124902.000,A,5351.5461,N,01041.1725,E,1.78,317.70,180912,,,A*6C
$GPGGA,124903.000,5351.5466,N,01041.1720,E,1,09,0.9,0.4,M,45.6,M,,0000*51
$GPGSA,A,3,30,21,03,16,06,18,29,05,31,,,,1.5,0.9,1.2*3B
$GPRMC,124903.000,A,5351.5466,N,01041.1720,E,2.07,321.23,180912,,,A*67
$GPGGA,124904.000,5351.5471,N,01041.1714,E,1,09,0.9,0.4,M,45.6,M,,0000*57
$GPGSA,A,3,30,21,03,16,06,18,29,05,31,,,,1.5,0.9,1.2*3B
$GPRMC,124904.000,A,5351.5471,N,01041.1714,E,2.15,324.97,180912,,,A*68
$GPGGA,124905.000,5351.5476,N,01041.1709,E,1,09,0.9,0.3,M,45.6,M,,0000*5A
$GPGSA,A,3,30,21,03,16,06,18,29,05,31,,,,1.5,0.9,1.2*3B
$GPRMC,124905.000,A,5351.5476,N,01041.1709,E,1.83,327.95,180912,,,A*6F
$GPGGA,124906.000,5351.5481,N,01041.1706,E,1,09,0.9,0.3,M,45.6,M,,0000*5E
$GPGSA,A,3,30,21,03,16,06,18,29,05,31,,,,1.5,0.9,1.2*3B
$GPGSV,3,1,12,21,72,128,30,30,69,234,42,16,51,296,39,06,35,273,34*7C
$GPGSV,3,2,12,29,29,087,43,18,18,144,30,03,17,276,30,05,14,033,33*74
$GPGSV,3,3,12,31,12,209,28,13,03,317,18,25,02,142,15,07,02,344,*77
$GPRMC,124906.000,A,5351.5481,N,01041.1706,E,1.80,338.48,180912,,,A*66
$GPGGA,124907.000,5351.5485,N,01041.1703,E,1,09,0.9,0.4,M,45.6,M,,0000*59
$GPGSA,A,3,30,21,03,16,06,18,29,05,31,,,,1.5,0.9,1.2*3B
$GPRMC,124907.000,A,5351.5485,N,01041.1703,E,1.42,331.53,180912,,,A*6B
$GPGGA,124908.000,5351.5491,N,01041.1699,E,1,09,0.9,0.5,M,45.6,M,,0000*50
$GPGSA,A,3,30,21,03,16,06,18,29,05,31,,,,1.5,0.9,1.2*3B
$GPRMC,124908.000,A,5351.5491,N,01041.1699,E,2.01,330.53,180912,,,A*66
$GPGGA,124909.000,5351.5495,N,01041.1694,E,1,09,0.9,0.5,M,45.6,M,,0000*58
$GPGSA,A,3,30,21,03,16,06,18,29,05,31,,,,1.5,0.9,1.2*3B
$GPRMC,124909.000,A,5351.5495,N,01041.1694,E,1.84,324.72,180912,,,A*66
$GPGGA,124910.000,5351.5500,N,01041.1689,E,1,09,0.9,0.6,M,45.6,M,,0000*52
$GPGSA,A,3,30,21,03,16,06,18,29,05,31,,,,1.5,0.9,1.2*3B
$GPRMC,124910.000,A,5351.5500,N,01041.1689,E,1.76,323.30,180912,,,A*63
$GPGGA,124911.000,5351.5504,N,01041.1685,E,1,09,0.9,0.8,M,45.6,M,,0000*55
$GPGSA,A,3,30,21,03,16,06,18,29,05,31,,,,1.5,0.9,1.2*3B
$GPGSV,3,1,12,21,72,128,32,30,69,234,43,16,51,296,40,06,35,273,29*7D
$GPGSV,3,2,12,29,29,087,36,18,18,144,28,03,17,276,27,05,14,033,37*7D
$GPGSV,3,3,12,31,12,209,27,13,03,317,18,25,02,142,14,07,02,344,*79
$GPRMC,124911.000,A,5351.5504,N,01041.1685,E,1.65,318.53,180912,,,A*65
$GPGGA,124912.000,5351.5509,N,01041.1680,E,1,09,0.9,1.1,M,45.6,M,,0000*56
$GPGSA,A,3,30,21,03,16,06,18,29,05,31,,,,1.5,0.9,1.2*3B
$GPRMC,124912.000,A,5351.5509,N,01041.1680,E,1.63,317.87,180912,,,A*6E
$GPGGA,124913.000,5351.5514,N,01041.1676,E,1,07,1.1,1.4,M,45.6,M,,0000*50
$GPGSA,A,3,30,21,16,06,29,05,31,,,,,,1.8,1.1,1.4*33
$GPRMC,124913.000,A,5351.5514,N,01041.1676,E,1.90,327.67,180912,,,A*6B
$GPGGA,124914.000,5351.5520,N,01041.1674,E,1,07,1.1,1.7,M,45.6,M,,0000*51
$GPGSA,A,3,30,21,16,06,29,05,31,,,,,,1.8,1.1,1.4*33
$GPRMC,124914.000,A,5351.5520,N,01041.1674,E,1.90,336.08,180912,,,A*60
$GPGGA,124915.000,5351.5526,N,01041.1670,E,1,09,0.9,2.0,M,45.6,M,,0000*51
$GPGSA,A,3,30,21,18,16,06,03,29,05,31,,,,1.5,0.9,1.2*3B
$GPRMC,124915.000,A,5351.5526,N,01041.1670,E,1.89,331.07,180912,,,A*63
$GPGGA,124916.000,5351.5530,N,01041.1667,E,1,09,0.9,2.3,M,45.6,M,,0000*50
$GPGSA,A,3,30,21,18,16,06,03,29,05,31,,,,1.5,0.9,1.2*3B
$GPGSV,3,1,12,21,72,128,33,30,69,234,43,16,51,296,41,06,35,273,28*7C
$GPGSV,3,2,12,29,29,087,39,18,18,144,29,03,17,276,29,05,14,033,32*78
$GPGSV,3,3,12,31,12,209,32,13,03,317,18,25,02,142,13,07,02,344,*7A
$GPRMC,124916.000,A,5351.5530,N,01041.1667,E,1.67,331.77,180912,,,A*66
$GPGGA,124917.000,5351.5535,N,01041.1664,E,1,07,0.9,2.5,M,45.6,M,,0000*5F
$GPGSA,A,3,30,18,16,03,29,05,31,,,,,,1.8,0.9,1.5*34
$GPRMC,124917.000,A,5351.5535,N,01041.1664,E,1.58,329.43,180912,,,A*63
$GPGGA,124918.000,5351.5540,N,01041.1659,E,1,07,1.1,2.6,M,45.6,M,,0000*56
$GPGSA,A,3,30,21,18,16,29,05,31,,,,,,1.7,1.1,1.4*33
$GPRMC,124918.000,A,5351.5540,N,01041.1659,E,1.81,326.29,180912,,,A*67
$GPGGA,124919.000,5351.5545,N,01041.1656,E,1,09,0.9,2.7,M,45.6,M,,0000*5B
$GPGSA,A,3,30,21,18,16,06,03,29,05,31,,,,1.5,0.9,1.2*3B
$GPRMC,124919.000,A,5351.5545,N,01041.1656,E,1.78,331.55,180912,,,A*67
$GPGGA,124920.000,5351.5549,N,01041.1651,E,1,09,0.9,2.8,M,45.6,M,,0000*55
$GPGSA,A,3,30,21,18,16,06,03,29,05,31,,,,1.5,0.9,1.2*3B
$GPRMC,124920.000,A,5351.5549,N,01041.1651,E,1.63,320.20,180912,,,A*6E
$GPGGA,124921.000,5351.5554,N,01041.1647,E,1,09,0.9,2.7,M,45.6,M,,0000*50
$GPGSA,A,3,30,21,18,16,06,03,29,05,31,,,,1.5,0.9,1.2*3B
$GPGSV,3,1,12,21,72,128,32,30,69,234,43,16,51,296,42,06,35,273,32*75
$GPGSV,3,2,12,29,29,087,36,18,18,144,29,03,17,276,31,05,14,033,33*7F
$GPGSV,3,3,12,31,12,209,40,13,03,317,18,25,02,142,13,07,02,344,*7F
$GPRMC,124921.000,A,5351.5554,N,01041.1647,E,1.69,331.33,180912,,,A*6C
$GPGGA,124922.000,5351.5559,N,01041.1643,E,1,09,0.9,2.7,M,45.6,M,,0000*5A
$GPGSA,A,3,30,21,18,16,06,03,29,05,31,,,,1.5,0.9,1.2*3B
$GPRMC,124922.000,A,5351.5559,N,01041.1643,E,1.80,332.83,180912,,,A*69
$GPGGA,124923.000,5351.5563,N,01041.1639,E,1,09,0.9,2.8,M,45.6,M,,0000*50
$GPGSA,A,3,30,21,18,16,06,03,29,05,31,,,,1.5,0.9,1.2*3B
$GPRMC,124923.000,A,5351.5563,N,01041.1639,E,1.64,330.01,180912,,,A*6E
$GPGGA,124924.000,5351.5569,N,01041.1635,E,1,08,1.0,2.8,M,45.6,M,,0000*58
$GPGSA,A,3,30,21,18,16,06,03,29,05,,,,,1.7,1.0,1.4*35
$GPRMC,124924.000,A,5351.5569,N,01041.1635,E,1.77,341.28,180912,,,A*60
$GPGGA,124925.000,5351.5574,N,01041.1632,E,1,08,1.0,2.8,M,45.6,M,,0000*52
$GPGSA,A,3,30,21,18,16,06,03,29,05,,,,,1.7,1.0,1.4*35
$GPRMC,124925.000,A,5351.5574,N,01041.1632,E,1.76,335.52,180912,,,A*65
$GPGGA,124926.000,5351.5578,N,01041.1627,E,1,09,0.9,2.9,M,45.6,M,,0000*51
$GPGSA,A,3,30,21,18,16,06,03,29,05,31,,,,1.5,0.9,1.2*3B
$GPGSV,3,1,12,21,72,128,31,30,69,234,44,16,51,296,42,06,35,273,33*70
$GPGSV,3,2,12,29,29,087,38,18,18,144,29,03,17,276,32,05,14,033,38*79
$GPGSV,3,3,12,31,12,209,34,13,03,317,17,25,02,142,14,07,02,344,*74
$GPRMC,124926.000,A,5351.5578,N,01041.1627,E,1.66,329.02,180912,,,A*67
$GPGGA,124927.000,5351.5583,N,01041.1623,E,1,09,0.9,3.0,M,45.6,M,,0000*58
$GPGSA,A,3,30,21,18,16,06,03,29,05,31,,,,1.5,0.9,1.2*3B
$GPRMC,124927.000,A,5351.5583,N,01041.1623,E,1.75,330.73,180912,,,A*6A
$GPGGA,124928.000,5351.5588,N,01041.1618,E,1,09,0.9,3.1,M,45.6,M,,0000*55
$GPGSA,A,3,30,21,18,16,06,03,29,05,31,,,,1.5,0.9,1.2*3B
$GPRMC,124928.000,A,5351.5588,N,01041.1618,E,1.70,330.00,180912,,,A*67
$GPGGA,124929.000,5351.5592,N,01041.1614,E,1,09,0.9,3.2,M,45.6,M,,0000*50
$GPGSA,A,3,30,21,18,16,06,03,29,05,31,,,,1.5,0.9,1.2*3B
$GPRMC,124929.000,A,5351.5592,N,01041.1614,E,1.70,326.82,180912,,,A*6C
$GPGGA,124930.000,5351.5596,N,01041.1609,E,1,09,0.9,3.2,M,45.6,M,,0000*50
$GPGSA,A,3,30,21,18,16,06,03,29,05,31,,,,1.5,0.9,1.2*3B
$GPRMC,124930.000,A,5351.5596,N,01041.1609,E,1.60,327.58,180912,,,A*6B
$GPGGA,124931.000,5351.5601,N,01041.1604,E,1,09,0.9,3.3,M,45.6,M,,0000*50
$GPGSA,A,3,30,21,18,16,06,03,29,05,31,,,,1.5,0.9,1.2*3B
$GPGSV,3,1,12,21,72,128,31,30,69,234,44,16,51,296,42,06,35,273,33*70
$GPGSV,3,2,12,29,29,087,45,18,18,144,27,03,17,276,27,05,14,033,35*74
$GPGSV,3,3,12,31,12,209,40,13,03,317,18,25,02,142,13,07,02,344,*7F
$GPRMC,124931.000,A,5351.5601,N,01041.1604,E,1.78,328.37,180912,,,A*65
$GPGGA,124932.000,5351.5606,N,01041.1599,E,1,09,0.9,3.4,M,45.6,M,,0000*54
$GPGSA,A,3,30,21,18,16,06,03,29,05,31,,,,1.5,0.9,1.2*3B
$GPRMC,124932.000,A,5351.5606,N,01041.1599,E,1.75,327.55,180912,,,A*60
$GPGGA,124933.000,5351.5610,N,01041.1594,E,1,09,0.9,3.5,M,45.6,M,,0000*5E
$GPGSA,A,3,30,21,18,16,06,03,29,05,31,,,,1.5,0.9,1.2*3B
$GPRMC,124933.000,A,5351.5610,N,01041.1594,E,1.87,328.98,180912,,,A*68
$GPGGA,124934.000,5351.5615,N,01041.1590,E,1,09,0.9,3.6,M,45.6,M,,0000*5B
$GPGSA,A,3,30,21,18,16,06,03,29,05,31,,,,1.5,0.9,1.2*3B
$GPRMC,124934.000,A,5351.5615,N,01041.1590,E,1.72,331.95,180912,,,A*61
$GPGGA,124935.000,5351.5620,N,01041.1587,E,1,09,0.9,3.8,M,45.6,M,,0000*54
$GPGSA,A,3,30,21,18,16,06,03,29,05,31,,,,1.5,0.9,1.2*3B
$GPRMC,124935.000,A,5351.5620,N,01041.1587,E,1.59,339.91,180912,,,A*65
$GPGGA,124936.000,5351.5624,N,01041.1582,E,1,09,0.9,3.9,M,45.6,M,,0000*57
$GPGSA,A,3,30,21,18,16,06,03,29,05,31,,,,1.5,0.9,1.2*3B
$GPGSV,3,1,12,21,72,128,31,30,69,234,44,16,51,296,42,06,35,273,33*70
$GPGSV,3,2,12,29,29,087,41,18,18,144,28,03,17,276,28,05,14,033,32*77
$GPGSV,3,3,12,31,12,209,35,13,03,317,17,25,02,142,12,07,02,344,*73
$GPRMC,124936.000,A,5351.5624,N,01041.1582,E,1.62,324.79,180912,,,A*65
$GPGGA,124937.000,5351.5628,N,01041.1578,E,1,09,0.9,4.0,M,45.6,M,,0000*51
$GPGSA,A,3,30,21,18,16,06,03,29,05,31,,,,1.5,0.9,1.2*3B
$GPRMC,124937.000,A,5351.5628,N,01041.1578,E,1.71,328.12,180912,,,A*6E
$GPGGA,124938.000,5351.5633,N,01041.1573,E,1,09,0.9,4.2,M,45.6,M,,0000*5D
$GPGSA,A,3,30,21,18,16,06,03,29,05,31,,,,1.5,0.9,1.2*3B
$GPRMC,124938.000,A,5351.5633,N,01041.1573,E,1.91,328.88,180912,,,A*6D
$GPGGA,124939.000,5351.5638,N,01041.1568,E,1,09,0.9,4.3,M,45.6,M,,0000*5C
$GPGSA,A,3,30,21,18,16,06,03,29,05,31,,,,1.5,0.9,1.2*3B
$GPRMC,124939.000,A,5351.5638,N,01041.1568,E,1.91,329.97,180912,,,A*62
$GPGGA,124940.000,5351.5642,N,01041.1563,E,1,09,0.9,4.4,M,45.6,M,,0000*53
$GPGSA,A,3,30,21,18,16,06,03,29,05,31,,,,1.5,0.9,1.2*3B
$GPRMC,124940.000,A,5351.5642,N,01041.1563,E,1.69,327.29,180912,,,A*66
$GPGGA,124941.000,5351.5648,N,01041.1558,E,1,09,0.9,4.6,M,45.6,M,,0000*52
$GPGSA,A,3,30,21,18,16,06,03,29,05,31,,,,1.5,0.9,1.2*3B
$GPGSV,3,1,12,21,72,128,31,30,69,234,44,16,51,296,42,06,35,273,33*70
$GPGSV,3,2,12,29,29,087,42,18,18,144,27,03,17,276,28,05,14,033,32*7B
$GPGSV,3,3,12,31,12,209,28,13,03,317,16,25,02,142,,07,02,344,*7D
$GPRMC,124941.000,A,5351.5648,N,01041.1558,E,2.07,332.74,180912,,,A*62
$GPGGA,124942.000,5351.5652,N,01041.1554,E,1,09,0.9,4.8,M,45.6,M,,0000*58
$GPGSA,A,3,30,21,18,16,06,03,29,05,31,,,,1.5,0.9,1.2*3B
$GPRMC,124942.000,A,5351.5652,N,01041.1554,E,1.79,329.25,180912,,,A*62
$GPGGA,124943.000,5351.5657,N,01041.1548,E,1,09,0.9,4.9,M,45.6,M,,0000*50
$GPGSA,A,3,30,21,18,16,06,03,29,05,31,,,,1.5,0.9,1.2*3B
$GPRMC,124943.000,A,5351.5657,N,01041.1548,E,1.76,323.28,180912,,,A*63
$GPGGA,124944.000,5351.5661,N,01041.1542,E,1,09,0.9,5.0,M,45.6,M,,0000*50
$GPGSA,A,3,30,21,18,16,06,03,29,05,31,,,,1.5,0.9,1.2*3B
$GPRMC,124944.000,A,5351.5661,N,01041.1542,E,1.88,320.71,180912,,,A*65
$GPGGA,124945.000,5351.5665,N,01041.1537,E,1,08,0.9,5.1,M,45.6,M,,0000*57
$GPGSA,A,3,30,18,16,06,03,29,05,31,,,,,1.7,0.9,1.5*3D
$GPRMC,124945.000,A,5351.5665,N,01041.1537,E,1.78,321.70,180912,,,A*6D
$GPGGA,124946.000,5351.5670,N,01041.1531,E,1,08,1.3,5.2,M,45.6,M,,0000*5E
$GPGSA,A,3,30,21,18,16,06,03,29,31,,,,,2.0,1.3,1.5*34
$GPGSV,3,1,12,21,72,128,32,30,69,234,44,16,51,296,42,06,35,273,37*77
$GPGSV,3,2,12,29,29,087,43,18,18,144,27,03,17,276,27,05,14,033,*74
$GPGSV,3,3,12,31,12,209,44,13,03,317,17,25,02,142,,07,02,344,14*73
$GPRMC,124946.000,A,5351.5670,N,01041.1531,E,1.77,323.82,180912,,,A*6C
$GPGGA,124947.000,5351.5675,N,01041.1526,E,1,09,0.9,5.2,M,45.6,M,,0000*56
$GPGSA,A,3,30,21,18,16,06,03,29,05,31,,,,1.5,0.9,1.2*3B
$GPRMC,124947.000,A,5351.5675,N,01041.1526,E,1.92,328.13,180912,,,A*66
$GPGGA,124948.000,5351.5679,N,01041.1521,E,1,09,0.9,5.2,M,45.6,M,,0000*52
$GPGSA,A,3,30,21,18,16,06,03,29,05,31,,,,1.5,0.9,1.2*3B
$GPRMC,124948.000,A,5351.5679,N,01041.1521,E,1.84,329.09,180912,,,A*6F
$GPGGA,124949.000,5351.5684,N,01041.1516,E,1,09,0.9,5.3,M,45.6,M,,0000*54
$GPGSA,A,3,30,21,18,16,06,03,29,05,31,,,,1.5,0.9,1.2*3B
$GPRMC,124949.000,A,5351.5684,N,01041.1516,E,1.90,330.01,180912,,,A*6D
$GPGGA,124950.000,5351.5689,N,01041.1511,E,1,09,0.9,5.3,M,45.6,M,,0000*56
$GPGSA,A,3,30,21,18,16,06,03,29,05,31,,,,1.5,0.9,1.2*3B
$GPRMC,124950.000,A,5351.5689,N,01041.1511,E,1.88,324.84,180912,,,A*6E
$GPGGA,124951.000,5351.5694,N,01041.1505,E,1,09,0.9,5.2,M,45.6,M,,0000*5F
$GPGSA,A,3,30,21,18,16,06,03,29,05,31,,,,1.5,0.9,1.2*3B
$GPGSV,3,1,12,21,72,128,34,30,69,234,44,16,51,296,42,06,35,273,35*73
$GPGSV,3,2,12,29,29,087,48,18,18,144,28,03,17,276,27,05,14,033,34*77
$GPGSV,3,3,12,31,12,209,33,13,03,317,16,25,02,142,,07,02,344,*77
$GPRMC,124951.000,A,5351.5694,N,01041.1505,E,1.90,326.82,180912,,,A*6B
$GPGGA,124952.000,5351.5698,N,01041.1499,E,1,09,0.9,5.1,M,45.6,M,,0000*57
$GPGSA,A,3,30,21,18,16,06,03,29,05,31,,,,1.5,0.9,1.2*3B
$GPRMC,124952.000,A,5351.5698,N,01041.1499,E,1.83,324.73,180912,,,A*6E
$GPGGA,124953.000,5351.5703,N,01041.1494,E,1,09,0.9,5.1,M,45.6,M,,0000*58
$GPGSA,A,3,30,21,18,16,06,03,29,05,31,,,,1.5,0.9,1.2*3B
$GPRMC,124953.000,A,5351.5703,N,01041.1494,E,1.77,325.12,180912,,,A*6C
$GPGGA,124954.000,5351.5707,N,01041.1488,E,1,09,0.9,5.1,M,45.6,M,,0000*56
$GPGSA,A,3,30,21,18,16,06,03,29,05,31,,,,1.5,0.9,1.2*3B
$GPRMC,124954.000,A,5351.5707,N,01041.1488,E,1.77,324.34,180912,,,A*67
