$GPGGA,113741.000,5332.9580,N,00958.6551,E,1,06,1.3,118.9,M,46.0,M,,0000*5A
$GPGSA,A,3,31,21,25,29,16,05,,,,,,,2.7,1.3,2.4*3C
$GPRMC,113741.000,A,5332.9580,N,00958.6551,E,3.64,320.19,160912,,,A*6A
$GPGGA,113742.000,5332.9582,N,00958.6544,E,1,06,1.3,118.2,M,46.0,M,,0000*54
$GPGSA,A,3,31,21,25,29,16,05,,,,,,,2.7,1.3,2.4*3C
$GPRMC,113745.000,A,5332.9583,N,00958.6536,E,0.91,187.95,160912,,,A*6E
$GPGGA,113746.000,5332.9578,N,00958.6532,E,1,06,1.3,112.9,M,46.0,M,,0000*55
$GPGSA,A,3,31,30,25,29,16,05,,,,,,,2.5,1.3,2.2*38
$GPRMC,113746.000,A,5332.9578,N,00958.6532,E,2.68,188.24,160912,,,A*6C
$GPGGA,113747.000,5332.9576,N,00958.6528,E,1,06,1.3,110.9,M,46.0,M,,0000*53
$GPGSA,A,3,31,30,25,29,16,05,,,,,,,2.5,1.3,2.2*38
$GPRMC,113747.000,A,5332.9576,N,00958.6528,E,1.57,190.37,160912,,,A*6C
$GPGGA,113748.000,5332.9580,N,00958.6525,E,1,06,1.3,108.9,M,46.0,M,,0000*51
$GPGSA,A,3,31,30,25,29,16,05,,,,,,,2.5,1.3,2.2*38
$GPRMC,113749.000,A,5332.9581,N,00958.6518,E,1.52,216.98,160912,,,A*64
$GPGGA,113750.000,5332.9583,N,00958.6510,E,1,06,1.3,105.1,M,46.0,M,,0000*58
$GPGSA,A,3,31,30,25,29,16,05,,,,,,,2.5,1.3,2.2*38
$GPGSV,3,1,12,29,62,072,39,30,46,295,43,31,45,229,28,21,43,175,*77
$GPGSV,3,2,12,25,36,128,30,05,20,064,40,16,18,298,35,23,09,315,33*74
$GPGSV,3,3,12,13,07,347,20,02,06,040,20,06,04,256,24,10,04,014,23*7B
$GPRMC,113750.000,A,5332.9583,N,00958.6510,E,1.53,244.76,160912,,,A*60
$GPGGA,113751.000,5332.9585,N,00958.6501,E,1,06,1.3,103.4,M,46.0,M,,0000*5C
$GPGSA,A,3,31,30,25,29,16,05,,,,,,,2.5,1.3,2.2*38
$GPRMC,113751.000,A,5332.9585,N,00958.6501,E,1.82,250.42,160912,,,A*69
$GPGGA,113752.000,5332.9588,N,00958.6492,E,1,06,1.3,101.9,M,46.0,M,,0000*56
$GPGSA,A,3,31,30,25,29,16,05,,,,,,,2.5,1.3,2.2*38
$GPRMC,113752.000,A,5332.9588,N,00958.6492,E,1.74,257.79,160912,,,A*6A
$GPGGA,113753.000,5332.9593,N,00958.6485,E,1,06,1.3,100.4,M,46.0,M,,0000*57
$GPGSA,A,3,31,30,25,29,16,05,,,,,,,2.5,1.3,2.2*38
$GPRMC,113753.000,A,5332.9593,N,00958.6485,E,1.50,291.56,160912,,,A*66
$GPGGA,113754.000,5332.9598,N,00958.6477,E,1,06,1.3,98.9,M,46.0,M,,0000*6B
$GPGSA,A,3,31,30,25,29,16,05,,,,,,,2.5,1.3,2.2*38
$GPRMC,113754.000,A,5332.9598,N,00958.6477,E,1.48,284.96,160912,,,A*66
$GPGGA,113755.000,5332.9600,N,00958.6468,E,1,06,1.3,97.4,M,46.0,M,,0000*64
$GPGSA,A,3,31,30,25,29,16,05,,,,,,,2.5,1.3,2.2*38
$GPGSV,3,1,12,29,62,072,35,30,46,295,42,31,45,229,27,21,43,175,*75
$GPGSV,3,2,12,25,36,128,30,05,20,064,34,16,18,298,39,23,09,315,34*7C
$GPGSV,3,3,12,13,07,347,27,02,06,040,21,06,04,256,24,10,04,014,28*76
$GPRMC,113755.000,A,5332.9600,N,00958.6468,E,2.07,239.70,160912,,,A*6D
$GPGGA,113756.000,5332.9601,N,00958.6464,E,1,06,1.3,95.9,M,46.0,M,,0000*65
$GPGSA,A,3,31,30,25,29,16,05,,,,,,,2.5,1.3,2.2*38
$GPRMC,113756.000,A,5332.9601,N,00958.6464,E,1.30,218.25,160912,,,A*67
$GPGGA,113757.000,5332.9605,N,00958.6459,E,1,06,1.3,94.4,M,46.0,M,,0000*62
$GPGSA,A,3,31,30,25,29,16,05,,,,,,,2.5,1.3,2.2*38
$GPRMC,113757.000,A,5332.9605,N,00958.6459,E,0.92,263.98,160912,,,A*6F
$GPGGA,113758.000,5332.9610,N,00958.6457,E,1,06,1.3,92.9,M,46.0,M,,0000*6C
$GPGSA,A,3,31,30,25,29,16,05,,,,,,,2.5,1.3,2.2*38
$GPRMC,113801.000,A,5332.9626,N,00958.6454,E,1.10,233.77,160912,,,A*60
$GPGGA,113802.000,5332.9629,N,00958.6453,E,1,06,1.3,85.4,M,46.0,M,,0000*69
$GPGSA,A,3,31,30,25,29,16,05,,,,,,,2.5,1.3,2.2*38
$GPRMC,113802.000,A,5332.9629,N,00958.6453,E,1.34,213.34,160912,,,A*68
$GPGGA,113803.000,5332.9631,N,00958.6453,E,1,06,1.3,83.4,M,46.0,M,,0000*67
$GPGSA,A,3,31,30,25,29,16,05,,,,,,,2.5,1.3,2.2*38
$GPRMC,113803.000,A,5332.9631,N,00958.6453,E,1.32,202.64,160912,,,A*63
$GPGGA,113804.000,5332.9636,N,00958.6454,E,1,06,1.3,81.8,M,46.0,M,,0000*6E
$GPGSA,A,3,31,30,25,29,16,05,,,,,,,2.5,1.3,2.2*38
$GPRMC,113804.000,A,5332.9636,N,00958.6454,E,1.08,203.72,160912,,,A*6B
$GPGGA,113805.000,5332.9642,N,00958.6455,E,1,06,1.3,80.3,M,46.0,M,,0000*67
$GPGSA,A,3,31,30,25,29,16,05,,,,,,,2.5,1.3,2.2*38
$GPGSV,3,1,12,29,62,072,25,30,46,295,27,31,45,229,27,21,43,175,*77
$GPGSV,3,2,12,25,36,128,26,05,20,064,41,16,18,298,41,23,09,315,29*7A
$GPGSV,3,3,12,13,07,347,21,02,06,040,22,06,04,256,24,10,04,014,21*7A
$GPRMC,113807.000,A,5332.9651,N,00958.6455,E,1.40,220.63,160912,,,A*65
$GPGGA,113808.000,5332.9657,N,00958.6453,E,1,06,1.3,76.3,M,46.0,M,,0000*61
$GPGSA,A,3,31,30,25,29,16,05,,,,,,,2.5,1.3,2.2*38
$GPRMC,113808.000,A,5332.9657,N,00958.6453,E,1.43,227.77,160912,,,A*6B
$GPGGA,113809.000,5332.9661,N,00958.6454,E,1,06,1.3,75.2,M,46.0,M,,0000*60
$GPGSA,A,3,31,30,25,29,16,05,,,,,,,2.5,1.3,2.2*38
$GPRMC,113809.000,A,5332.9661,N,00958.6454,E,1.32,209.16,160912,,,A*65
$GPGGA,113810.000,5332.9667,N,00958.6455,E,1,06,1.3,74.2,M,46.0,M,,0000*6E
$GPGSA,A,3,31,30,25,29,16,05,,,,,,,2.5,1.3,2.2*38
$GPGSV,3,1,12,29,62,072,25,30,46,295,27,31,45,229,26,21,43,175,*76
$GPGSV,3,2,12,25,36,128,26,05,20,064,26,16,18,298,32,23,09,315,29*7F
$GPGSV,3,3,12,13,07,347,21,02,06,040,21,06,04,256,24,10,04,014,20*78
$GPRMC,113811.000,A,5332.9671,N,00958.6457,E,0.83,187.93,160912,,,A*6D
$GPGGA,113812.000,5332.9676,N,00958.6456,E,1,06,1.3,70.7,M,46.0,M,,0000*6E
$GPGSA,A,3,31,30,25,29,16,05,,,,,,,2.5,1.3,2.2*38
$GPRMC,113812.000,A,5332.9676,N,00958.6456,E,0.96,232.56,160912,,,A*68
$GPGGA,113813.000,5332.9680,N,00958.6456,E,1,06,1.3,68.8,M,46.0,M,,0000*60
$GPGSA,A,3,31,30,25,29,16,05,,,,,,,2.5,1.3,2.2*38
$GPRMC,113813.000,A,5332.9680,N,00958.6456,E,1.05,203.54,160912,,,A*6B
$GPGGA,113814.000,5332.9682,N,00958.6456,E,1,06,1.3,66.6,M,46.0,M,,0000*65
$GPGSA,A,3,31,30,25,29,16,05,,,,,,,2.5,1.3,2.2*38
$GPRMC,113814.000,A,5332.9682,N,00958.6456,E,1.34,191.60,160912,,,A*63
$GPGGA,113815.000,5332.9682,N,00958.6454,E,1,06,1.3,63.8,M,46.0,M,,0000*6D
$GPGSA,A,3,31,30,25,29,16,05,,,,,,,2.5,1.3,2.2*38
$GPGSV,3,1,12,29,62,072,25,30,46,295,28,31,45,229,26,21,43,175,*79
$GPGSV,3,2,12,25,36,128,28,05,20,064,32,16,18,298,32,23,09,315,31*7D
$GPGSV,3,3,12,13,07,347,20,02,06,040,21,06,04,256,30,10,04,014,19*76
$GPRMC,113815.000,A,5332.9682,N,00958.6454,E,1.58,205.54,160912,,,A*63
$GPGGA,113816.000,5332.9680,N,00958.6451,E,1,06,1.3,60.5,M,46.0,M,,0000*67
$GPGSA,A,3,31,30,25,29,16,05,,,,,,,2.5,1.3,2.2*38
$GPRMC,113816.000,A,5332.9680,N,00958.6451,E,2.16,206.70,160912,,,A*6B
$GPGGA,113817.000,5332.9678,N,00958.6450,E,1,06,1.3,57.2,M,46.0,M,,0000*63
$GPGSA,A,3,31,30,25,29,16,05,,,,,,,2.5,1.3,2.2*38
$GPRMC,113817.000,A,5332.9678,N,00958.6450,E,2.12,190.81,160912,,,A*6A
$GPGGA,113818.000,5332.9674,N,00958.6449,E,1,06,1.3,53.9,M,46.0,M,,0000*67
$GPGSA,A,3,31,30,25,29,16,05,,,,,,,2.5,1.3,2.2*38
$GPRMC,113818.000,A,5332.9674,N,00958.6449,E,2.46,185.92,160912,,,A*66
$GPGGA,113819.000,5332.9672,N,00958.6449,E,1,06,1.3,50.7,M,46.0,M,,0000*6D
$GPGSA,A,3,31,30,25,29,16,05,,,,,,,2.5,1.3,2.2*38
$GPRMC,113819.000,A,5332.9672,N,00958.6449,E,1.95,185.18,160912,,,A*6E
$GPGGA,113820.000,5332.9670,N,00958.6450,E,1,05,1.5,47.3,M,46.0,M,,0000*6A
$GPGSA,A,3,31,25,29,16,05,,,,,,,,2.9,1.5,2.4*37
$GPGSV,3,1,12,29,62,072,25,30,46,295,,31,45,229,26,21,43,175,*73
$GPGSV,3,2,12,25,36,128,27,05,20,064,40,16,18,298,32,23,09,315,26*71
$GPGSV,3,3,12,13,07,347,20,02,06,040,20,06,04,256,27,10,04,014,18*70
$GPRMC,113820.000,A,5332.9670,N,00958.6450,E,1.90,178.35,160912,,,A*66
$GPGGA,113821.000,5332.9668,N,00958.6445,E,1,06,1.3,43.5,M,46.0,M,,0000*61
$GPGSA,A,3,31,21,25,29,16,05,,,,,,,2.7,1.3,2.4*3C
$GPRMC,113821.000,A,5332.9668,N,00958.6445,E,1.78,212.27,160912,,,A*60
$GPGGA,113822.000,5332.9667,N,00958.6439,E,1,06,1.3,39.6,M,46.0,M,,0000*68
$GPGSA,A,3,31,21,25,29,16,05,,,,,,,2.7,1.3,2.4*3C
$GPRMC,113822.000,A,5332.9667,N,00958.6439,E,1.70,219.62,160912,,,A*65
$GPGGA,113823.000,5332.9667,N,00958.6433,E,1,06,1.3,35.5,M,46.0,M,,0000*6C
$GPGSA,A,3,31,21,25,29,16,05,,,,,,,2.7,1.3,2.4*3C
$GPRMC,113823.000,A,5332.9667,N,00958.6433,E,1.91,214.68,160912,,,A*66
$GPGGA,113824.000,5332.9664,N,00958.6428,E,1,06,1.3,31.4,M,46.0,M,,0000*67
$GPGSA,A,3,31,21,25,29,16,05,,,,,,,2.7,1.3,2.4*3C
$GPRMC,113824.000,A,5332.9664,N,00958.6428,E,2.40,192.97,160912,,,A*6A
$GPGGA,113825.000,5332.9664,N,00958.6423,E,1,06,1.3,27.8,M,46.0,M,,0000*66
$GPGSA,A,3,31,21,25,29,16,05,,,,,,,2.7,1.3,2.4*3C
$GPGSV,3,1,12,29,62,072,24,30,46,295,,31,45,229,26,21,43,175,24*74
$GPGSV,3,2,12,25,36,128,27,05,20,064,36,16,18,298,32,23,09,315,29*7F
$GPGSV,3,3,12,13,07,347,20,02,06,040,20,06,04,256,29,10,04,014,17*71
$GPRMC,113825.000,A,5332.9664,N,00958.6423,E,1.86,206.65,160912,,,A*6A
$GPGGA,113826.000,5332.9665,N,00958.6417,E,1,06,1.3,24.3,M,46.0,M,,0000*6B
$GPGSA,A,3,31,21,25,29,16,05,,,,,,,2.7,1.3,2.4*3C
$GPRMC,113826.000,A,5332.9665,N,00958.6417,E,1.84,207.78,160912,,,A*60
$GPGGA,113827.000,5332.9666,N,00958.6414,E,1,06,1.3,21.3,M,46.0,M,,0000*6F
$GPGSA,A,3,31,21,25,29,16,05,,,,,,,2.7,1.3,2.4*3C
$GPRMC,113827.000,A,5332.9666,N,00958.6414,E,1.49,189.52,160912,,,A*6D
$GPGGA,113828.000,5332.9670,N,00958.6409,E,1,06,1.3,18.8,M,46.0,M,,0000*6A
$GPGSA,A,3,31,21,25,29,16,05,,,,,,,2.7,1.3,2.4*3C
$GPRMC,113828.000,A,5332.9670,N,00958.6409,E,1.17,212.72,160912,,,A*61
$GPGGA,113829.000,5332.9673,N,00958.6404,E,1,06,1.3,17.1,M,46.0,M,,0000*63
$GPGSA,A,3,31,21,25,29,16,05,,,,,,,2.7,1.3,2.4*3C
$GPRMC,113829.000,A,5332.9673,N,00958.6404,E,1.33,205.40,160912,,,A*6F
$GPGGA,113830.000,5332.9677,N,00958.6395,E,1,06,1.3,15.1,M,46.0,M,,0000*62
$GPGSA,A,3,31,21,25,29,16,05,,,,,,,2.7,1.3,2.4*3C
$GPGSV,3,1,12,29,62,072,25,30,46,295,,31,45,229,25,21,43,175,24*76
$GPGSV,3,2,12,25,36,128,24,05,20,064,32,16,18,298,32,23,09,315,28*79
$GPGSV,3,3,12,13,07,347,20,02,06,040,24,06,04,256,,10,04,014,17*7E
$GPRMC,113830.000,A,5332.9677,N,00958.6395,E,1.82,229.57,160912,,,A*6E
$GPGGA,113831.000,5332.9681,N,00958.6386,E,1,06,1.3,13.4,M,46.0,M,,0000*6B
$GPGSA,A,3,31,21,25,29,16,05,,,,,,,2.7,1.3,2.4*3C
$GPRMC,113831.000,A,5332.9681,N,00958.6386,E,1.73,223.37,160912,,,A*66
$GPGGA,113832.000,5332.9687,N,00958.6378,E,1,06,1.3,12.0,M,46.0,M,,0000*6A
$GPGSA,A,3,31,21,25,29,16,05,,,,,,,2.7,1.3,2.4*3C
$GPRMC,113832.000,A,5332.9687,N,00958.6378,E,1.18,231.63,160912,,,A*6D
$GPGGA,113833.000,5332.9691,N,00958.6370,E,1,06,1.3,11.0,M,46.0,M,,0000*67
$GPGSA,A,3,31,21,25,29,16,05,,,,,,,2.7,1.3,2.4*3C
$GPRMC,113833.000,A,5332.9691,N,00958.6370,E,1.58,213.30,160912,,,A*61
$GPGGA,113834.000,5332.9692,N,00958.6363,E,1,06,1.3,9.9,M,46.0,M,,0000*51
$GPGSA,A,3,31,21,25,29,16,05,,,,,,,2.7,1.3,2.4*3C
$GPRMC,113834.000,A,5332.9692,N,00958.6363,E,2.33,194.31,160912,,,A*64
$GPGGA,113835.000,5332.9695,N,00958.6354,E,1,06,1.3,8.8,M,46.0,M,,0000*53
$GPGSA,A,3,31,21,25,29,16,05,,,,,,,2.7,1.3,2.4*3C
$GPGSV,3,1,12,29,62,072,25,30,46,295,,31,45,229,25,21,43,175,23*71
$GPGSV,3,2,12,25,36,128,25,05,20,064,27,16,18,298,33,23,09,315,27*72
$GPGSV,3,3,12,13,07,347,19,02,06,040,17,06,04,256,28,10,04,014,17*7E
$GPRMC,113835.000,A,5332.9695,N,00958.6354,E,1.56,213.91,160912,,,A*60
$GPGGA,113836.000,5332.9701,N,00958.6345,E,1,06,1.3,8.1,M,46.0,M,,0000*55
$GPGSA,A,3,31,21,25,29,16,05,,,,,,,2.7,1.3,2.4*3C
$GPRMC,113836.000,A,5332.9701,N,00958.6345,E,0.89,228.50,160912,,,A*69
$GPGGA,113837.000,5332.9705,N,00958.6336,E,1,06,1.3,7.6,M,46.0,M,,0000*5C
$GPGSA,A,3,31,21,25,29,16,05,,,,,,,2.7,1.3,2.4*3C
$GPRMC,113837.000,A,5332.9705,N,00958.6336,E,1.03,216.97,160912,,,A*6D
$GPGGA,113838.000,5332.9710,N,00958.6327,E,0,00,,7.2,M,46.0,M,,0000*78
$GPGSA,A,1,,,,,,,,,,,,,,,*1E
$GPRMC,113840.000,A,5332.9716,N,00958.6304,E,2.20,232.04,160912,,,A*60
$GPGGA,113841.000,5332.9720,N,00958.6289,E,1,07,1.1,6.2,M,46.0,M,,0000*59
$GPGSA,A,3,31,21,25,29,16,05,30,,,,,,2.4,1.1,2.2*38
$GPRMC,113841.000,A,5332.9720,N,00958.6289,E,1.40,224.04,160912,,,A*62
$GPGGA,113842.000,5332.9726,N,00958.6275,E,1,07,1.1,6.4,M,46.0,M,,0000*59
$GPGSA,A,3,31,21,25,29,16,05,30,,,,,,2.4,1.1,2.2*38
$GPRMC,113842.000,A,5332.9726,N,00958.6275,E,0.91,247.93,160912,,,A*62
$GPGGA,113843.000,5332.9733,N,00958.6261,E,1,07,1.1,6.4,M,46.0,M,,0000*59
$GPGSA,A,3,31,21,25,29,16,05,30,,,,,,2.4,1.1,2.2*38
$GPRMC,113843.000,A,5332.9733,N,00958.6261,E,0.94,250.90,160912,,,A*62
$GPGGA,113844.000,5332.9740,N,00958.6247,E,1,07,1.1,6.2,M,46.0,M,,0000*58
$GPGSA,A,3,31,21,25,29,16,05,30,,,,,,2.4,1.1,2.2*38
$GPRMC,113844.000,A,5332.9740,N,00958.6247,E,1.06,275.04,160912,,,A*65
$GPGGA,113845.000,5332.9746,N,00958.6233,E,1,07,1.1,6.2,M,46.0,M,,0000*5C
$GPGSA,A,3,31,21,25,29,16,05,30,,,,,,2.4,1.1,2.2*38
$GPGSV,3,1,12,29,62,072,24,30,46,295,27,31,45,229,26,21,43,175,23*76
$GPGSV,3,2,12,25,36,128,30,05,20,064,23,16,18,298,33,23,09,315,*77
$GPGSV,3,3,12,13,07,347,18,02,06,040,23,06,04,256,26,10,04,014,17*76
$GPRMC,113845.000,A,5332.9746,N,00958.6233,E,0.99,241.80,160912,,,A*6D
$GPGGA,113846.000,5332.9754,N,00958.6220,E,1,07,1.1,6.2,M,46.0,M,,0000*5E
$GPGSA,A,3,31,21,25,29,16,05,30,,,,,,2.4,1.1,2.2*38
$GPRMC,113846.000,A,5332.9754,N,00958.6220,E,0.95,279.13,160912,,,A*62
$GPGGA,113847.000,5332.9763,N,00958.6206,E,1,07,1.1,6.2,M,46.0,M,,0000*5F
$GPGSA,A,3,31,21,25,29,16,05,30,,,,,,2.4,1.1,2.2*38
$GPRMC,113847.000,A,5332.9763,N,00958.6206,E,1.48,298.34,160912,,,A*68
$GPGGA,113848.000,5332.9771,N,00958.6194,E,1,07,1.1,6.3,M,46.0,M,,0000*5A
$GPGSA,A,3,31,21,25,29,16,05,30,,,,,,2.4,1.1,2.2*38
$GPRMC,113848.000,A,5332.9771,N,00958.6194,E,1.00,306.55,160912,,,A*61
$GPGGA,113849.000,5332.9777,N,00958.6184,E,1,07,1.1,6.4,M,46.0,M,,0000*5B
$GPGSA,A,3,31,21,25,29,16,05,30,,,,,,2.4,1.1,2.2*38
$GPRMC,113851.000,A,5332.9786,N,00958.6159,E,1.09,265.29,160912,,,A*66
$GPGGA,113852.000,5332.9791,N,00958.6144,E,1,07,1.1,6.6,M,46.0,M,,0000*57
$GPGSA,A,3,31,21,25,29,16,05,30,,,,,,2.4,1.1,2.2*38
$GPRMC,113852.000,A,5332.9791,N,00958.6144,E,1.31,289.59,160912,,,A*61
$GPGGA,113853.000,5332.9796,N,00958.6130,E,1,07,1.1,6.6,M,46.0,M,,0000*52
$GPGSA,A,3,31,21,25,29,16,05,30,,,,,,2.4,1.1,2.2*38
$GPRMC,113853.000,A,5332.9796,N,00958.6130,E,1.14,288.16,160912,,,A*69
$GPGGA,113854.000,5332.9800,N,00958.6120,E,1,07,1.1,6.7,M,46.0,M,,0000*55
$GPGSA,A,3,31,21,25,29,16,05,30,,,,,,2.4,1.1,2.2*38
$GPRMC,113857.000,A,5332.9815,N,00958.6093,E,1.20,316.31,160912,,,A*65
$GPGGA,113858.000,5332.9817,N,00958.6083,E,1,07,1.1,7.7,M,46.0,M,,0000*56
$GPGSA,A,3,31,21,25,29,16,05,30,,,,,,2.4,1.1,2.2*38
$GPRMC,113908.000,A,5332.9827,N,00958.6004,E,1.44,333.52,160912,,,A*61
$GPGGA,113909.000,5332.9829,N,00958.5995,E,1,06,1.3,21.7,M,46.0,M,,0000*64
$GPGSA,A,3,31,25,29,16,05,30,,,,,,,2.5,1.3,2.2*38
$GPRMC,113910.000,A,5332.9831,N,00958.5984,E,1.12,282.14,160912,,,A*67
$GPGGA,113911.000,5332.9832,N,00958.5976,E,1,06,1.3,24.8,M,46.0,M,,0000*60
$GPGSA,A,3,31,25,29,16,05,30,,,,,,,2.5,1.3,2.2*38
$GPRMC,113914.000,A,5332.9833,N,00958.5951,E,1.37,224.25,160912,,,A*60
$GPGGA,113915.000,5332.9835,N,00958.5941,E,1,06,1.3,30.7,M,46.0,M,,0000*6D
$GPGSA,A,3,31,25,29,16,05,30,,,,,,,2.5,1.3,2.2*38
$GPGSV,3,1,12,29,62,072,24,30,46,295,29,31,45,229,28,21,43,175,*77
$GPGSV,3,2,12,25,36,128,26,05,20,064,20,16,18,298,33,23,09,315,28*79
$GPGSV,3,3,12,13,07,347,21,02,06,040,17,06,04,256,23,10,04,014,16*7F
$GPRMC,113915.000,A,5332.9835,N,00958.5941,E,1.08,258.81,160912,,,A*6F
$GPGGA,113916.000,5332.9837,N,00958.5930,E,1,06,1.3,32.3,M,46.0,M,,0000*6C
$GPGSA,A,3,31,25,29,16,05,30,,,,,,,2.5,1.3,2.2*38
$GPRMC,113916.000,A,5332.9837,N,00958.5930,E,1.09,269.71,160912,,,A*64
$GPGGA,113917.000,5332.9839,N,00958.5925,E,1,06,1.3,33.6,M,46.0,M,,0000*63
$GPGSA,A,3,31,25,29,16,05,30,,,,,,,2.5,1.3,2.2*38
$GPRMC,113918.000,A,5332.9839,N,00958.5915,E,1.12,250.76,160912,,,A*64
$GPGGA,113919.000,5332.9841,N,00958.5904,E,1,06,1.3,35.8,M,46.0,M,,0000*69
$GPGSA,A,3,31,25,29,16,05,30,,,,,,,2.5,1.3,2.2*38
$GPRMC,113919.000,A,5332.9841,N,00958.5904,E,1.28,262.71,160912,,,A*65
$GPGGA,113920.000,5332.9847,N,00958.5891,E,1,06,1.3,36.9,M,46.0,M,,0000*6A
$GPGSA,A,3,31,25,29,16,05,30,,,,,,,2.5,1.3,2.2*38
$GPGSV,3,1,12,29,62,072,25,30,46,295,29,31,45,229,26,21,43,175,*78
$GPGSV,3,2,12,25,36,128,26,05,20,064,25,16,18,298,34,23,09,315,27*74
$GPGSV,3,3,12,13,07,347,22,02,06,040,17,06,04,256,24,10,04,014,15*78
$GPRMC,113920.000,A,5332.9847,N,00958.5891,E,2.24,313.14,160912,,,A*6F
$GPGGA,113921.000,5332.9852,N,00958.5879,E,1,06,1.3,38.2,M,46.0,M,,0000*6C
$GPGSA,A,3,31,25,29,16,05,30,,,,,,,2.5,1.3,2.2*38
$GPRMC,113921.000,A,5332.9852,N,00958.5879,E,1.76,310.34,160912,,,A*69
$GPGGA,113922.000,5332.9853,N,00958.5872,E,1,06,1.3,39.6,M,46.0,M,,0000*60
$GPGSA,A,3,31,25,29,16,05,30,,,,,,,2.5,1.3,2.2*38
$GPRMC,113923.000,A,5332.9850,N,00958.5863,E,1.57,209.54,160912,,,A*6E
$GPGGA,113924.000,5332.9849,N,00958.5852,E,1,06,1.3,40.3,M,46.0,M,,0000*64
$GPGSA,A,3,31,25,29,16,05,30,,,,,,,2.5,1.3,2.2*38
$GPRMC,113924.000,A,5332.9849,N,00958.5852,E,1.09,244.40,160912,,,A*64
$GPGGA,113925.000,5332.9847,N,00958.5844,E,1,07,1.1,39.7,M,46.0,M,,0000*65
$GPGSA,A,3,31,25,21,29,16,05,30,,,,,,2.4,1.1,2.2*38
$GPGSV,3,1,12,29,62,072,25,30,46,295,25,31,45,229,26,21,43,175,33*74
$GPGSV,3,2,12,25,36,128,26,05,20,064,22,16,18,298,34,23,09,315,*76
$GPGSV,3,3,12,13,07,347,28,02,06,040,17,06,04,256,24,10,04,014,15*72
$GPRMC,113925.000,A,5332.9847,N,00958.5844,E,0.94,227.65,160912,,,A*6B
$GPGGA,113926.000,5332.9846,N,00958.5835,E,1,07,1.1,39.2,M,46.0,M,,0000*64
$GPGSA,A,3,31,25,21,29,16,05,30,,,,,,2.4,1.1,2.2*38
$GPRMC,113926.000,A,5332.9846,N,00958.5835,E,1.01,238.73,160912,,,A*6B
$GPGGA,113927.000,5332.9846,N,00958.5826,E,1,07,1.1,38.6,M,46.0,M,,0000*62
$GPGSA,A,3,31,25,21,29,16,05,30,,,,,,2.4,1.1,2.2*38
$GPRMC,113927.000,A,5332.9846,N,00958.5826,E,0.90,262.35,160912,,,A*6C
$GPGGA,113928.000,5332.9846,N,00958.5816,E,1,06,1.2,37.6,M,46.0,M,,0000*63
$GPGSA,A,3,25,21,29,16,05,30,,,,,,,2.5,1.2,2.2*38
$GPRMC,113928.000,A,5332.9846,N,00958.5816,E,0.99,269.42,160912,,,A*62
$GPGGA,113929.000,5332.9846,N,00958.5806,E,1,05,1.4,36.4,M,46.0,M,,0000*65
$GPGSA,A,3,25,21,29,16,05,,,,,,,,2.8,1.4,2.5*37
$GPRMC,113929.000,A,5332.9846,N,00958.5806,E,1.22,267.67,160912,,,A*6A
$GPGGA,113930.000,5332.9847,N,00958.5795,E,1,05,1.4,34.8,M,46.0,M,,0000*67
$GPGSA,A,3,25,21,29,16,05,,,,,,,,2.8,1.4,2.5*37
$GPGSV,3,1,12,29,62,072,26,30,46,295,,31,45,229,,21,43,175,24*72
$GPGSV,3,2,12,25,36,128,25,05,20,064,23,16,18,298,34,23,09,315,20*76
$GPGSV,3,3,12,13,07,347,26,02,06,040,17,06,04,256,23,10,04,014,17*79
$GPRMC,113930.000,A,5332.9847,N,00958.5795,E,1.23,292.02,160912,,,A*6E
$GPGGA,113931.000,5332.9847,N,00958.5788,E,1,05,1.4,32.8,M,46.0,M,,0000*6C
$GPGSA,A,3,25,21,29,16,05,,,,,,,,2.8,1.4,2.5*37
$GPRMC,113932.000,A,5332.9848,N,00958.5779,E,1.10,285.60,160912,,,A*63
$GPGGA,113933.000,5332.9846,N,00958.5768,E,1,06,1.2,29.0,M,46.0,M,,0000*66
$GPGSA,A,3,25,21,29,16,05,30,,,,,,,2.5,1.2,2.2*38
$GPRMC,113933.000,A,5332.9846,N,00958.5768,E,1.42,248.81,160912,,,A*65
$GPGGA,113934.000,5332.9844,N,00958.5760,E,1,06,1.2,27.8,M,46.0,M,,0000*6D
$GPGSA,A,3,25,21,29,16,05,30,,,,,,,2.5,1.2,2.2*38
$GPRMC,113934.000,A,5332.9844,N,00958.5760,E,1.10,213.80,160912,,,A*60
$GPGGA,113935.000,5332.9844,N,00958.5753,E,1,05,1.6,27.0,M,46.0,M,,0000*63
$GPGSA,A,3,25,21,16,05,30,,,,,,,,3.9,1.6,3.6*3F
$GPGSV,3,1,12,29,62,072,,30,46,295,28,31,45,229,,21,43,175,25*7D
$GPGSV,3,2,12,25,36,128,26,05,20,064,27,16,18,298,33,23,09,315,24*72
$GPGSV,3,3,12,13,07,347,26,02,06,040,17,06,04,256,23,10,04,014,17*79
$GPRMC,113948.000,A,5332.9855,N,00958.5723,E,0.93,329.01,160912,,,A*67
$GPGGA,113949.000,5332.9858,N,00958.5721,E,1,06,1.5,34.0,M,46.0,M,,0000*62
$GPGSA,A,3,25,21,31,16,05,30,,,,,,,3.9,1.5,3.6*3E
$GPRMC,113949.000,A,5332.9858,N,00958.5721,E,1.23,339.58,160912,,,A*6E
$GPGGA,113950.000,5332.9859,N,00958.5721,E,1,06,1.5,34.7,M,46.0,M,,0000*6C
$GPGSA,A,3,25,21,31,16,05,30,,,,,,,3.9,1.5,3.6*3E
$GPGSV,3,1,12,29,62,072,,30,46,295,27,31,45,229,28,21,43,175,27*7A
$GPGSV,3,2,12,25,36,128,32,05,20,064,33,16,18,298,31,23,09,315,27*73
$GPGSV,3,3,12,13,07,347,22,02,06,040,18,06,04,256,24,10,04,014,16*74
$GPRMC,113951.000,A,5332.9862,N,00958.5716,E,0.92,296.46,160912,,,A*6A
$GPGGA,113952.000,5332.9869,N,00958.5713,E,1,06,1.5,35.9,M,46.0,M,,0000*63
$GPGSA,A,3,25,21,31,16,05,30,,,,,,,3.9,1.5,3.6*3E
$GPRMC,113952.000,A,5332.9869,N,00958.5713,E,2.18,346.86,160912,,,A*67
$GPGGA,113953.000,5332.9874,N,00958.5709,E,1,06,1.5,36.7,M,46.0,M,,0000*68
$GPGSA,A,3,25,21,31,16,05,30,,,,,,,3.9,1.5,3.6*3E
$GPRMC,113953.000,A,5332.9874,N,00958.5709,E,1.34,329.03,160912,,,A*68
$GPGGA,113954.000,5332.9878,N,00958.5704,E,1,06,1.5,37.5,M,46.0,M,,0000*6D
$GPGSA,A,3,25,21,31,16,05,30,,,,,,,3.9,1.5,3.6*3E
$GPRMC,113954.000,A,5332.9878,N,00958.5704,E,0.86,307.70,160912,,,A*6E
$GPGGA,113955.000,5332.9884,N,00958.5695,E,1,07,1.1,38.3,M,46.0,M,,0000*6A
$GPGSA,A,3,29,25,21,31,16,05,30,,,,,,2.4,1.1,2.2*38
$GPGSV,3,1,12,29,62,072,22,30,46,295,27,31,45,229,27,21,43,175,26*74
$GPGSV,3,2,12,25,36,128,28,05,20,064,35,16,18,298,31,23,09,315,26*7F
$GPGSV,3,3,12,13,07,347,22,02,06,040,22,06,04,256,,10,04,014,16*7B
$GPRMC,113955.000,A,5332.9884,N,00958.5695,E,1.83,305.80,160912,,,A*6C
$GPGGA,113956.000,5332.9889,N,00958.5689,E,1,07,1.1,39.3,M,46.0,M,,0000*68
$GPGSA,A,3,29,25,21,31,16,05,30,,,,,,2.4,1.1,2.2*38
$GPRMC,113956.000,A,5332.9889,N,00958.5689,E,1.08,317.73,160912,,,A*63
$GPGGA,113957.000,5332.9894,N,00958.5686,E,1,07,1.1,40.2,M,46.0,M,,0000*65
$GPGSA,A,3,29,25,21,31,16,05,30,,,,,,2.4,1.1,2.2*38
$GPRMC,113957.000,A,5332.9894,N,00958.5686,E,1.05,347.14,160912,,,A*68
$GPGGA,113958.000,5332.9900,N,00958.5686,E,1,07,1.1,41.0,M,46.0,M,,0000*65
$GPGSA,A,3,29,25,21,31,16,05,30,,,,,,2.4,1.1,2.2*38
$GPRMC,113958.000,A,5332.9900,N,00958.5686,E,1.30,23.15,160912,,,A*5D
$GPGGA,113959.000,5332.9905,N,00958.5685,E,1,07,1.1,41.9,M,46.0,M,,0000*6B
$GPGSA,A,3,29,25,21,31,16,05,30,,,,,,2.4,1.1,2.2*38
$GPRMC,113959.000,A,5332.9905,N,00958.5685,E,1.03,25.97,160912,,,A*56
$GPGGA,114000.000,5332.9906,N,00958.5679,E,1,07,1.1,42.7,M,46.0,M,,0000*64
$GPGSA,A,3,29,25,21,31,16,05,30,,,,,,2.4,1.1,2.2*38
$GPGSV,3,1,12,29,62,072,25,30,46,295,27,31,45,229,25,21,43,175,26*71
$GPGSV,3,2,12,25,36,128,24,05,20,064,38,16,18,298,32,23,09,315,26*7D
$GPGSV,3,3,12,13,07,347,23,02,06,040,23,06,04,256,,10,04,014,16*7B
$GPRMC,114001.000,A,5332.9908,N,00958.5672,E,0.93,295.72,160912,,,A*6A
$GPGGA,114002.000,5332.9910,N,00958.5667,E,1,07,1.1,43.8,M,46.0,M,,0000*60
$GPGSA,A,3,29,25,21,31,16,05,30,,,,,,2.4,1.1,2.2*38
$GPRMC,114005.000,A,5332.9908,N,00958.5643,E,1.17,234.57,160912,,,A*6D
$GPGGA,114006.000,5332.9906,N,00958.5634,E,1,07,1.1,42.6,M,46.0,M,,0000*6A
$GPGSA,A,3,29,25,21,31,16,05,30,,,,,,2.5,1.1,2.2*39
$GPRMC,114006.000,A,5332.9906,N,00958.5634,E,1.02,248.76,160912,,,A*6C
$GPGGA,114007.000,5332.9904,N,00958.5627,E,1,07,1.1,41.9,M,46.0,M,,0000*67
$GPGSA,A,3,29,25,21,31,16,05,30,,,,,,2.5,1.1,2.2*39
$GPRMC,114008.000,A,5332.9903,N,00958.5617,E,0.91,265.04,160912,,,A*67
$GPGGA,114009.000,5332.9902,N,00958.5609,E,1,07,1.1,40.4,M,46.0,M,,0000*6F
$GPGSA,A,3,29,25,21,31,16,05,30,,,,,,2.5,1.1,2.2*39
$GPRMC,114010.000,A,5332.9902,N,00958.5597,E,1.48,280.98,160912,,,A*6F
$GPGGA,114011.000,5332.9901,N,00958.5584,E,1,07,1.1,37.8,M,46.0,M,,0000*6F
$GPGSA,A,3,29,25,21,31,16,05,30,,,,,,2.5,1.1,2.2*39
$GPRMC,114011.000,A,5332.9901,N,00958.5584,E,1.47,273.95,160912,,,A*61
$GPGGA,114012.000,5332.9898,N,00958.5573,E,1,07,1.1,36.5,M,46.0,M,,0000*69
$GPGSA,A,3,29,25,21,31,16,05,30,,,,,,2.5,1.1,2.2*39
$GPRMC,114012.000,A,5332.9898,N,00958.5573,E,1.02,231.83,160912,,,A*6B
$GPGGA,114013.000,5332.9896,N,00958.5566,E,1,07,1.1,35.2,M,46.0,M,,0000*66
$GPGSA,A,3,29,25,21,31,16,05,30,,,,,,2.5,1.1,2.2*39
$GPRMC,114014.000,A,5332.9894,N,00958.5556,E,0.92,226.87,160912,,,A*6C
$GPGGA,114015.000,5332.9894,N,00958.5544,E,1,07,1.1,33.3,M,46.0,M,,0000*65
$GPGSA,A,3,29,25,21,31,16,05,30,,,,,,2.5,1.1,2.2*39
$GPGSV,3,1,12,29,62,072,27,30,46,295,27,31,45,229,24,21,43,175,26*72
$GPGSV,3,2,12,25,36,128,25,05,20,064,38,16,18,298,32,23,09,315,25*7F
$GPGSV,3,3,12,13,07,347,22,02,06,040,20,06,04,256,27,10,04,014,15*7F
$GPRMC,114015.000,A,5332.9894,N,00958.5544,E,1.16,283.29,160912,,,A*68
$GPGGA,114016.000,5332.9896,N,00958.5536,E,1,07,1.1,32.7,M,46.0,M,,0000*64
$GPGSA,A,3,29,25,21,31,16,05,30,,,,,,2.5,1.1,2.2*39
$GPRMC,114017.000,A,5332.9898,N,00958.5524,E,1.39,305.19,160912,,,A*61
$GPGGA,114018.000,5332.9900,N,00958.5513,E,1,06,1.3,31.0,M,46.0,M,,0000*64
$GPGSA,A,3,29,25,21,31,05,30,,,,,,,3.2,1.3,2.9*31
$GPRMC,114018.000,A,5332.9900,N,00958.5513,E,1.38,296.32,160912,,,A*69
$GPGGA,114019.000,5332.9900,N,00958.5501,E,1,07,1.1,29.8,M,46.0,M,,0000*64
$GPGSA,A,3,29,25,21,31,16,05,30,,,,,,2.5,1.1,2.2*39
$GPRMC,114019.000,A,5332.9900,N,00958.5501,E,1.24,264.53,160912,,,A*6C
$GPGGA,114020.000,5332.9898,N,00958.5490,E,1,06,1.3,28.7,M,46.0,M,,0000*6A
$GPGSA,A,3,29,25,21,31,05,30,,,,,,,3.2,1.3,2.9*31
$GPGSV,3,1,12,29,62,072,28,30,46,295,27,31,45,229,25,21,43,175,25*7F
$GPGSV,3,2,12,25,36,128,25,05,20,064,43,16,18,298,,23,09,315,28*7F
$GPGSV,3,3,12,13,07,347,22,02,06,040,19,06,04,256,23,10,04,014,15*71
$GPRMC,114020.000,A,5332.9898,N,00958.5490,E,1.31,243.31,160912,,,A*6A
$GPGGA,114021.000,5332.9897,N,00958.5481,E,1,07,1.1,27.2,M,46.0,M,,0000*6D
$GPGSA,A,3,29,25,21,31,16,05,30,,,,,,2.5,1.1,2.2*39
$GPRMC,114021.000,A,5332.9897,N,00958.5481,E,0.95,259.31,160912,,,A*60
$GPGGA,114022.000,5332.9893,N,00958.5473,E,1,07,1.1,25.4,M,46.0,M,,0000*63
$GPGSA,A,3,29,25,21,31,16,05,30,,,,,,2.5,1.1,2.2*39
$GPRMC,114022.000,A,5332.9893,N,00958.5473,E,1.12,199.49,160912,,,A*64
$GPGGA,114023.000,5332.9890,N,00958.5466,E,1,07,1.1,23.2,M,46.0,M,,0000*65
$GPGSA,A,3,29,25,21,31,16,05,30,,,,,,2.5,1.1,2.2*39
$GPRMC,114023.000,A,5332.9890,N,00958.5466,E,0.85,197.12,160912,,,A*6D
$GPGGA,114024.000,5332.9887,N,00958.5455,E,1,07,1.1,20.9,M,46.0,M,,0000*6C
$GPGSA,A,3,29,25,21,31,16,05,30,,,,,,2.5,1.1,2.2*39
$GPRMC,114024.000,A,5332.9887,N,00958.5455,E,1.55,227.17,160912,,,A*6D
$GPGGA,114025.000,5332.9884,N,00958.5445,E,1,07,1.1,18.4,M,46.0,M,,0000*69
$GPGSA,A,3,29,25,21,31,16,05,30,,,,,,2.5,1.1,2.2*39
$GPGSV,3,1,12,29,62,072,28,30,46,295,27,31,45,229,26,21,43,175,24*7D
$GPGSV,3,2,12,25,36,128,28,05,20,064,42,16,18,298,33,23,09,315,32*78
$GPGSV,3,3,12,13,07,347,22,02,06,040,,06,04,256,23,10,04,014,15*79
$GPRMC,114025.000,A,5332.9884,N,00958.5445,E,1.22,225.96,160912,,,A*65
$GPGGA,114026.000,5332.9883,N,00958.5432,E,1,07,1.1,16.2,M,46.0,M,,0000*65
$GPGSA,A,3,29,25,21,31,16,05,30,,,,,,2.5,1.1,2.2*39
$GPRMC,114026.000,A,5332.9883,N,00958.5432,E,1.38,250.90,160912,,,A*6E
$GPGGA,114027.000,5332.9882,N,00958.5421,E,1,07,1.1,14.3,M,46.0,M,,0000*64
$GPGSA,A,3,29,25,21,31,16,05,30,,,,,,2.5,1.1,2.2*39
$GPRMC,114027.000,A,5332.9882,N,00958.5421,E,1.26,239.10,160912,,,A*64
$GPGGA,114028.000,5332.9881,N,00958.5411,E,1,07,1.1,12.9,M,46.0,M,,0000*67
$GPGSA,A,3,29,25,21,31,16,05,30,,,,,,2.5,1.1,2.2*39
$GPRMC,114028.000,A,5332.9881,N,00958.5411,E,1.39,217.70,160912,,,A*6F
$GPGGA,114029.000,5332.9880,N,00958.5397,E,1,07,1.1,11.1,M,46.0,M,,0000*65
$GPGSA,A,3,29,25,21,31,16,05,30,,,,,,2.5,1.1,2.2*39
$GPRMC,114029.000,A,5332.9880,N,00958.5397,E,1.69,251.90,160912,,,A*6F
$GPGGA,114030.000,5332.9881,N,00958.5386,E,1,07,1.1,9.6,M,46.0,M,,0000*52
$GPGSA,A,3,29,25,21,31,16,05,30,,,,,,2.5,1.1,2.2*39
$GPGSV,3,1,12,29,62,072,24,30,46,295,27,31,45,229,26,21,43,175,24*71
$GPGSV,3,2,12,25,36,128,28,05,20,064,40,16,18,298,34,23,09,315,31*7E
$GPGSV,3,3,12,13,07,347,22,02,06,040,,06,04,256,30,10,04,014,14*7A
$GPRMC,114030.000,A,5332.9881,N,00958.5386,E,1.08,257.45,160912,,,A*6F
$GPGGA,114031.000,5332.9882,N,00958.5375,E,1,06,1.3,8.3,M,46.0,M,,0000*5B
$GPGSA,A,3,29,21,31,16,05,30,,,,,,,2.6,1.3,2.3*3E
$GPRMC,114031.000,A,5332.9882,N,00958.5375,E,1.03,259.66,160912,,,A*65
$GPGGA,114032.000,5332.9884,N,00958.5362,E,1,06,1.3,7.1,M,46.0,M,,0000*55
$GPGSA,A,3,29,21,31,16,05,30,,,,,,,2.6,1.3,2.3*3E
$GPRMC,114032.000,A,5332.9884,N,00958.5362,E,1.32,279.40,160912,,,A*62
$GPGGA,114033.000,5332.9882,N,00958.5351,E,1,07,1.1,5.9,M,46.0,M,,0000*5B
$GPGSA,A,3,25,29,21,31,16,05,30,,,,,,2.5,1.1,2.2*39
$GPRMC,114033.000,A,5332.9882,N,00958.5351,E,1.68,214.13,160912,,,A*67
$GPGGA,114034.000,5332.9880,N,00958.5342,E,1,07,1.1,5.1,M,46.0,M,,0000*54
$GPGSA,A,3,25,29,21,31,16,05,30,,,,,,2.5,1.1,2.2*39
$GPRMC,114034.000,A,5332.9880,N,00958.5342,E,1.31,207.06,160912,,,A*6A
$GPGGA,114035.000,5332.9882,N,00958.5332,E,1,05,1.6,4.5,M,46.0,M,,0000*50
$GPGSA,A,3,25,21,16,05,30,,,,,,,,3.9,1.6,3.6*3F
$GPGSV,3,1,12,29,61,073,27,30,48,295,35,21,45,174,24,31,44,227,*71
$GPGSV,3,2,12,25,35,128,26,05,20,063,41,16,19,299,35,23,09,314,28*7D
$GPGSV,3,3,12,13,07,346,22,06,06,257,,02,05,039,,10,03,013,14*76
$GPRMC,114036.000,A,5332.9881,N,00958.5320,E,1.41,235.44,160912,,,A*6D
$GPGGA,114037.000,5332.9882,N,00958.5305,E,1,07,1.1,2.9,M,46.0,M,,0000*59
$GPGSA,A,3,25,29,31,21,16,05,30,,,,,,2.5,1.1,2.2*39
$GPRMC,114037.000,A,5332.9882,N,00958.5305,E,1.82,266.74,160912,,,A*62
$GPGGA,114038.000,5332.9883,N,00958.5293,E,1,07,1.1,2.2,M,46.0,M,,0000*52
$GPGSA,A,3,25,29,31,21,16,05,30,,,,,,2.5,1.1,2.2*39
$GPRMC,114038.000,A,5332.9883,N,00958.5293,E,1.20,274.29,160912,,,A*61
$GPGGA,114039.000,5332.9885,N,00958.5283,E,1,07,1.1,1.6,M,46.0,M,,0000*53
$GPGSA,A,3,25,29,31,21,16,05,30,,,,,,2.5,1.1,2.2*39
$GPRMC,114039.000,A,5332.9885,N,00958.5283,E,0.99,293.42,160912,,,A*60
$GPGGA,114040.000,5332.9887,N,00958.5269,E,1,06,1.2,1.2,M,46.0,M,,0000*5D
$GPGSA,A,3,25,29,21,16,05,30,,,,,,,2.5,1.2,2.2*38
$GPGSV,3,1,12,29,61,073,31,30,48,295,35,21,45,174,31,31,44,227,*72
$GPGSV,3,2,12,25,35,128,27,05,20,063,43,16,19,299,31,23,09,314,30*73
$GPGSV,3,3,12,13,07,346,25,06,06,257,31,02,05,039,,10,03,013,13*74
$GPRMC,114040.000,A,5332.9887,N,00958.5269,E,1.77,277.85,160912,,,A*68
$GPGGA,114041.000,5332.9889,N,00958.5257,E,1,07,1.1,1.0,M,46.0,M,,0000*5F
$GPGSA,A,3,25,29,31,21,16,05,30,,,,,,2.5,1.1,2.2*39
$GPRMC,114041.000,A,5332.9889,N,00958.5257,E,1.48,296.98,160912,,,A*65
$GPGGA,114042.000,5332.9890,N,00958.5242,E,1,07,1.1,1.1,M,46.0,M,,0000*51
$GPGSA,A,3,25,29,31,21,16,05,30,,,,,,2.5,1.1,2.2*39
$GPRMC,114042.000,A,5332.9890,N,00958.5242,E,1.72,264.49,160912,,,A*62
$GPGGA,114043.000,5332.9891,N,00958.5226,E,1,07,1.1,1.2,M,46.0,M,,0000*50
$GPGSA,A,3,25,29,31,21,16,05,30,,,,,,2.5,1.1,2.2*39
$GPRMC,114043.000,A,5332.9891,N,00958.5226,E,2.15,279.68,160912,,,A*6D
$GPGGA,114044.000,5332.9894,N,00958.5211,E,1,07,1.1,1.8,M,46.0,M,,0000*5C
$GPGSA,A,3,25,29,31,21,16,05,30,,,,,,2.5,1.1,2.2*39
$GPRMC,114044.000,A,5332.9894,N,00958.5211,E,2.04,290.97,160912,,,A*6C
$GPGGA,114045.000,5332.9897,N,00958.5196,E,1,07,1.1,2.4,M,46.0,M,,0000*5D
$GPGSA,A,3,25,29,31,21,16,05,30,,,,,,2.5,1.1,2.2*39
$GPGSV,3,1,12,29,61,073,40,30,48,295,35,21,45,174,38,31,44,227,36*78
$GPGSV,3,2,12,25,35,128,28,05,20,063,43,16,19,299,32,23,09,314,30*7F
$GPGSV,3,3,12,13,07,346,26,06,06,257,29,02,05,039,,10,03,013,20*7E
$GPRMC,114045.000,A,5332.9897,N,00958.5196,E,2.07,297.66,160912,,,A*68
$GPGGA,114046.000,5332.9900,N,00958.5181,E,1,06,1.3,3.0,M,46.0,M,,0000*51
$GPGSA,A,3,29,31,21,16,05,30,,,,,,,2.6,1.3,2.3*3E
$GPRMC,114046.000,A,5332.9900,N,00958.5181,E,2.25,299.09,160912,,,A*65
$GPGGA,114047.000,5332.9902,N,00958.5167,E,1,07,1.1,3.7,M,46.0,M,,0000*5E
$GPGSA,A,3,29,31,21,16,05,25,30,,,,,,2.5,1.1,2.2*39
$GPRMC,114047.000,A,5332.9902,N,00958.5167,E,1.84,299.53,160912,,,A*69
$GPGGA,114048.000,5332.9905,N,00958.5152,E,1,07,1.1,4.6,M,46.0,M,,0000*56
$GPGSA,A,3,29,31,21,16,05,25,30,,,,,,2.5,1.1,2.2*39
$GPRMC,114048.000,A,5332.9905,N,00958.5152,E,2.11,290.76,160912,,,A*66
$GPGGA,114049.000,5332.9906,N,00958.5136,E,1,07,1.1,5.6,M,46.0,M,,0000*57
$GPGSA,A,3,29,31,21,16,05,25,30,,,,,,2.5,1.1,2.2*39
$GPRMC,114049.000,A,5332.9906,N,00958.5136,E,2.10,279.24,160912,,,A*67
$GPGGA,114050.000,5332.9907,N,00958.5121,E,1,07,1.1,6.6,M,46.0,M,,0000*5B
$GPGSA,A,3,29,31,21,16,05,25,30,,,,,,2.5,1.1,2.2*39
$GPGSV,3,1,12,29,61,073,33,30,48,295,35,21,45,174,38,31,44,227,32*78
$GPGSV,3,2,12,25,35,128,25,05,20,063,43,16,19,299,33,23,09,314,30*73
$GPGSV,3,3,12,13,07,346,18,06,06,257,29,02,05,039,,10,03,013,20*73
$GPRMC,114050.000,A,5332.9907,N,00958.5121,E,1.84,276.97,160912,,,A*61
$GPGGA,114051.000,5332.9909,N,00958.5107,E,1,07,1.1,7.7,M,46.0,M,,0000*50
$GPGSA,A,3,29,31,21,16,05,25,30,,,,,,2.5,1.1,2.2*39
$GPRMC,114051.000,A,5332.9909,N,00958.5107,E,1.75,283.31,160912,,,A*62
$GPGGA,114052.000,5332.9910,N,00958.5093,E,1,07,1.1,8.9,M,46.0,M,,0000*56
$GPGSA,A,3,29,31,21,16,05,25,30,,,,,,2.5,1.1,2.2*39
$GPRMC,114052.000,A,5332.9910,N,00958.5093,E,1.65,279.92,160912,,,A*68
$GPGGA,114053.000,5332.9912,N,00958.5081,E,1,07,1.1,10.0,M,46.0,M,,0000*66
$GPGSA,A,3,29,31,21,16,05,25,30,,,,,,2.5,1.1,2.2*39
$GPRMC,114053.000,A,5332.9912,N,00958.5081,E,1.60,287.07,160912,,,A*60
$GPGGA,114054.000,5332.9914,N,00958.5069,E,1,07,1.1,11.2,M,46.0,M,,0000*62
$GPGSA,A,3,29,31,21,16,05,25,30,,,,,,2.5,1.1,2.2*39
$GPRMC,114054.000,A,5332.9914,N,00958.5069,E,1.67,303.67,160912,,,A*6B
$GPGGA,114055.000,5332.9917,N,00958.5056,E,1,07,1.1,12.4,M,46.0,M,,0000*69
$GPGSA,A,3,29,31,21,16,05,25,30,,,,,,2.5,1.1,2.2*39
$GPGSV,3,1,12,29,61,073,42,30,48,295,36,21,45,174,31,31,44,227,33*75
$GPGSV,3,2,12,25,35,128,26,05,20,063,43,16,19,299,32,23,09,314,30*71
$GPGSV,3,3,12,13,07,346,22,06,06,257,24,02,05,039,,10,03,013,15*71
$GPRMC,114055.000,A,5332.9917,N,00958.5056,E,1.65,295.06,160912,,,A*6E
$GPGGA,114056.000,5332.9919,N,00958.5043,E,1,07,1.1,13.5,M,46.0,M,,0000*60
$GPGSA,A,3,29,31,21,16,05,25,30,,,,,,2.5,1.1,2.2*39
$GPRMC,114056.000,A,5332.9919,N,00958.5043,E,1.86,293.23,160912,,,A*6B
$GPGGA,114057.000,5332.9919,N,00958.5029,E,1,07,1.1,14.3,M,46.0,M,,0000*6C
$GPGSA,A,3,29,31,21,16,05,25,30,,,,,,2.5,1.1,2.2*39
$GPRMC,114057.000,A,5332.9919,N,00958.5029,E,1.96,287.72,160912,,,A*66
$GPGGA,114058.000,5332.9919,N,00958.5015,E,1,06,1.2,15.1,M,46.0,M,,0000*6D
$GPGSA,A,3,29,21,16,05,25,30,,,,,,,2.5,1.2,2.2*38
$GPRMC,114058.000,A,5332.9919,N,00958.5015,E,1.95,280.14,160912,,,A*62
$GPGGA,114059.000,5332.9917,N,00958.5000,E,1,07,1.1,15.7,M,46.0,M,,0000*62
$GPGSA,A,3,31,29,21,16,05,25,30,,,,,,2.5,1.1,2.2*39
$GPRMC,114059.000,A,5332.9917,N,00958.5000,E,2.14,277.21,160912,,,A*6D
$GPGGA,114100.000,5332.9915,N,00958.4985,E,1,07,1.1,16.3,M,46.0,M,,0000*6F
$GPGSA,A,3,31,29,21,16,05,25,30,,,,,,2.5,1.1,2.2*39
$GPGSV,3,1,12,29,61,073,38,30,48,295,36,21,45,174,42,31,44,227,30*7F
$GPGSV,3,2,12,25,35,128,26,05,20,063,50,16,19,299,33,23,09,314,30*72
$GPGSV,3,3,12,13,07,346,23,06,06,257,29,02,05,039,,10,03,013,15*7D
$GPRMC,114100.000,A,5332.9915,N,00958.4985,E,2.03,276.87,160912,,,A*6C
$GPGGA,114101.000,5332.9912,N,00958.4972,E,1,07,1.1,16.9,M,46.0,M,,0000*6B
$GPGSA,A,3,31,29,21,16,05,25,30,,,,,,2.5,1.1,2.2*39
$GPRMC,114101.000,A,5332.9912,N,00958.4972,E,1.70,268.87,160912,,,A*6A
$GPGGA,114102.000,5332.9908,N,00958.4958,E,1,07,1.1,17.3,M,46.0,M,,0000*60
$GPGSA,A,3,31,29,21,16,05,25,30,,,,,,2.5,1.1,2.2*39
$GPRMC,114102.000,A,5332.9908,N,00958.4958,E,2.08,269.57,160912,,,A*6A
$GPGGA,114103.000,5332.9903,N,00958.4944,E,1,07,1.1,17.8,M,46.0,M,,0000*6C
$GPGSA,A,3,31,29,21,16,05,25,30,,,,,,2.5,1.1,2.2*39
$GPRMC,114103.000,A,5332.9903,N,00958.4944,E,2.06,254.80,160912,,,A*67
$GPGGA,114104.000,5332.9898,N,00958.4931,E,1,07,1.1,18.1,M,46.0,M,,0000*6C
$GPGSA,A,3,31,29,21,16,05,25,30,,,,,,2.5,1.1,2.2*39
$GPRMC,114104.000,A,5332.9898,N,00958.4931,E,2.00,263.85,160912,,,A*66
$GPGGA,114105.000,5332.9893,N,00958.4918,E,1,07,1.1,18.4,M,46.0,M,,0000*68
$GPGSA,A,3,31,29,21,16,05,25,30,,,,,,2.5,1.1,2.2*39
$GPGSV,3,1,12,29,61,073,33,30,48,295,37,21,45,174,34,31,44,227,31*75
$GPGSV,3,2,12,25,35,128,39,05,20,063,51,16,19,299,32,23,09,314,31*7D
$GPGSV,3,3,12,13,07,346,23,06,06,257,28,02,05,039,,10,03,013,15*7C
$GPRMC,114105.000,A,5332.9893,N,00958.4918,E,2.19,265.46,160912,,,A*66
$GPGGA,114106.000,5332.9889,N,00958.4905,E,1,06,1.2,18.8,M,46.0,M,,0000*62
$GPGSA,A,3,29,21,16,05,25,30,,,,,,,2.5,1.2,2.2*38
$GPRMC,114106.000,A,5332.9889,N,00958.4905,E,2.01,269.65,160912,,,A*66
$GPGGA,114107.000,5332.9885,N,00958.4894,E,1,07,1.1,19.3,M,46.0,M,,0000*6E
$GPGSA,A,3,31,29,21,16,05,25,30,,,,,,2.5,1.1,2.2*39
$GPRMC,114107.000,A,5332.9885,N,00958.4894,E,1.82,270.50,160912,,,A*64
$GPGGA,114108.000,5332.9881,N,00958.4882,E,1,07,1.1,19.8,M,46.0,M,,0000*69
$GPGSA,A,3,31,29,21,16,05,25,30,,,,,,2.5,1.1,2.2*39
$GPRMC,114108.000,A,5332.9881,N,00958.4882,E,1.90,267.70,160912,,,A*6F
$GPGGA,114109.000,5332.9875,N,00958.4871,E,1,07,1.1,20.1,M,46.0,M,,0000*6C
$GPGSA,A,3,31,29,21,16,05,25,30,,,,,,2.5,1.1,2.2*39
$GPRMC,114109.000,A,5332.9875,N,00958.4871,E,1.91,264.08,160912,,,A*64
$GPGGA,114110.000,5332.9871,N,00958.4860,E,1,07,1.1,20.4,M,46.0,M,,0000*65
$GPGSA,A,3,31,29,21,16,05,25,30,,,,,,2.5,1.1,2.2*39
$GPGSV,3,1,12,29,61,073,33,30,48,295,38,21,45,174,37,31,44,227,34*7C
$GPGSV,3,2,12,25,35,128,36,05,20,063,50,16,20,299,33,23,09,314,37*7E
$GPGSV,3,3,12,13,07,346,22,06,06,257,25,02,05,039,,10,03,013,14*71
$GPRMC,114110.000,A,5332.9871,N,00958.4860,E,1.88,268.09,160912,,,A*6D
$GPGGA,114111.000,5332.9866,N,00958.4849,E,1,07,1.1,20.5,M,46.0,M,,0000*68
$GPGSA,A,3,31,29,21,16,05,25,30,,,,,,2.5,1.1,2.2*39
$GPRMC,114111.000,A,5332.9866,N,00958.4849,E,1.85,265.68,160912,,,A*66
$GPGGA,114112.000,5332.9860,N,00958.4839,E,1,07,1.1,20.7,M,46.0,M,,0000*68
$GPGSA,A,3,31,29,21,16,05,25,30,,,,,,2.5,1.1,2.2*39
$GPRMC,114112.000,A,5332.9860,N,00958.4839,E,1.78,261.68,160912,,,A*62
$GPGGA,114113.000,5332.9855,N,00958.4828,E,1,07,1.1,20.9,M,46.0,M,,0000*61
$GPGSA,A,3,31,29,21,16,05,25,30,,,,,,2.5,1.1,2.2*39
$GPRMC,114113.000,A,5332.9855,N,00958.4828,E,1.83,256.92,160912,,,A*60
$GPGGA,114114.000,5332.9849,N,00958.4817,E,1,07,1.1,21.1,M,46.0,M,,0000*6E
$GPGSA,A,3,31,29,21,16,05,25,30,,,,,,2.5,1.1,2.2*39
$GPRMC,114114.000,A,5332.9849,N,00958.4817,E,1.95,256.86,160912,,,A*64
$GPGGA,114115.000,5332.9845,N,00958.4806,E,1,07,1.1,21.4,M,46.0,M,,0000*66
$GPGSA,A,3,31,29,21,16,05,25,30,,,,,,2.5,1.1,2.2*39
$GPGSV,3,1,12,29,61,073,34,30,48,295,38,21,45,174,33,31,44,227,33*78
$GPGSV,3,2,12,25,35,128,31,05,20,063,49,16,20,299,33,23,09,314,32*74
$GPGSV,3,3,12,13,07,346,21,06,06,257,26,02,05,039,,10,03,013,14*71
$GPRMC,114115.000,A,5332.9845,N,00958.4806,E,1.96,266.05,160912,,,A*62
$GPGGA,114116.000,5332.9841,N,00958.4794,E,1,07,1.1,21.6,M,46.0,M,,0000*67
$GPGSA,A,3,31,29,21,16,05,25,30,,,,,,2.5,1.1,2.2*39
$GPRMC,114116.000,A,5332.9841,N,00958.4794,E,2.06,273.61,160912,,,A*6D
$GPGGA,114117.000,5332.9838,N,00958.4783,E,1,06,1.3,21.7,M,46.0,M,,0000*6C
$GPGSA,A,3,31,29,21,05,25,30,,,,,,,3.2,1.3,2.9*31
$GPRMC,114117.000,A,5332.9838,N,00958.4783,E,2.01,273.88,160912,,,A*64
$GPGGA,114118.000,5332.9835,N,00958.4771,E,1,07,1.1,21.8,M,46.0,M,,0000*6F
$GPGSA,A,3,31,29,21,16,05,25,30,,,,,,2.5,1.1,2.2*39
$GPRMC,114118.000,A,5332.9835,N,00958.4771,E,1.98,277.59,160912,,,A*60
$GPGGA,114119.000,5332.9831,N,00958.4759,E,1,07,1.1,21.8,M,46.0,M,,0000*60
$GPGSA,A,3,31,29,21,16,05,25,30,,,,,,2.5,1.1,2.2*39
$GPRMC,114119.000,A,5332.9831,N,00958.4759,E,2.26,271.79,160912,,,A*6D
$GPGGA,114120.000,5332.9826,N,00958.4747,E,1,07,1.1,21.6,M,46.0,M,,0000*6D
$GPGSA,A,3,31,29,21,16,05,25,30,,,,,,2.5,1.1,2.2*39
$GPGSV,3,1,12,29,61,073,33,30,48,295,38,21,45,174,36,31,44,227,30*79
$GPGSV,3,2,12,25,35,128,35,05,20,063,48,16,20,299,36,23,09,314,29*7E
$GPGSV,3,3,12,13,07,346,21,06,06,257,24,02,05,039,,10,03,013,14*73
$GPRMC,114120.000,A,5332.9826,N,00958.4747,E,2.04,273.05,160912,,,A*67
$GPGGA,114121.000,5332.9822,N,00958.4736,E,1,07,1.1,21.2,M,46.0,M,,0000*6A
$GPGSA,A,3,31,29,21,16,05,25,30,,,,,,2.5,1.1,2.2*39
$GPRMC,114121.000,A,5332.9822,N,00958.4736,E,2.02,274.60,160912,,,A*66
$GPGGA,114122.000,5332.9817,N,00958.4725,E,1,07,1.1,20.8,M,46.0,M,,0000*66
$GPGSA,A,3,31,29,21,16,05,25,30,,,,,,2.5,1.1,2.2*39
$GPRMC,114122.000,A,5332.9817,N,00958.4725,E,2.07,270.04,160912,,,A*62
$GPGGA,114123.000,5332.9812,N,00958.4714,E,1,07,1.1,20.2,M,46.0,M,,0000*6A
$GPGSA,A,3,31,29,21,16,05,25,30,,,,,,2.5,1.1,2.2*39
$GPRMC,114123.000,A,5332.9812,N,00958.4714,E,2.05,270.44,160912,,,A*62
$GPGGA,114124.000,5332.9806,N,00958.4703,E,1,07,1.1,19.6,M,46.0,M,,0000*60
$GPGSA,A,3,31,29,21,16,05,25,30,,,,,,2.5,1.1,2.2*39
$GPRMC,114124.000,A,5332.9806,N,00958.4703,E,1.96,269.18,160912,,,A*6E
$GPGGA,114125.000,5332.9801,N,00958.4691,E,1,07,1.1,18.9,M,46.0,M,,0000*62
$GPGSA,A,3,31,29,21,16,05,25,30,,,,,,2.5,1.1,2.2*39
$GPGSV,3,1,12,29,61,073,34,30,48,295,37,21,45,174,40,31,44,227,31*71
$GPGSV,3,2,12,25,35,128,32,05,20,063,48,16,20,299,35,23,09,314,30*72
$GPGSV,3,3,12,13,07,346,20,06,06,257,22,02,05,039,,10,03,013,14*74
$GPRMC,114125.000,A,5332.9801,N,00958.4691,E,2.17,272.97,160912,,,A*65
$GPGGA,114126.000,5332.9796,N,00958.4681,E,1,07,1.1,18.5,M,46.0,M,,0000*6D
$GPGSA,A,3,31,29,21,16,05,25,30,,,,,,2.5,1.1,2.2*39
$GPRMC,114126.000,A,5332.9796,N,00958.4681,E,1.99,277.68,160912,,,A*66
$GPGGA,114127.000,5332.9792,N,00958.4670,E,1,07,1.1,18.2,M,46.0,M,,0000*61
$GPGSA,A,3,31,29,21,16,05,25,30,,,,,,2.5,1.1,2.2*39
$GPRMC,114127.000,A,5332.9792,N,00958.4670,E,2.15,282.15,160912,,,A*6A
$GPGGA,114128.000,5332.9788,N,00958.4658,E,1,07,1.1,18.0,M,46.0,M,,0000*6D
$GPGSA,A,3,31,29,21,16,05,25,30,,,,,,2.5,1.1,2.2*39
$GPRMC,114128.000,A,5332.9788,N,00958.4658,E,2.16,278.50,160912,,,A*63
$GPGGA,114129.000,5332.9783,N,00958.4647,E,1,07,1.1,17.8,M,46.0,M,,0000*6E
$GPGSA,A,3,31,29,21,16,05,25,30,,,,,,2.5,1.1,2.2*39
$GPRMC,114129.000,A,5332.9783,N,00958.4647,E,2.01,271.74,160912,,,A*6E
$GPGGA,114130.000,5332.9779,N,00958.4637,E,1,07,1.1,17.6,M,46.0,M,,0000*6A
$GPGSA,A,3,31,29,21,16,05,25,30,,,,,,2.5,1.1,2.2*39
$GPGSV,3,1,12,29,61,073,40,30,48,295,37,21,45,174,33,31,44,227,31*76
$GPGSV,3,2,12,25,35,128,32,05,20,063,50,16,20,299,35,23,09,314,30*7B
$GPGSV,3,3,12,13,07,346,19,06,06,257,22,02,05,039,,10,03,013,14*7E
$GPRMC,114130.000,A,5332.9779,N,00958.4637,E,1.86,278.64,160912,,,A*60
$GPGGA,114131.000,5332.9776,N,00958.4626,E,1,07,1.1,17.4,M,46.0,M,,0000*66
$GPGSA,A,3,31,29,21,16,05,25,30,,,,,,2.5,1.1,2.2*39
$GPRMC,114131.000,A,5332.9776,N,00958.4626,E,1.97,281.44,160912,,,A*6A
$GPGGA,114132.000,5332.9772,N,00958.4614,E,1,07,1.1,17.2,M,46.0,M,,0000*66
$GPGSA,A,3,31,29,21,16,05,25,30,,,,,,2.5,1.1,2.2*39
$GPRMC,114132.000,A,5332.9772,N,00958.4614,E,2.21,280.03,160912,,,A*60
$GPGGA,114133.000,5332.9769,N,00958.4601,E,1,07,1.1,17.0,M,46.0,M,,0000*6B
$GPGSA,A,3,31,29,21,16,05,25,30,,,,,,2.5,1.1,2.2*39
$GPRMC,114133.000,A,5332.9769,N,00958.4601,E,2.49,276.23,160912,,,A*6A
$GPGGA,114134.000,5332.9766,N,00958.4589,E,1,07,1.1,16.8,M,46.0,M,,0000*69
$GPGSA,A,3,31,29,21,16,05,25,30,,,,,,2.5,1.1,2.2*39
$GPRMC,114134.000,A,5332.9766,N,00958.4589,E,2.22,282.38,160912,,,A*6D
$GPGGA,114135.000,5332.9763,N,00958.4577,E,1,06,1.3,16.7,M,46.0,M,,0000*60
$GPGSA,A,3,31,29,16,05,25,30,,,,,,,2.5,1.3,2.2*38
$GPGSV,3,1,12,29,61,073,32,30,48,295,37,21,45,174,,31,44,227,32*70
$GPGSV,3,2,12,25,35,128,32,05,20,063,50,16,20,299,35,23,09,314,35*7E
$GPGSV,3,3,12,13,07,346,20,06,06,257,24,02,05,039,,10,03,013,14*72
$GPRMC,114135.000,A,5332.9763,N,00958.4577,E,2.12,272.01,160912,,,A*6E
$GPGGA,114136.000,5332.9760,N,00958.4567,E,1,07,1.1,16.6,M,46.0,M,,0000*63
$GPGSA,A,3,31,29,21,16,05,25,30,,,,,,2.5,1.1,2.2*39
$GPRMC,114136.000,A,5332.9760,N,00958.4567,E,1.78,275.01,160912,,,A*67
$GPGGA,114137.000,5332.9756,N,00958.4558,E,1,07,1.1,16.7,M,46.0,M,,0000*6A
$GPGSA,A,3,31,29,21,16,05,25,30,,,,,,2.5,1.1,2.2*39
$GPRMC,114137.000,A,5332.9756,N,00958.4558,E,1.35,261.55,160912,,,A*62
$GPGGA,114138.000,5332.9752,N,00958.4550,E,1,07,1.1,16.6,M,46.0,M,,0000*68
$GPGSA,A,3,31,29,21,16,05,25,30,,,,,,2.5,1.1,2.2*39
$GPRMC,114138.000,A,5332.9752,N,00958.4550,E,1.37,271.24,160912,,,A*64
$GPGGA,114139.000,5332.9749,N,00958.4546,E,1,07,1.1,16.6,M,46.0,M,,0000*64
$GPGSA,A,3,31,29,21,16,05,25,30,,,,,,2.5,1.1,2.2*39
$GPRMC,114142.000,A,5332.9738,N,00958.4532,E,1.17,260.97,160912,,,A*6B
$GPGGA,114143.000,5332.9735,N,00958.4522,E,1,07,1.1,16.2,M,46.0,M,,0000*64
$GPGSA,A,3,31,29,21,16,05,25,30,,,,,,2.5,1.1,2.2*39
$GPRMC,114143.000,A,5332.9735,N,00958.4522,E,1.78,277.31,160912,,,A*65
$GPGGA,114144.000,5332.9732,N,00958.4511,E,1,07,1.1,16.1,M,46.0,M,,0000*67
$GPGSA,A,3,31,29,21,16,05,25,30,,,,,,2.5,1.1,2.2*39
$GPRMC,114144.000,A,5332.9732,N,00958.4511,E,1.92,280.11,160912,,,A*6B
$GPGGA,114145.000,5332.9730,N,00958.4500,E,1,07,1.1,16.1,M,46.0,M,,0000*64
$GPGSA,A,3,31,29,21,16,05,25,30,,,,,,2.5,1.1,2.2*39
$GPGSV,3,1,12,29,61,073,38,30,48,295,37,21,45,174,37,31,44,227,27*7A
$GPGSV,3,2,12,25,35,128,34,05,20,063,50,16,20,299,35,23,09,314,39*74
$GPGSV,3,3,12,13,07,346,31,06,06,257,25,02,05,039,,10,03,013,14*73
$GPRMC,114145.000,A,5332.9730,N,00958.4500,E,2.01,276.61,160912,,,A*6F
$GPGGA,114146.000,5332.9728,N,00958.4488,E,1,07,1.1,16.0,M,46.0,M,,0000*6E
$GPGSA,A,3,31,29,21,16,05,25,30,,,,,,2.5,1.1,2.2*39
$GPRMC,114146.000,A,5332.9728,N,00958.4488,E,2.29,285.19,160912,,,A*6D
$GPGGA,114147.000,5332.9726,N,00958.4477,E,1,07,1.1,16.0,M,46.0,M,,0000*61
$GPGSA,A,3,31,29,21,16,05,25,30,,,,,,2.5,1.1,2.2*39
$GPRMC,114147.000,A,5332.9726,N,00958.4477,E,2.12,283.89,160912,,,A*65
$GPGGA,114148.000,5332.9726,N,00958.4466,E,1,07,1.1,16.0,M,46.0,M,,0000*6E
$GPGSA,A,3,31,29,21,16,05,25,30,,,,,,2.5,1.1,2.2*39
$GPRMC,114148.000,A,5332.9726,N,00958.4466,E,2.10,294.88,160912,,,A*6F
$GPGGA,114149.000,5332.9726,N,00958.4455,E,1,06,1.3,16.1,M,46.0,M,,0000*6D
$GPGSA,A,3,31,29,21,05,25,30,,,,,,,3.2,1.3,2.9*31
$GPRMC,114149.000,A,5332.9726,N,00958.4455,E,2.47,298.52,160912,,,A*67
$GPGGA,114150.000,5332.9728,N,00958.4442,E,1,07,1.1,16.2,M,46.0,M,,0000*6D
$GPGSA,A,3,31,29,21,16,05,25,30,,,,,,2.5,1.1,2.2*39
$GPGSV,3,1,12,29,61,073,40,30,48,295,36,21,45,174,31,31,44,227,26*73
$GPGSV,3,2,12,25,35,128,34,05,20,063,50,16,20,299,35,23,09,314,34*79
$GPGSV,3,3,12,13,07,346,27,06,06,257,31,02,05,039,,10,03,013,14*71
$GPRMC,114150.000,A,5332.9728,N,00958.4442,E,2.66,300.07,160912,,,A*64
$GPGGA,114151.000,5332.9728,N,00958.4431,E,1,07,1.1,16.4,M,46.0,M,,0000*6E
$GPGSA,A,3,31,29,21,16,05,25,30,,,,,,2.5,1.1,2.2*39
$GPRMC,114151.000,A,5332.9728,N,00958.4431,E,2.35,294.76,160912,,,A*6D
$GPGGA,114152.000,5332.9729,N,00958.4421,E,1,07,1.1,16.7,M,46.0,M,,0000*6E
$GPGSA,A,3,31,29,21,16,05,25,30,,,,,,2.5,1.1,2.2*39
$GPRMC,114152.000,A,5332.9729,N,00958.4421,E,2.00,296.00,160912,,,A*6B
$GPGGA,114153.000,5332.9730,N,00958.4410,E,1,07,1.1,17.0,M,46.0,M,,0000*63
$GPGSA,A,3,31,29,21,16,05,25,30,,,,,,2.5,1.1,2.2*39
$GPRMC,114153.000,A,5332.9730,N,00958.4410,E,2.37,301.30,160912,,,A*68
$GPGGA,114154.000,5332.9732,N,00958.4397,E,1,07,1.1,17.4,M,46.0,M,,0000*6A
$GPGSA,A,3,31,29,21,16,05,25,30,,,,,,2.5,1.1,2.2*39
$GPRMC,114154.000,A,5332.9732,N,00958.4397,E,2.63,297.69,160912,,,A*66
$GPGGA,114155.000,5332.9734,N,00958.4386,E,1,07,1.1,17.7,M,46.0,M,,0000*6E
$GPGSA,A,3,31,29,21,16,05,25,30,,,,,,2.5,1.1,2.2*39
$GPGSV,3,1,12,29,60,073,25,30,48,295,36,21,45,174,26,31,44,227,26*77
$GPGSV,3,2,12,25,34,129,25,05,20,063,42,16,20,299,35,23,09,314,34*7A
$GPGSV,3,3,12,13,07,346,27,06,06,257,31,02,05,039,,10,03,013,13*76
$GPRMC,114155.000,A,5332.9734,N,00958.4386,E,2.30,299.59,160912,,,A*6A
$GPGGA,114156.000,5332.9736,N,00958.4375,E,1,07,1.1,18.0,M,46.0,M,,0000*6B
$GPGSA,A,3,31,29,21,16,05,25,30,,,,,,2.5,1.1,2.2*39
$GPRMC,114156.000,A,5332.9736,N,00958.4375,E,2.34,297.57,160912,,,A*63
$GPGGA,114157.000,5332.9740,N,00958.4363,E,1,07,1.1,18.3,M,46.0,M,,0000*6F
$GPGSA,A,3,31,29,21,16,05,25,30,,,,,,2.5,1.1,2.2*39
$GPRMC,114157.000,A,5332.9740,N,00958.4363,E,2.79,308.77,160912,,,A*68
$GPGGA,114158.000,5332.9743,N,00958.4350,E,1,07,1.1,18.5,M,46.0,M,,0000*65
$GPGSA,A,3,31,29,21,16,05,25,30,,,,,,2.5,1.1,2.2*39
$GPRMC,114158.000,A,5332.9743,N,00958.4350,E,2.62,304.60,160912,,,A*64
$GPGGA,114159.000,5332.9748,N,00958.4338,E,1,07,1.1,18.9,M,46.0,M,,0000*6D
$GPGSA,A,3,31,29,21,16,05,25,30,,,,,,2.5,1.1,2.2*39
$GPRMC,114159.000,A,5332.9748,N,00958.4338,E,2.75,308.58,160912,,,A*61
$GPGGA,114200.000,5332.9752,N,00958.4327,E,1,07,1.1,19.3,M,46.0,M,,0000*6C
$GPGSA,A,3,31,29,21,16,05,25,30,,,,,,2.5,1.1,2.2*39
$GPGSV,3,1,12,29,60,073,40,30,48,295,36,21,45,174,25,31,44,227,26*77
$GPGSV,3,2,12,25,34,129,25,05,20,063,42,16,20,299,34,23,09,314,33*7C
$GPGSV,3,3,12,13,07,346,21,06,06,257,31,02,05,039,,10,03,013,16*75
$GPRMC,114200.000,A,5332.9752,N,00958.4327,E,2.40,306.52,160912,,,A*69
$GPGGA,114201.000,5332.9757,N,00958.4317,E,1,07,1.1,20.0,M,46.0,M,,0000*62
$GPGSA,A,3,31,29,21,16,05,25,30,,,,,,2.5,1.1,2.2*39
$GPRMC,114201.000,A,5332.9757,N,00958.4317,E,2.50,311.51,160912,,,A*6A
$GPGGA,114202.000,5332.9762,N,00958.4307,E,1,07,1.1,20.7,M,46.0,M,,0000*61
$GPGSA,A,3,31,29,21,16,05,25,30,,,,,,2.5,1.1,2.2*39
$GPRMC,114202.000,A,5332.9762,N,00958.4307,E,2.22,309.90,160912,,,A*6F
$GPGGA,114203.000,5332.9768,N,00958.4297,E,1,07,1.1,21.4,M,46.0,M,,0000*60
$GPGSA,A,3,31,29,21,16,05,25,30,,,,,,2.5,1.1,2.2*39
$GPRMC,114203.000,A,5332.9768,N,00958.4297,E,2.46,315.57,160912,,,A*68
$GPGGA,114204.000,5332.9773,N,00958.4288,E,1,07,1.1,22.2,M,46.0,M,,0000*66
$GPGSA,A,3,31,29,21,16,05,25,30,,,,,,2.5,1.1,2.2*39
$GPRMC,114204.000,A,5332.9773,N,00958.4288,E,2.31,314.14,160912,,,A*6D
$GPGGA,114205.000,5332.9778,N,00958.4278,E,1,07,1.1,23.1,M,46.0,M,,0000*61
$GPGSA,A,3,31,29,21,16,05,25,30,,,,,,2.5,1.1,2.2*39
$GPGSV,3,1,12,29,60,073,37,30,48,295,37,21,45,174,25,31,44,227,26*76
$GPGSV,3,2,12,25,34,129,25,05,20,063,45,16,20,299,34,23,09,314,37*7F
$GPGSV,3,3,12,13,07,346,30,06,06,257,31,02,05,039,,10,03,013,18*7B
$GPRMC,114205.000,A,5332.9778,N,00958.4278,E,1.95,302.79,160912,,,A*69
$GPGGA,114206.000,5332.9782,N,00958.4268,E,1,07,1.1,23.9,M,46.0,M,,0000*6E
$GPGSA,A,3,31,29,21,16,05,25,30,,,,,,2.5,1.1,2.2*39
$GPRMC,114206.000,A,5332.9782,N,00958.4268,E,2.05,296.83,160912,,,A*6D
$GPGGA,114207.000,5332.9786,N,00958.4259,E,1,07,1.1,24.8,M,46.0,M,,0000*6F
$GPGSA,A,3,31,29,21,16,05,25,30,,,,,,2.5,1.1,2.2*39
$GPRMC,114207.000,A,5332.9786,N,00958.4259,E,2.02,304.39,160912,,,A*66
$GPGGA,114208.000,5332.9791,N,00958.4250,E,1,07,1.1,25.7,M,46.0,M,,0000*61
$GPGSA,A,3,31,29,21,16,05,25,30,,,,,,2.5,1.1,2.2*39
$GPRMC,114208.000,A,5332.9791,N,00958.4250,E,1.84,301.24,160912,,,A*62
$GPGGA,114209.000,5332.9796,N,00958.4242,E,1,07,1.1,26.8,M,46.0,M,,0000*68
$GPGSA,A,3,31,29,21,16,05,25,30,,,,,,2.5,1.1,2.2*39
$GPRMC,114209.000,A,5332.9796,N,00958.4242,E,1.88,308.24,160912,,,A*62
$GPGGA,114210.000,5332.9801,N,00958.4233,E,1,07,1.1,27.8,M,46.0,M,,0000*66
$GPGSA,A,3,31,29,21,16,05,25,30,,,,,,2.5,1.1,2.2*39
$GPGSV,3,1,12,29,60,073,38,30,48,295,36,21,45,174,25,31,44,227,26*78
$GPGSV,3,2,12,25,34,129,25,05,20,063,33,16,20,299,28,23,09,314,33*77
$GPGSV,3,3,12,13,07,346,33,06,06,257,27,02,05,039,,10,03,013,34*71
$GPRMC,114210.000,A,5332.9801,N,00958.4233,E,2.02,301.64,160912,,,A*61
$GPGGA,114211.000,5332.9807,N,00958.4224,E,1,07,1.1,29.1,M,46.0,M,,0000*60
$GPGSA,A,3,31,29,21,16,05,25,30,,,,,,2.5,1.1,2.2*39
$GPRMC,114211.000,A,5332.9807,N,00958.4224,E,1.97,308.54,160912,,,A*65
$GPGGA,114212.000,5332.9812,N,00958.4216,E,1,07,1.1,30.2,M,46.0,M,,0000*6D
$GPGSA,A,3,31,29,21,16,05,25,30,,,,,,2.5,1.1,2.2*39
$GPRMC,114212.000,A,5332.9812,N,00958.4216,E,1.85,306.97,160912,,,A*61
$GPGGA,114213.000,5332.9816,N,00958.4208,E,1,07,1.1,31.3,M,46.0,M,,0000*67
$GPGSA,A,3,31,29,21,16,05,25,30,,,,,,2.5,1.1,2.2*39
$GPRMC,114213.000,A,5332.9816,N,00958.4208,E,1.73,292.01,160912,,,A*61
$GPGGA,114214.000,5332.9820,N,00958.4198,E,1,07,1.1,32.1,M,46.0,M,,0000*6E
$GPGSA,A,3,31,29,21,16,05,25,30,,,,,,2.5,1.1,2.2*39
$GPRMC,114214.000,A,5332.9820,N,00958.4198,E,2.00,304.75,160912,,,A*63
$GPGGA,114215.000,5332.9822,N,00958.4191,E,1,07,1.1,32.8,M,46.0,M,,0000*6D
$GPGSA,A,3,31,29,21,16,05,25,30,,,,,,2.5,1.1,2.2*39
$GPGSV,3,1,12,29,60,073,38,30,48,295,27,21,45,174,28,31,44,227,32*70
$GPGSV,3,2,12,25,34,129,24,05,20,063,44,16,20,299,28,23,09,314,34*71
$GPGSV,3,3,12,13,07,346,36,06,06,257,30,02,05,039,,10,03,013,27*70
$GPRMC,114215.000,A,5332.9822,N,00958.4191,E,1.24,286.50,160912,,,A*60
$GPGGA,114216.000,5332.9822,N,00958.4185,E,1,07,1.1,33.3,M,46.0,M,,0000*61
$GPGSA,A,3,31,29,21,16,05,25,30,,,,,,2.5,1.1,2.2*39
$GPRMC,114216.000,A,5332.9822,N,00958.4185,E,0.91,273.81,160912,,,A*6F
$GPGGA,114217.000,5332.9821,N,00958.4179,E,1,07,1.1,33.6,M,46.0,M,,0000*65
$GPGSA,A,3,31,29,21,16,05,25,30,,,,,,2.5,1.1,2.2*39
$GPRMC,114217.000,A,5332.9821,N,00958.4179,E,1.09,261.11,160912,,,A*64
$GPGGA,114218.000,5332.9820,N,00958.4172,E,1,07,1.1,33.8,M,46.0,M,,0000*6E
$GPGSA,A,3,31,29,21,16,05,25,30,,,,,,2.5,1.1,2.2*39
$GPRMC,114218.000,A,5332.9820,N,00958.4172,E,1.17,258.73,160912,,,A*60
$GPGGA,114219.000,5332.9818,N,00958.4163,E,1,06,1.3,33.8,M,46.0,M,,0000*67
$GPGSA,A,3,31,29,21,05,25,30,,,,,,,3.2,1.3,2.9*31
$GPRMC,114219.000,A,5332.9818,N,00958.4163,E,1.46,271.90,160912,,,A*68
$GPGGA,114220.000,5332.9816,N,00958.4154,E,1,06,1.3,33.6,M,46.0,M,,0000*69
$GPGSA,A,3,31,29,21,05,25,30,,,,,,,3.2,1.3,2.9*31
$GPGSV,3,1,12,29,60,073,34,30,48,295,31,21,45,174,35,31,44,227,29*7D
$GPGSV,3,2,12,25,34,129,25,05,20,063,43,16,20,299,,23,09,314,34*7D
$GPGSV,3,3,12,13,07,346,32,06,06,257,23,02,05,039,,10,03,013,25*74
$GPRMC,114220.000,A,5332.9816,N,00958.4154,E,1.61,271.72,160912,,,A*61
$GPGGA,114221.000,5332.9814,N,00958.4145,E,1,07,1.1,33.3,M,46.0,M,,0000*6C
$GPGSA,A,3,31,29,21,16,05,25,30,,,,,,2.5,1.1,2.2*39
$GPRMC,114221.000,A,5332.9814,N,00958.4145,E,1.74,274.59,160912,,,A*6A
$GPGGA,114222.000,5332.9811,N,00958.4134,E,1,07,1.1,32.6,M,46.0,M,,0000*68
$GPGSA,A,3,31,29,21,16,05,25,30,,,,,,2.5,1.1,2.2*39
$GPRMC,114222.000,A,5332.9811,N,00958.4134,E,1.80,270.75,160912,,,A*6B
$GPGGA,114223.000,5332.9807,N,00958.4124,E,1,07,1.1,31.7,M,46.0,M,,0000*6D
$GPGSA,A,3,31,29,21,16,05,25,30,,,,,,2.5,1.1,2.2*39
$GPRMC,114223.000,A,5332.9807,N,00958.4124,E,1.71,247.57,160912,,,A*66
$GPGGA,114224.000,5332.9803,N,00958.4115,E,1,06,1.3,30.8,M,46.0,M,,0000*61
$GPGSA,A,3,31,29,21,05,25,30,,,,,,,3.2,1.3,2.9*31
$GPRMC,114224.000,A,5332.9803,N,00958.4115,E,1.52,267.63,160912,,,A*63
$GPGGA,114225.000,5332.9800,N,00958.4110,E,1,07,1.1,29.9,M,46.0,M,,0000*6C
$GPGSA,A,3,31,29,21,16,05,25,30,,,,,,2.5,1.1,2.2*39
$GPGSV,3,1,12,29,60,073,38,30,48,295,32,21,45,174,30,31,44,227,29*77
$GPGSV,3,2,12,25,34,129,26,05,20,063,38,16,20,299,36,23,09,314,33*70
$GPGSV,3,3,12,13,07,346,28,06,06,257,27,02,05,039,,10,03,013,26*78
$GPRMC,114226.000,A,5332.9797,N,00958.4103,E,1.03,255.81,160912,,,A*6D
$GPGGA,114227.000,5332.9795,N,00958.4091,E,1,07,1.1,28.5,M,46.0,M,,0000*68
$GPGSA,A,3,31,29,21,16,05,25,30,,,,,,2.5,1.1,2.2*39
$GPRMC,114227.000,A,5332.9795,N,00958.4091,E,1.98,268.33,160912,,,A*61
$GPGGA,114228.000,5332.9793,N,00958.4080,E,1,07,1.1,27.7,M,46.0,M,,0000*6C
$GPGSA,A,3,31,29,21,30,16,05,25,,,,,,2.5,1.1,2.2*39
$GPRMC,114228.000,A,5332.9793,N,00958.4080,E,1.89,279.77,160912,,,A*68
$GPGGA,114229.000,5332.9791,N,00958.4068,E,1,06,1.2,27.0,M,46.0,M,,0000*6C
$GPGSA,A,3,29,21,30,16,05,25,,,,,,,2.5,1.2,2.2*38
$GPRMC,114229.000,A,5332.9791,N,00958.4068,E,2.22,270.10,160912,,,A*67
$GPGGA,114230.000,5332.9789,N,00958.4055,E,1,07,1.1,26.3,M,46.0,M,,0000*63
$GPGSA,A,3,31,29,21,30,16,05,25,,,,,,2.5,1.1,2.2*39
$GPGSV,3,1,12,29,60,073,35,30,48,295,35,21,45,174,30,31,44,227,31*74
$GPGSV,3,2,12,25,34,129,38,05,20,063,44,16,20,299,33,23,09,314,32*70
$GPGSV,3,3,12,13,07,346,28,06,06,257,19,02,05,039,,10,03,013,27*74
$GPRMC,114230.000,A,5332.9789,N,00958.4055,E,2.32,277.46,160912,,,A*6D
$GPGGA,114231.000,5332.9786,N,00958.4044,E,1,07,1.1,25.5,M,46.0,M,,0000*68
$GPGSA,A,3,31,29,21,30,16,05,25,,,,,,2.5,1.1,2.2*39
$GPRMC,114231.000,A,5332.9786,N,00958.4044,E,1.81,266.42,160912,,,A*6C
$GPGGA,114232.000,5332.9784,N,00958.4035,E,1,07,1.1,24.9,M,46.0,M,,0000*62
$GPGSA,A,3,31,29,21,30,16,05,25,,,,,,2.5,1.1,2.2*39
$GPRMC,114232.000,A,5332.9784,N,00958.4035,E,1.51,264.72,160912,,,A*67
$GPGGA,114233.000,5332.9782,N,00958.4025,E,1,07,1.1,24.3,M,46.0,M,,0000*6E
$GPGSA,A,3,31,29,21,30,16,05,25,,,,,,2.5,1.1,2.2*39
$GPRMC,114233.000,A,5332.9782,N,00958.4025,E,1.68,270.59,160912,,,A*67
$GPGGA,114234.000,5332.9780,N,00958.4013,E,1,07,1.1,23.7,M,46.0,M,,0000*6D
$GPGSA,A,3,31,29,21,30,16,05,25,,,,,,2.5,1.1,2.2*39
$GPRMC,114234.000,A,5332.9780,N,00958.4013,E,2.17,270.21,160912,,,A*63
$GPGGA,114235.000,5332.9778,N,00958.4002,E,1,07,1.1,23.1,M,46.0,M,,0000*6D
$GPGSA,A,3,31,29,21,30,16,05,25,,,,,,2.5,1.1,2.2*39
$GPGSV,3,1,12,29,60,073,34,30,48,295,35,21,45,174,30,31,44,227,30*74
$GPGSV,3,2,12,25,34,129,33,05,20,063,47,16,20,299,30,23,09,314,26*7E
$GPGSV,3,3,12,13,07,346,28,06,06,257,20,02,05,039,,10,03,013,29*70
$GPRMC,114235.000,A,5332.9778,N,00958.4002,E,2.01,273.21,160912,,,A*61
$GPGGA,114236.000,5332.9777,N,00958.3991,E,1,07,1.1,22.8,M,46.0,M,,0000*6D
$GPGSA,A,3,31,29,21,30,16,05,25,,,,,,2.5,1.1,2.2*39
$GPRMC,114236.000,A,5332.9777,N,00958.3991,E,1.82,276.90,160912,,,A*6E
$GPGGA,114237.000,5332.9776,N,00958.3981,E,1,07,1.1,22.4,M,46.0,M,,0000*60
$GPGSA,A,3,31,29,21,30,16,05,25,,,,,,2.5,1.1,2.2*39
$GPRMC,114237.000,A,5332.9776,N,00958.3981,E,1.85,280.44,160912,,,A*68
$GPGGA,114238.000,5332.9774,N,00958.3972,E,1,06,1.3,22.1,M,46.0,M,,0000*67
$GPGSA,A,3,31,29,21,30,05,25,,,,,,,3.2,1.3,2.9*31
$GPRMC,114238.000,A,5332.9774,N,00958.3972,E,1.46,269.06,160912,,,A*67
$GPGGA,114239.000,5332.9773,N,00958.3963,E,1,07,1.1,21.8,M,46.0,M,,0000*68
$GPGSA,A,3,31,29,21,30,16,05,25,,,,,,2.5,1.1,2.2*39
$GPRMC,114239.000,A,5332.9773,N,00958.3963,E,1.52,272.22,160912,,,A*68
$GPGGA,114240.000,5332.9770,N,00958.3956,E,1,06,1.3,21.4,M,46.0,M,,0000*6C
$GPGSA,A,3,31,29,21,30,16,05,,,,,,,2.7,1.3,2.3*3F
$GPGSV,3,1,12,29,60,073,34,30,48,295,33,21,45,174,30,31,44,227,30*72
$GPGSV,3,2,12,25,34,129,,05,20,063,40,16,20,299,31,23,09,314,30*7F
$GPGSV,3,3,12,13,07,346,31,06,06,257,20,02,05,039,20,10,03,013,22*71
$GPRMC,114240.000,A,5332.9770,N,00958.3956,E,1.23,242.11,160912,,,A*66
$GPGGA,114241.000,5332.9767,N,00958.3947,E,1,07,1.1,21.1,M,46.0,M,,0000*6D
$GPGSA,A,3,31,29,21,30,16,05,25,,,,,,2.5,1.1,2.2*39
$GPRMC,114241.000,A,5332.9767,N,00958.3947,E,1.50,262.92,160912,,,A*6C
$GPGGA,114242.000,5332.9766,N,00958.3937,E,1,07,1.1,20.9,M,46.0,M,,0000*61
$GPGSA,A,3,31,29,21,30,16,05,25,,,,,,2.5,1.1,2.2*39
$GPRMC,114242.000,A,5332.9766,N,00958.3937,E,1.70,272.48,160912,,,A*6D
$GPGGA,114243.000,5332.9764,N,00958.3927,E,1,07,1.1,20.7,M,46.0,M,,0000*6D
$GPGSA,A,3,31,29,21,30,16,05,25,,,,,,2.5,1.1,2.2*39
$GPRMC,114243.000,A,5332.9764,N,00958.3927,E,1.71,262.07,160912,,,A*64
$GPGGA,114244.000,5332.9763,N,00958.3916,E,1,06,1.3,20.6,M,46.0,M,,0000*6D
$GPGSA,A,3,31,29,30,16,05,25,,,,,,,2.6,1.3,2.2*3B
$GPRMC,114244.000,A,5332.9763,N,00958.3916,E,1.77,268.90,160912,,,A*64
$GPGGA,114245.000,5332.9761,N,00958.3908,E,1,07,1.1,20.5,M,46.0,M,,0000*61
$GPGSA,A,3,31,29,21,30,16,05,25,,,,,,2.5,1.1,2.2*39
$GPGSV,3,1,12,29,60,073,29,30,48,295,33,21,45,174,28,31,44,227,30*77
$GPGSV,3,2,12,25,34,129,29,05,20,063,39,16,20,299,30,23,09,314,30*7B
$GPGSV,3,3,12,13,07,346,37,06,06,257,19,02,05,039,20,10,03,013,23*7C
$GPRMC,114245.000,A,5332.9761,N,00958.3908,E,1.37,276.69,160912,,,A*65
$GPGGA,114246.000,5332.9760,N,00958.3899,E,1,07,1.1,20.2,M,46.0,M,,0000*6D
$GPGSA,A,3,31,29,21,30,16,05,25,,,,,,2.5,1.1,2.2*39
$GPRMC,114246.000,A,5332.9760,N,00958.3899,E,1.56,273.64,160912,,,A*61
$GPGGA,114247.000,5332.9758,N,00958.3889,E,1,07,1.1,19.8,M,46.0,M,,0000*66
$GPGSA,A,3,31,29,21,30,16,05,25,,,,,,2.5,1.1,2.2*39
$GPRMC,114247.000,A,5332.9758,N,00958.3889,E,1.55,269.95,160912,,,A*6C
$GPGGA,114248.000,5332.9755,N,00958.3878,E,1,07,1.1,19.3,M,46.0,M,,0000*61
$GPGSA,A,3,31,29,21,30,16,05,25,,,,,,2.5,1.1,2.2*39
$GPRMC,114248.000,A,5332.9755,N,00958.3878,E,1.90,266.19,160912,,,A*62
$GPGGA,114249.000,5332.9752,N,00958.3868,E,1,07,1.1,18.8,M,46.0,M,,0000*6C
$GPGSA,A,3,31,29,21,30,16,05,25,,,,,,2.5,1.1,2.2*39
$GPRMC,114249.000,A,5332.9752,N,00958.3868,E,1.64,265.49,160912,,,A*68
$GPGGA,114250.000,5332.9749,N,00958.3859,E,1,07,1.1,18.3,M,46.0,M,,0000*67
$GPGSA,A,3,31,29,21,30,16,05,25,,,,,,2.5,1.1,2.2*39
$GPGSV,3,1,12,29,60,073,34,30,48,295,38,21,45,174,38,31,44,227,31*70
$GPGSV,3,2,12,25,34,129,28,05,20,063,38,16,20,299,25,23,09,314,29*77
$GPGSV,3,3,12,13,07,346,36,06,06,257,19,02,05,039,21,10,03,013,23*7C
$GPRMC,114250.000,A,5332.9749,N,00958.3859,E,1.41,258.49,160912,,,A*61
