$GPRMC,083005.667,A,5229.6918,N,01319.4837,E,0.85,189.94,130912,,,A*67
$GPGGA,083006.667,5229.6890,N,01319.4835,E,1,03,3.7,57.6,M,44.8,M,,0000*66
$GPGSA,A,2,09,12,14,,,,,,,,,,3.8,3.7,1.0*32
$GPRMC,083013.667,A,5229.7010,N,01319.4843,E,1.68,187.00,130912,,,A*62
$GPGGA,083014.667,5229.6986,N,01319.4840,E,1,03,3.7,57.6,M,44.8,M,,0000*61
$GPGSA,A,2,09,12,14,,,,,,,,,,3.8,3.7,1.0*32
$GPGSV,3,1,12,12,84,017,41,14,40,279,37,09,39,142,20,25,49,269,30*7F
$GPGSV,3,2,12,27,32,142,28,04,26,069,28,02,25,116,30,29,19,206,25*77
$GPGSV,3,3,12,31,05,309,,32,04,340,13,17,03,042,27,20,01,007,*75
$GPRMC,083014.667,A,5229.6986,N,01319.4840,E,4.29,184.95,130912,,,A*6E
$GPGGA,083015.667,5229.6945,N,01319.4836,E,1,03,3.7,57.6,M,44.8,M,,0000*6E
$GPGSA,A,2,09,12,14,,,,,,,,,,3.8,3.7,1.0*32
$GPRMC,083015.667,A,5229.6945,N,01319.4836,E,5.11,184.56,130912,,,A*64
$GPGGA,083016.667,5229.6716,N,01319.4813,E,1,03,3.7,57.6,M,44.8,M,,0000*62
$GPGSA,A,2,09,12,14,,,,,,,,,,3.8,3.7,1.0*32
$GPRMC,083016.667,A,5229.6716,N,01319.4813,E,2.11,185.63,130912,,,A*68
$GPGGA,083017.667,5229.6657,N,01319.4806,E,0,03,,57.6,M,44.8,M,,0000*48
$GPGSA,A,1,09,12,14,,,,,,,,,,,,*11
$GPRMC,083021.667,A,5229.6312,N,01319.4774,E,2.21,184.21,130912,,,A*66
$GPGGA,083022.667,5229.6493,N,01319.4793,E,1,03,3.6,57.6,M,44.8,M,,0000*6D
$GPGSA,A,2,09,12,14,,,,,,,,,,3.8,3.6,1.0*33
$GPRMC,083025.667,A,5229.6793,N,01319.4825,E,1.11,358.68,130912,,,A*6A
$GPGGA,083026.667,5229.6907,N,01319.4837,E,1,03,3.6,57.6,M,44.8,M,,0000*68
$GPGSA,A,2,09,12,14,,,,,,,,,,3.8,3.6,1.0*33
$GPRMC,083035.667,A,5229.6376,N,01319.4788,E,0.81,188.86,130912,,,A*6B
$GPGGA,083036.667,5229.6221,N,01319.4773,E,1,03,3.6,57.6,M,44.8,M,,0000*69
$GPGSA,A,2,09,12,14,,,,,,,,,,3.8,3.6,1.0*33
$GPRMC,083036.667,A,5229.6221,N,01319.4773,E,2.40,184.90,130912,,,A*6B
$GPGGA,083037.667,5229.6159,N,01319.4767,E,1,03,3.6,57.6,M,44.8,M,,0000*61
$GPGSA,A,2,09,12,14,,,,,,,,,,3.8,3.6,1.0*33
$GPRMC,083038.667,A,5229.6124,N,01319.4762,E,1.71,359.93,130912,,,A*63
$GPGGA,083039.667,5229.6132,N,01319.4763,E,1,03,3.6,57.6,M,44.8,M,,0000*66
$GPGSA,A,2,09,12,14,,,,,,,,,,3.8,3.6,1.0*33
$GPGSV,3,1,12,12,84,021,40,14,40,279,37,09,39,142,19,17,03,042,31*74
$GPGSV,3,2,12,25,49,270,29,27,31,142,21,04,26,069,28,02,25,115,26*7D
$GPGSV,3,3,12,29,20,206,25,31,05,309,,32,04,340,,20,01,007,*7B
$GPRMC,083040.667,A,5229.6265,N,01319.4775,E,1.88,184.60,130912,,,A*64
$GPGGA,083041.667,5229.6276,N,01319.4776,E,1,03,3.6,57.6,M,44.8,M,,0000*6E
$GPGSA,A,2,09,12,14,,,,,,,,,,3.7,3.6,1.0*3C
$GPRMC,083042.667,A,5229.6374,N,01319.4785,E,1.38,185.26,130912,,,A*60
$GPGGA,083043.667,5229.6379,N,01319.4785,E,1,03,3.6,57.6,M,44.8,M,,0000*6E
$GPGSA,A,2,09,12,14,,,,,,,,,,3.7,3.6,1.0*3C
$GPRMC,083045.667,A,5229.6425,N,01319.4790,E,1.26,1.44,130912,,,A*66
$GPGGA,083046.667,5229.6457,N,01319.4792,E,1,03,3.6,57.6,M,44.8,M,,0000*66
$GPGSA,A,2,09,12,14,,,,,,,,,,3.7,3.6,1.0*3C
$GPRMC,083107.000,A,5229.6812,N,01319.5095,E,0.83,13.35,130912,,,A*56
$GPGGA,083108.000,5229.6822,N,01319.5096,E,1,04,3.2,-10.4,M,44.8,M,,0000*49
$GPGSA,A,3,09,12,14,25,,,,,,,,,3.4,3.2,1.0*3D
$GPRMC,083109.000,A,5229.6831,N,01319.5097,E,0.84,0.42,130912,,,A*6E
$GPGGA,083110.000,5229.6839,N,01319.5095,E,1,04,3.2,-10.2,M,44.8,M,,0000*4F
$GPGSA,A,3,09,12,14,25,,,,,,,,,3.4,3.2,1.0*3D
$GPRMC,083125.000,A,5229.6933,N,01319.5069,E,0.82,26.91,130912,,,A*5E
$GPGGA,083126.000,5229.6943,N,01319.5072,E,1,04,3.2,-5.4,M,44.8,M,,0000*7D
$GPGSA,A,3,09,12,14,25,,,,,,,,,3.4,3.2,1.0*3D
$GPRMC,083134.000,A,5229.6972,N,01319.5065,E,1.34,214.13,130912,,,A*62
$GPGGA,083135.000,5229.6966,N,01319.5056,E,1,04,3.2,-0.2,M,44.8,M,,0000*7D
$GPGSA,A,3,09,12,14,25,,,,,,,,,3.4,3.2,1.0*3D
$GPRMC,083135.000,A,5229.6966,N,01319.5056,E,1.42,204.72,130912,,,A*61
$GPGGA,083136.000,5229.6958,N,01319.5048,E,1,04,3.2,1.0,M,44.8,M,,0000*52
$GPGSA,A,3,09,12,14,25,,,,,,,,,3.4,3.2,1.0*3D
$GPRMC,083136.000,A,5229.6958,N,01319.5048,E,1.58,194.13,130912,,,A*66
$GPGGA,083137.000,5229.6951,N,01319.5040,E,1,04,3.2,2.0,M,44.8,M,,0000*51
$GPGSA,A,3,09,12,14,25,,,,,,,,,3.4,3.2,1.0*3D
$GPRMC,083137.000,A,5229.6951,N,01319.5040,E,1.55,193.21,130912,,,A*6D
$GPGGA,083138.000,5229.6943,N,01319.5033,E,1,04,3.2,3.0,M,44.8,M,,0000*58
$GPGSA,A,3,09,12,14,25,,,,,,,,,3.4,3.2,1.0*3D
$GPRMC,083138.000,A,5229.6943,N,01319.5033,E,1.14,189.11,130912,,,A*68
$GPGGA,083139.000,5229.6937,N,01319.5026,E,1,04,3.2,4.1,M,44.8,M,,0000*58
$GPGSA,A,3,09,12,14,25,,,,,,,,,3.3,3.2,1.0*3A
$GPGSV,3,1,12,12,84,022,39,25,49,270,25,14,40,278,24,09,38,143,25*7C
$GPGSV,3,2,12,17,03,042,19,27,31,142,24,04,26,069,28,02,26,115,23*71
$GPGSV,3,3,12,29,20,206,25,31,06,309,,32,04,340,,20,01,007,*78
$GPRMC,083140.000,A,5229.6930,N,01319.5020,E,0.93,183.27,130912,,,A*60
$GPGGA,083141.000,5229.6925,N,01319.5014,E,1,04,3.2,6.2,M,44.8,M,,0000*54
$GPGSA,A,3,09,12,14,25,,,,,,,,,3.3,3.2,1.0*3A
$GPRMC,083142.000,A,5229.6918,N,01319.5009,E,0.95,181.55,130912,,,A*62
$GPGGA,083143.000,5229.6911,N,01319.5005,E,1,04,3.2,8.0,M,44.8,M,,0000*5D
$GPGSA,A,3,09,12,14,25,,,,,,,,,3.3,3.2,1.0*3A
$GPRMC,083143.000,A,5229.6911,N,01319.5005,E,1.03,181.67,130912,,,A*69
$GPGGA,083144.000,5229.6906,N,01319.5001,E,1,04,3.2,8.8,M,44.8,M,,0000*50
$GPGSA,A,3,09,12,14,25,,,,,,,,,3.3,3.2,1.0*3A
$GPGSV,3,1,12,12,84,022,39,25,49,270,26,14,40,278,29,09,38,143,25*72
$GPGSV,3,2,12,17,03,042,19,27,31,142,25,04,26,069,37,02,26,115,24*79
$GPGSV,3,3,12,29,20,206,25,31,06,309,,32,04,340,,20,01,007,*78
$GPRMC,083242.000,A,5229.6655,N,01319.4756,E,1.30,219.92,130912,,,A*6C
$GPGGA,083243.000,5229.6650,N,01319.4753,E,1,06,1.4,71.2,M,44.8,M,,0000*6B
$GPGSA,A,3,09,12,27,14,04,02,,,,,,,2.9,1.4,2.6*34
$GPRMC,083243.000,A,5229.6650,N,01319.4753,E,0.91,212.45,130912,,,A*66
$GPGGA,083244.000,5229.6647,N,01319.4752,E,1,07,1.4,70.5,M,44.8,M,,0000*6C
$GPGSA,A,3,09,12,27,14,04,25,02,,,,,,2.9,1.4,2.6*33
$GPGSV,3,1,12,12,84,028,38,25,50,270,28,14,40,277,32,09,38,143,27*78
$GPGSV,3,2,12,27,30,143,26,04,26,068,35,02,26,115,25,29,20,206,21*7D
$GPGSV,3,3,12,31,06,309,22,32,04,339,14,17,02,042,24,20,01,006,*7C
$GPRMC,083252.000,A,5229.6615,N,01319.4741,E,0.97,261.13,130912,,,A*65
$GPGGA,083253.000,5229.6609,N,01319.4736,E,1,07,1.4,62.0,M,44.8,M,,0000*64
$GPGSA,A,3,09,12,27,14,04,25,02,,,,,,2.9,1.4,2.6*33
$GPRMC,083253.000,A,5229.6609,N,01319.4736,E,1.46,229.79,130912,,,A*64
$GPGGA,083254.000,5229.6603,N,01319.4728,E,1,07,1.4,60.6,M,44.8,M,,0000*62
$GPGSA,A,3,09,12,27,14,04,25,02,,,,,,2.9,1.4,2.6*33
$GPGSV,3,1,12,12,84,028,40,25,50,270,35,14,40,277,35,09,38,143,27*7C
$GPGSV,3,2,12,27,30,143,25,04,26,068,36,02,26,115,30,29,20,206,18*73
$GPGSV,3,3,12,31,06,309,23,32,04,339,14,17,02,042,24,20,01,006,*7D
$GPRMC,083254.000,A,5229.6603,N,01319.4728,E,2.11,232.55,130912,,,A*63
$GPGGA,083255.000,5229.6600,N,01319.4722,E,1,07,1.4,59.0,M,44.8,M,,0000*66
$GPGSA,A,3,09,12,27,14,04,25,02,,,,,,2.9,1.4,2.6*33
$GPRMC,083255.000,A,5229.6600,N,01319.4722,E,1.47,255.71,130912,,,A*6C
$GPGGA,083256.000,5229.6596,N,01319.4715,E,1,07,1.4,57.3,M,44.8,M,,0000*60
$GPGSA,A,3,09,12,27,14,04,25,02,,,,,,2.9,1.4,2.6*33
$GPRMC,083256.000,A,5229.6596,N,01319.4715,E,1.47,250.50,130912,,,A*61
$GPGGA,083257.000,5229.6592,N,01319.4708,E,1,07,1.4,55.6,M,44.8,M,,0000*6E
$GPGSA,A,3,09,12,27,14,04,25,02,,,,,,2.9,1.4,2.6*33
$GPRMC,083257.000,A,5229.6592,N,01319.4708,E,1.72,235.56,130912,,,A*6B
$GPGGA,083258.000,5229.6588,N,01319.4703,E,1,07,1.4,54.1,M,44.8,M,,0000*67
$GPGSA,A,3,09,12,27,14,04,25,02,,,,,,2.9,1.4,2.6*33
$GPRMC,083258.000,A,5229.6588,N,01319.4703,E,1.35,218.33,130912,,,A*6B
$GPGGA,083259.000,5229.6588,N,01319.4709,E,1,07,1.4,52.7,M,44.8,M,,0000*6C
$GPGSA,A,3,09,12,27,14,04,25,02,,,,,,2.9,1.4,2.6*33
$GPGSV,3,1,12,12,84,028,43,25,50,270,44,14,40,277,37,09,38,143,26*7A
$GPGSV,3,2,12,27,30,143,25,04,26,068,32,02,26,115,31,29,20,206,24*79
$GPGSV,3,3,12,31,06,309,17,32,04,339,15,17,02,042,23,20,01,006,*7C
$GPRMC,083259.000,A,5229.6588,N,01319.4709,E,1.52,86.03,130912,,,A*57
$GPGGA,083300.000,5229.6586,N,01319.4712,E,1,07,1.4,51.3,M,44.8,M,,0000*62
$GPGSA,A,3,09,12,27,14,04,25,02,,,,,,2.9,1.4,2.6*33
$GPRMC,083300.000,A,5229.6586,N,01319.4712,E,0.92,87.56,130912,,,A*52
$GPGGA,083301.000,5229.6582,N,01319.4708,E,1,06,1.5,49.8,M,44.8,M,,0000*6E
$GPGSA,A,3,12,27,14,04,25,02,,,,,,,3.0,1.5,2.6*33
$GPRMC,083301.000,A,5229.6582,N,01319.4708,E,0.84,227.82,130912,,,A*6A
$GPGGA,083302.000,5229.6580,N,01319.4701,E,1,06,1.5,48.4,M,44.8,M,,0000*6B
$GPGSA,A,3,12,27,14,04,25,02,,,,,,,3.0,1.5,2.6*33
$GPRMC,083302.000,A,5229.6580,N,01319.4701,E,1.34,276.10,130912,,,A*67
$GPGGA,083303.000,5229.6580,N,01319.4692,E,1,07,1.4,47.1,M,44.8,M,,0000*6B
$GPGSA,A,3,12,27,14,04,25,09,02,,,,,,2.9,1.4,2.6*33
$GPRMC,083303.000,A,5229.6580,N,01319.4692,E,2.21,310.16,130912,,,A*6D
$GPGGA,083304.000,5229.6583,N,01319.4686,E,1,07,1.4,46.0,M,44.8,M,,0000*6A
$GPGSA,A,3,12,27,14,04,25,09,02,,,,,,2.9,1.4,2.6*33
$GPGSV,3,1,12,12,84,028,40,25,50,270,40,14,40,277,43,09,38,143,25*7D
$GPGSV,3,2,12,27,30,143,26,04,26,068,31,02,26,115,38,29,20,206,24*70
$GPGSV,3,3,12,31,06,309,19,32,04,339,15,17,02,042,17,20,01,006,*75
$GPRMC,083304.000,A,5229.6583,N,01319.4686,E,2.64,333.83,130912,,,A*60
$GPGGA,083305.000,5229.6582,N,01319.4681,E,1,07,1.4,45.2,M,44.8,M,,0000*6C
$GPGSA,A,3,12,27,14,04,25,09,02,,,,,,2.9,1.4,2.6*33
$GPRMC,083305.000,A,5229.6582,N,01319.4681,E,1.34,332.85,130912,,,A*66
$GPGGA,083306.000,5229.6580,N,01319.4678,E,1,07,1.4,44.5,M,44.8,M,,0000*6D
$GPGSA,A,3,12,27,14,04,25,09,02,,,,,,2.9,1.4,2.6*33
$GPRMC,083309.000,A,5229.6568,N,01319.4663,E,0.84,300.99,130912,,,A*64
$GPGGA,083310.000,5229.6562,N,01319.4655,E,1,07,1.4,42.4,M,44.8,M,,0000*6E
$GPGSA,A,3,09,12,27,14,04,25,02,,,,,,2.9,1.4,2.6*33
$GPRMC,083310.000,A,5229.6562,N,01319.4655,E,1.31,243.65,130912,,,A*69
$GPGGA,083311.000,5229.6557,N,01319.4647,E,1,07,1.4,42.0,M,44.8,M,,0000*6E
$GPGSA,A,3,09,12,27,14,04,25,02,,,,,,2.9,1.4,2.6*33
$GPRMC,083311.000,A,5229.6557,N,01319.4647,E,1.22,243.06,130912,,,A*6A
$GPGGA,083312.000,5229.6553,N,01319.4640,E,1,07,1.4,41.6,M,44.8,M,,0000*6B
$GPGSA,A,3,09,12,27,14,04,25,02,,,,,,2.9,1.4,2.6*33
$GPRMC,083312.000,A,5229.6553,N,01319.4640,E,1.06,250.86,130912,,,A*66
$GPGGA,083313.000,5229.6548,N,01319.4633,E,1,06,1.4,41.1,M,44.8,M,,0000*62
$GPGSA,A,3,09,12,27,14,04,25,,,,,,,3.0,1.4,2.6*39
$GPRMC,083313.000,A,5229.6548,N,01319.4633,E,1.27,240.53,130912,,,A*63
$GPGGA,083314.000,5229.6548,N,01319.4624,E,1,07,1.4,40.5,M,44.8,M,,0000*67
$GPGSA,A,3,09,12,27,14,04,25,02,,,,,,2.9,1.4,2.6*33
$GPGSV,3,1,12,12,84,028,46,25,50,270,48,14,40,277,47,09,38,143,28*7A
$GPGSV,3,2,12,27,30,143,27,04,26,068,31,02,26,115,27,29,20,206,27*7C
$GPGSV,3,3,12,31,06,309,22,32,04,339,20,17,02,042,18,20,01,006,*74
$GPRMC,083314.000,A,5229.6548,N,01319.4624,E,1.76,301.61,130912,,,A*63
$GPGGA,083315.000,5229.6548,N,01319.4614,E,1,07,1.4,40.0,M,44.8,M,,0000*60
$GPGSA,A,3,09,12,27,14,04,25,02,,,,,,2.9,1.4,2.6*33
$GPRMC,083315.000,A,5229.6548,N,01319.4614,E,1.98,302.25,130912,,,A*62
$GPGGA,083316.000,5229.6544,N,01319.4603,E,1,06,1.4,39.5,M,44.8,M,,0000*63
$GPGSA,A,3,09,12,27,14,04,25,,,,,,,3.0,1.4,2.6*39
$GPRMC,083316.000,A,5229.6544,N,01319.4603,E,1.94,261.58,130912,,,A*69
$GPGGA,083317.000,5229.6541,N,01319.4593,E,1,06,1.5,39.1,M,44.8,M,,0000*68
$GPGSA,A,3,09,12,14,04,25,02,,,,,,,3.0,1.5,2.6*3F
$GPRMC,083317.000,A,5229.6541,N,01319.4593,E,1.87,277.69,130912,,,A*60
$GPGGA,083318.000,5229.6539,N,01319.4586,E,1,06,1.5,38.6,M,44.8,M,,0000*6A
$GPGSA,A,3,09,12,14,04,25,02,,,,,,,3.0,1.5,2.6*3F
$GPRMC,083318.000,A,5229.6539,N,01319.4586,E,1.34,306.60,130912,,,A*62
$GPGGA,083319.000,5229.6537,N,01319.4581,E,1,07,1.4,38.1,M,44.8,M,,0000*65
$GPGSA,A,3,09,12,27,14,04,25,02,,,,,,2.9,1.4,2.6*33
$GPGSV,3,1,12,12,84,032,47,25,50,270,40,14,39,277,33,09,37,143,31*72
$GPGSV,3,2,12,27,30,143,25,02,26,114,28,04,26,068,35,29,21,206,25*77
$GPGSV,3,3,12,31,06,309,21,32,04,339,19,17,02,042,18,20,01,006,*7D
$GPRMC,083319.000,A,5229.6537,N,01319.4581,E,0.84,308.20,130912,,,A*6A
$GPGGA,083320.000,5229.6533,N,01319.4572,E,1,06,1.4,37.6,M,44.8,M,,0000*6E
$GPGSA,A,3,09,12,27,14,04,25,,,,,,,3.0,1.4,2.6*39
$GPRMC,083320.000,A,5229.6533,N,01319.4572,E,1.71,272.21,130912,,,A*6E
$GPGGA,083321.000,5229.6528,N,01319.4563,E,1,07,1.4,37.1,M,44.8,M,,0000*63
$GPGSA,A,3,09,12,27,14,04,25,02,,,,,,2.9,1.4,2.6*33
$GPRMC,083321.000,A,5229.6528,N,01319.4563,E,1.50,270.02,130912,,,A*65
$GPGGA,083322.000,5229.6522,N,01319.4556,E,1,07,1.4,36.7,M,44.8,M,,0000*6B
$GPGSA,A,3,09,12,27,14,04,25,02,,,,,,2.9,1.4,2.6*33
$GPRMC,083322.000,A,5229.6522,N,01319.4556,E,1.40,245.24,130912,,,A*69
$GPGGA,083323.000,5229.6517,N,01319.4549,E,1,07,1.4,36.3,M,44.8,M,,0000*66
$GPGSA,A,3,09,12,27,14,04,25,02,,,,,,2.9,1.4,2.6*33
$GPRMC,083323.000,A,5229.6517,N,01319.4549,E,1.52,259.38,130912,,,A*63
$GPGGA,083324.000,5229.6511,N,01319.4547,E,1,07,1.4,35.8,M,44.8,M,,0000*61
$GPGSA,A,3,09,12,27,14,04,25,02,,,,,,2.9,1.4,2.6*33
$GPGSV,3,1,12,12,84,032,38,25,50,270,49,14,39,277,48,09,37,143,32*7C
$GPGSV,3,2,12,27,30,143,30,02,26,114,31,04,26,068,34,29,21,206,31*7F
$GPGSV,3,3,12,31,06,309,20,32,04,339,20,17,02,042,17,20,01,006,*79
$GPRMC,083338.000,A,5229.6503,N,01319.4530,E,1.80,27.24,130912,,,A*5B
$GPGGA,083339.000,5229.6506,N,01319.4534,E,1,07,1.4,35.9,M,44.8,M,,0000*6E
$GPGSA,A,3,09,12,27,14,04,25,02,,,,,,2.9,1.4,2.6*33
$GPGSV,3,1,12,12,84,032,29,25,50,270,42,14,39,277,44,09,37,143,29*71
$GPGSV,3,2,12,27,30,143,29,02,26,114,34,04,26,068,39,29,21,206,28*77
$GPGSV,3,3,12,31,06,309,,32,04,339,,17,02,042,20,20,01,006,*7D
$GPRMC,083339.000,A,5229.6506,N,01319.4534,E,1.37,62.31,130912,,,A*52
$GPGGA,083340.000,5229.6509,N,01319.4535,E,1,07,1.4,36.2,M,44.8,M,,0000*66
$GPGSA,A,3,09,12,27,14,04,25,02,,,,,,2.9,1.4,2.6*33
$GPRMC,083340.000,A,5229.6509,N,01319.4535,E,1.17,38.50,130912,,,A*58
$GPGGA,083341.000,5229.6509,N,01319.4536,E,1,07,1.4,36.4,M,44.8,M,,0000*62
$GPGSA,A,3,09,12,27,14,04,25,02,,,,,,2.9,1.4,2.6*33
$GPRMC,083358.000,A,5229.6521,N,01319.4548,E,1.14,116.42,130912,,,A*6C
$GPGGA,083359.000,5229.6517,N,01319.4555,E,1,05,1.8,51.9,M,44.8,M,,0000*63
$GPGSA,A,3,12,04,25,02,09,,,,,,,,3.6,1.8,3.1*37
$GPGSV,3,1,12,12,84,032,20,25,50,270,20,14,39,277,14,09,37,143,17*74
$GPGSV,3,2,12,27,30,143,,02,26,114,18,04,26,068,19,29,21,206,*7A
$GPGSV,3,3,12,31,06,309,,32,04,339,,17,02,042,,20,01,006,*7F
$GPRMC,083359.000,A,5229.6517,N,01319.4555,E,2.12,138.47,130912,,,A*68
$GPGGA,083400.000,5229.6512,N,01319.4564,E,1,05,1.8,52.7,M,44.8,M,,0000*62
$GPGSA,A,3,12,04,25,02,09,,,,,,,,3.6,1.8,3.1*37
$GPRMC,083400.000,A,5229.6512,N,01319.4564,E,2.50,140.07,130912,,,A*69
$GPGGA,083401.000,5229.6505,N,01319.4570,E,1,06,1.5,53.1,M,44.8,M,,0000*69
$GPGSA,A,3,12,14,04,25,02,09,,,,,,,3.0,1.5,2.6*3F
$GPRMC,083401.000,A,5229.6505,N,01319.4570,E,2.66,157.02,130912,,,A*6D
$GPGGA,083402.000,5229.6499,N,01319.4576,E,1,04,1.6,53.3,M,44.8,M,,0000*6B
$GPGSA,A,3,14,04,25,09,,,,,,,,,1.9,1.6,1.0*33
$GPRMC,083402.000,A,5229.6499,N,01319.4576,E,2.78,154.51,130912,,,A*66
$GPGGA,083403.000,5229.6491,N,01319.4583,E,1,05,2.2,53.5,M,44.8,M,,0000*68
$GPGSA,A,3,14,04,25,02,09,,,,,,,,8.8,2.2,8.5*32
$GPRMC,083403.000,A,5229.6491,N,01319.4583,E,3.67,160.24,130912,,,A*6F
$GPGGA,083404.000,5229.6480,N,01319.4591,E,1,03,1.7,53.6,M,44.8,M,,0000*6F
$GPGSA,A,2,04,25,09,,,,,,,,,,2.0,1.7,1.0*3C
$GPGSV,3,1,12,12,84,032,07,25,50,270,19,14,39,277,18,09,37,143,15*75
$GPGSV,3,2,12,27,30,143,,02,26,114,15,04,26,068,20,29,21,206,*7D
$GPGSV,3,3,12,31,06,309,,32,04,339,,17,02,042,,20,01,006,*7F
$GPRMC,083404.000,A,5229.6480,N,01319.4591,E,4.42,160.61,130912,,,A*6A
$GPGGA,083405.000,5229.6468,N,01319.4601,E,0,03,,53.7,M,44.8,M,,0000*4A
$GPGSA,A,1,14,25,09,,,,,,,,,,,,*15
$GPRMC,084151.000,A,5230.0190,N,01321.0620,E,30.58,110.91,130912,,,A*50
$GPGGA,084152.000,5230.0127,N,01321.0691,E,1,05,1.8,33.7,M,44.8,M,,0000*6A
$GPGSA,A,3,12,09,25,04,02,,,,,,,,3.7,1.8,3.3*34
$GPRMC,084152.000,A,5230.0127,N,01321.0691,E,30.56,109.20,130912,,,A*59
$GPGGA,084153.000,5230.0094,N,01321.0821,E,1,05,1.8,35.0,M,44.8,M,,0000*66
$GPGSA,A,3,12,09,25,04,02,,,,,,,,3.7,1.8,3.3*34
$GPRMC,084153.000,A,5230.0094,N,01321.0821,E,30.49,109.23,130912,,,A*59
$GPGGA,084154.000,5230.0058,N,01321.0950,E,1,05,1.8,36.7,M,44.8,M,,0000*62
$GPGSA,A,3,12,09,25,04,02,,,,,,,,3.7,1.8,3.3*34
$GPGSV,3,1,11,12,82,048,31,25,53,272,34,14,39,273,,09,35,144,25*7D
$GPGSV,3,2,11,02,28,112,28,27,27,144,,04,26,065,22,29,23,207,19*7D
$GPGSV,3,3,11,31,09,309,,32,04,337,,20,01,003,*4A
$GPRMC,084154.000,A,5230.0058,N,01321.0950,E,30.16,110.16,130912,,,A*5D
$GPGGA,084155.000,5230.0023,N,01321.1076,E,1,05,1.8,38.3,M,44.8,M,,0000*69
$GPGSA,A,3,12,09,25,04,02,,,,,,,,3.7,1.8,3.3*34
$GPRMC,084155.000,A,5230.0023,N,01321.1076,E,30.15,110.89,130912,,,A*59
$GPGGA,084156.000,5229.9986,N,01321.1201,E,1,06,1.7,40.1,M,44.8,M,,0000*6E
$GPGSA,A,3,12,09,25,04,02,27,,,,,,,3.6,1.7,3.2*3E
$GPRMC,084156.000,A,5229.9986,N,01321.1201,E,29.89,111.83,130912,,,A*59
$GPGGA,084157.000,5229.9955,N,01321.1325,E,1,07,1.3,41.6,M,44.8,M,,0000*65
$GPGSA,A,3,12,09,25,04,02,14,27,,,,,,2.8,1.3,2.5*36
$GPRMC,084157.000,A,5229.9955,N,01321.1325,E,29.57,108.98,130912,,,A*50
$GPGGA,084158.000,5229.9925,N,01321.1449,E,1,07,1.3,42.9,M,44.8,M,,0000*6C
$GPGSA,A,3,12,09,25,04,02,14,27,,,,,,2.8,1.3,2.5*36
$GPRMC,084158.000,A,5229.9925,N,01321.1449,E,29.45,108.76,130912,,,A*56
$GPGGA,084159.000,5229.9895,N,01321.1570,E,1,07,1.3,44.0,M,44.8,M,,0000*63
$GPGSA,A,3,12,09,25,04,02,14,27,,,,,,2.8,1.3,2.5*36
$GPGSV,3,1,11,12,82,048,31,25,53,272,29,14,39,273,21,09,35,144,24*73
$GPGSV,3,2,11,02,28,112,28,27,27,144,27,04,26,065,22,29,23,207,17*76
$GPGSV,3,3,11,31,09,309,,32,04,337,,20,01,003,*4A
$GPRMC,084159.000,A,5229.9895,N,01321.1570,E,28.55,109.55,130912,,,A*56
$GPGGA,084200.000,5229.9863,N,01321.1691,E,1,07,1.3,45.1,M,44.8,M,,0000*69
$GPGSA,A,3,12,09,25,04,02,14,27,,,,,,2.8,1.3,2.5*36
$GPRMC,084200.000,A,5229.9863,N,01321.1691,E,28.93,110.41,130912,,,A*5B
$GPGGA,084201.000,5229.9833,N,01321.1809,E,1,07,1.3,46.0,M,44.8,M,,0000*60
$GPGSA,A,3,12,09,25,04,02,14,27,,,,,,2.8,1.3,2.5*36
$GPRMC,084201.000,A,5229.9833,N,01321.1809,E,28.04,110.33,130912,,,A*5B
$GPGGA,084202.000,5229.9804,N,01321.1920,E,1,07,1.3,46.9,M,44.8,M,,0000*64
$GPGSA,A,3,12,09,25,04,02,14,27,,,,,,2.8,1.3,2.5*36
$GPRMC,084202.000,A,5229.9804,N,01321.1920,E,26.51,110.64,130912,,,A*5A
$GPGGA,084203.000,5229.9777,N,01321.2022,E,1,07,1.3,47.7,M,44.8,M,,0000*69
$GPGSA,A,3,12,09,25,04,02,14,27,,,,,,2.8,1.3,2.5*36
$GPRMC,084203.000,A,5229.9777,N,01321.2022,E,24.19,110.82,130912,,,A*5E
$GPGGA,084204.000,5229.9751,N,01321.2117,E,1,07,1.3,48.5,M,44.8,M,,0000*60
$GPGSA,A,3,12,09,25,04,02,14,27,,,,,,2.8,1.3,2.5*36
$GPGSV,3,1,11,12,82,048,34,25,53,272,34,14,39,273,26,09,35,144,30*78
$GPGSV,3,2,11,02,28,112,19,27,27,144,27,04,26,065,20,29,23,207,42*76
$GPGSV,3,3,11,31,09,309,,32,04,337,,20,01,003,*4A
$GPRMC,084204.000,A,5229.9751,N,01321.2117,E,22.73,111.58,130912,,,A*56
$GPGGA,084205.000,5229.9727,N,01321.2202,E,1,07,1.3,49.2,M,44.8,M,,0000*61
$GPGSA,A,3,12,09,25,04,02,14,27,,,,,,2.8,1.3,2.5*36
$GPRMC,084205.000,A,5229.9727,N,01321.2202,E,20.53,112.28,130912,,,A*55
$GPGGA,084206.000,5229.9707,N,01321.2280,E,1,07,1.3,49.3,M,44.8,M,,0000*6B
$GPGSA,A,3,12,09,25,04,02,14,27,,,,,,2.8,1.3,2.5*36
$GPRMC,084206.000,A,5229.9707,N,01321.2280,E,18.79,111.10,130912,,,A*55
$GPGGA,084207.000,5229.9688,N,01321.2353,E,1,07,1.3,49.5,M,44.8,M,,0000*65
$GPGSA,A,3,12,09,25,04,02,14,27,,,,,,2.8,1.3,2.5*36
$GPRMC,084207.000,A,5229.9688,N,01321.2353,E,17.40,111.80,130912,,,A*51
$GPGGA,084208.000,5229.9669,N,01321.2425,E,0,00,,49.7,M,44.8,M,,0000*4B
$GPGSA,A,1,,,,,,,,,,,,,,,*1E
$GPRMC,084210.000,A,5229.9640,N,01321.2552,E,12.94,106.53,130912,,,A*50
$GPGGA,084211.000,5229.9634,N,01321.2589,E,1,07,1.3,51.5,M,44.8,M,,0000*6D
$GPGSA,A,3,12,09,25,04,02,14,27,,,,,,2.8,1.3,2.5*36
$GPRMC,084211.000,A,5229.9634,N,01321.2589,E,9.04,102.27,130912,,,A*60
$GPGGA,084212.000,5229.9623,N,01321.2616,E,1,07,1.3,52.1,M,44.8,M,,0000*6A
$GPGSA,A,3,12,09,25,04,02,14,27,,,,,,2.8,1.3,2.5*36
$GPRMC,084212.000,A,5229.9623,N,01321.2616,E,7.62,120.14,130912,,,A*6E
$GPGGA,084213.000,5229.9615,N,01321.2634,E,1,07,1.3,51.7,M,44.8,M,,0000*6B
$GPGSA,A,3,12,09,25,04,02,14,27,,,,,,2.8,1.3,2.5*36
$GPRMC,084213.000,A,5229.9615,N,01321.2634,E,5.78,118.72,130912,,,A*68
$GPGGA,084214.000,5229.9611,N,01321.2643,E,1,07,1.3,50.6,M,44.8,M,,0000*68
$GPGSA,A,3,12,09,25,04,02,14,27,,,,,,2.8,1.3,2.5*36
$GPGSV,3,1,11,12,82,048,26,25,53,272,30,14,39,273,23,09,35,144,27*7C
$GPGSV,3,2,11,02,28,112,22,27,27,144,28,04,26,065,24,29,23,207,31*71
$GPGSV,3,3,11,31,09,309,18,32,04,337,,20,01,003,*43
$GPRMC,084214.000,A,5229.9611,N,01321.2643,E,3.35,117.01,130912,,,A*6F
$GPGGA,084215.000,5229.9609,N,01321.2641,E,1,07,1.3,49.3,M,44.8,M,,0000*6F
$GPGSA,A,3,12,09,25,04,02,14,27,,,,,,2.8,1.3,2.5*36
$GPRMC,084215.000,A,5229.9609,N,01321.2641,E,0.88,150.21,130912,,,A*61
$GPGGA,084216.000,5229.9610,N,01321.2637,E,1,07,1.3,47.7,M,44.8,M,,0000*6F
$GPGSA,A,3,12,09,25,04,02,14,27,,,,,,2.8,1.3,2.5*36
$GPRMC,084228.000,A,5229.9622,N,01321.2580,E,1.33,230.07,130912,,,A*68
$GPGGA,084229.000,5229.9621,N,01321.2575,E,1,07,1.3,32.2,M,44.8,M,,0000*63
$GPGSA,A,3,12,09,25,04,02,14,27,,,,,,2.8,1.3,2.5*36
$GPGSV,3,1,11,12,80,054,24,25,54,273,31,14,39,272,27,09,33,144,24*76
$GPGSV,3,2,11,02,29,111,20,04,26,063,21,27,26,144,30,29,25,207,37*7A
$GPGSV,3,3,11,31,10,310,18,32,04,336,19,20,01,002,*4B
$GPRMC,084229.000,A,5229.9621,N,01321.2575,E,0.88,228.77,130912,,,A*6F
$GPGGA,084230.000,5229.9621,N,01321.2572,E,1,07,1.3,31.0,M,44.8,M,,0000*6D
$GPGSA,A,3,12,09,25,04,02,14,27,,,,,,2.8,1.3,2.5*36
$GPRMC,084238.000,A,5229.9622,N,01321.2553,E,1.30,104.46,130912,,,A*65
$GPGGA,084239.000,5229.9615,N,01321.2561,E,1,06,1.4,17.9,M,44.8,M,,0000*6A
$GPGSA,A,3,12,25,04,02,14,27,,,,,,,2.9,1.4,2.5*39
$GPGSV,3,1,11,12,80,054,24,25,54,273,31,14,39,272,27,09,33,144,*70
$GPGSV,3,2,11,02,29,111,24,04,26,063,28,27,26,144,28,29,25,207,34*7D
$GPGSV,3,3,11,31,10,310,23,32,04,336,26,20,01,002,*4F
$GPRMC,084239.000,A,5229.9615,N,01321.2561,E,3.25,145.60,130912,,,A*66
$GPGGA,084240.000,5229.9602,N,01321.2579,E,1,07,1.3,17.4,M,44.8,M,,0000*60
$GPGSA,A,3,12,09,25,04,02,14,27,,,,,,2.8,1.3,2.5*36
$GPRMC,084240.000,A,5229.9602,N,01321.2579,E,6.11,141.27,130912,,,A*62
$GPGGA,084241.000,5229.9590,N,01321.2605,E,1,07,1.3,17.4,M,44.8,M,,0000*61
$GPGSA,A,3,12,09,25,04,02,14,27,,,,,,2.8,1.3,2.5*36
$GPRMC,084241.000,A,5229.9590,N,01321.2605,E,6.75,129.49,130912,,,A*67
$GPGGA,084242.000,5229.9578,N,01321.2640,E,1,07,1.3,17.4,M,44.8,M,,0000*65
$GPGSA,A,3,12,09,25,04,02,14,27,,,,,,2.8,1.3,2.5*36
$GPRMC,084242.000,A,5229.9578,N,01321.2640,E,8.46,122.34,130912,,,A*6C
$GPGGA,084243.000,5229.9563,N,01321.2690,E,1,07,1.3,17.6,M,44.8,M,,0000*61
$GPGSA,A,3,12,09,25,04,02,14,27,,,,,,2.8,1.3,2.5*36
$GPRMC,084243.000,A,5229.9563,N,01321.2690,E,11.50,118.31,130912,,,A*59
$GPGGA,084244.000,5229.9545,N,01321.2752,E,1,07,1.3,17.9,M,44.8,M,,0000*62
$GPGSA,A,3,12,09,25,04,02,14,27,,,,,,2.8,1.3,2.5*36
$GPGSV,3,1,11,12,80,054,25,25,54,273,31,14,39,272,25,09,33,144,27*76
$GPGSV,3,2,11,02,29,111,24,04,26,063,24,27,26,144,28,29,25,207,30*75
$GPGSV,3,3,11,31,10,310,23,32,04,336,27,20,01,002,*4E
$GPRMC,084244.000,A,5229.9545,N,01321.2752,E,14.54,117.84,130912,,,A*55
$GPGGA,084245.000,5229.9525,N,01321.2825,E,1,07,1.3,18.2,M,44.8,M,,0000*6E
$GPGSA,A,3,12,09,25,04,02,14,27,,,,,,2.8,1.3,2.5*36
$GPRMC,084245.000,A,5229.9525,N,01321.2825,E,16.83,117.15,130912,,,A*5D
$GPGGA,084246.000,5229.9504,N,01321.2908,E,1,07,1.3,18.6,M,44.8,M,,0000*64
$GPGSA,A,3,12,09,25,04,02,14,27,,,,,,2.8,1.3,2.5*36
$GPRMC,084246.000,A,5229.9504,N,01321.2908,E,19.14,115.53,130912,,,A*52
$GPGGA,084247.000,5229.9481,N,01321.2994,E,1,07,1.3,19.0,M,44.8,M,,0000*6B
$GPGSA,A,3,12,09,25,04,02,14,27,,,,,,2.8,1.3,2.5*36
$GPRMC,084247.000,A,5229.9481,N,01321.2994,E,19.81,115.83,130912,,,A*5B
$GPGGA,084248.000,5229.9463,N,01321.3089,E,1,06,2.7,19.8,M,44.8,M,,0000*62
$GPGSA,A,3,12,09,25,02,14,27,,,,,,,4.4,2.7,3.6*3D
$GPRMC,084248.000,A,5229.9463,N,01321.3089,E,20.71,109.43,130912,,,A*58
$GPGGA,084249.000,5229.9443,N,01321.3197,E,1,06,2.7,20.7,M,44.8,M,,0000*6A
$GPGSA,A,3,12,09,25,02,14,27,,,,,,,4.4,2.7,3.6*3D
$GPGSV,3,1,11,12,80,054,34,25,54,273,31,14,39,272,25,09,33,144,32*72
$GPGSV,3,2,11,02,29,111,28,04,26,063,,27,26,144,35,29,25,207,22*70
$GPGSV,3,3,11,31,10,310,22,32,04,336,18,20,01,002,*43
$GPRMC,084249.000,A,5229.9443,N,01321.3197,E,23.41,109.00,130912,,,A*52
$GPGGA,084250.000,5229.9423,N,01321.3309,E,1,07,1.3,21.5,M,44.8,M,,0000*64
$GPGSA,A,3,12,09,25,04,02,14,27,,,,,,2.8,1.3,2.5*36
$GPRMC,084250.000,A,5229.9423,N,01321.3309,E,24.37,108.26,130912,,,A*5A
$GPGGA,084251.000,5229.9401,N,01321.3422,E,1,07,1.3,22.4,M,44.8,M,,0000*69
$GPGSA,A,3,12,09,25,04,02,14,27,,,,,,2.8,1.3,2.5*36
$GPRMC,084251.000,A,5229.9401,N,01321.3422,E,25.02,110.10,130912,,,A*5E
$GPGGA,084252.000,5229.9376,N,01321.3538,E,1,07,1.3,23.7,M,44.8,M,,0000*65
$GPGSA,A,3,12,09,25,04,02,14,27,,,,,,2.8,1.3,2.5*36
$GPRMC,084252.000,A,5229.9376,N,01321.3538,E,25.77,111.50,130912,,,A*57
$GPGGA,084253.000,5229.9351,N,01321.3656,E,1,07,1.3,24.8,M,44.8,M,,0000*62
$GPGSA,A,3,12,09,25,04,02,14,27,,,,,,2.8,1.3,2.5*36
$GPRMC,084253.000,A,5229.9351,N,01321.3656,E,26.30,111.08,130912,,,A*55
$GPGGA,084254.000,5229.9326,N,01321.3777,E,1,07,1.3,26.0,M,44.8,M,,0000*6D
$GPGSA,A,3,12,09,25,04,02,14,27,,,,,,2.8,1.3,2.5*36
$GPGSV,3,1,11,12,80,054,31,25,54,273,31,14,39,272,24,09,33,144,32*76
$GPGSV,3,2,11,02,29,111,29,04,26,063,27,27,26,144,34,29,25,207,19*7D
$GPGSV,3,3,11,31,10,310,23,32,04,336,16,20,01,002,*4C
$GPRMC,084254.000,A,5229.9326,N,01321.3777,E,27.00,111.32,130912,,,A*5B
$GPGGA,084255.000,5229.9302,N,01321.3903,E,1,07,1.3,27.0,M,44.8,M,,0000*66
$GPGSA,A,3,12,09,25,04,02,14,27,,,,,,2.8,1.3,2.5*36
$GPRMC,084255.000,A,5229.9302,N,01321.3903,E,27.73,110.21,130912,,,A*56
$GPGGA,084256.000,5229.9278,N,01321.4031,E,1,07,1.3,28.0,M,44.8,M,,0000*69
$GPGSA,A,3,12,09,25,04,02,14,27,,,,,,2.8,1.3,2.5*36
$GPRMC,084256.000,A,5229.9278,N,01321.4031,E,28.39,109.46,130912,,,A*5E
$GPGGA,084257.000,5229.9254,N,01321.4162,E,1,06,2.7,29.3,M,44.8,M,,0000*65
$GPGSA,A,3,12,09,25,02,14,27,,,,,,,4.4,2.7,3.6*3D
$GPRMC,084257.000,A,5229.9254,N,01321.4162,E,28.86,109.89,130912,,,A*51
$GPGGA,084258.000,5229.9228,N,01321.4297,E,1,06,2.7,30.9,M,44.8,M,,0000*6A
$GPGSA,A,3,12,09,25,02,14,27,,,,,,,4.5,2.7,3.6*3C
$GPRMC,084258.000,A,5229.9228,N,01321.4297,E,29.67,109.62,130912,,,A*57
$GPGGA,084259.000,5229.9203,N,01321.4433,E,1,07,1.3,32.2,M,44.8,M,,0000*65
$GPGSA,A,3,12,09,25,04,02,14,27,,,,,,2.8,1.3,2.5*36
$GPGSV,3,1,11,12,80,054,31,25,54,273,32,14,39,272,24,09,33,144,32*75
$GPGSV,3,2,11,02,29,111,29,04,26,063,25,27,26,144,34,29,25,207,25*70
$GPGSV,3,3,11,31,10,310,23,32,04,336,15,20,01,002,*4F
$GPRMC,084259.000,A,5229.9203,N,01321.4433,E,30.13,109.13,130912,,,A*5A
$GPGGA,084300.000,5229.9177,N,01321.4570,E,1,07,1.3,33.4,M,44.8,M,,0000*69
$GPGSA,A,3,12,09,25,04,02,14,27,,,,,,2.8,1.3,2.5*36
$GPRMC,084300.000,A,5229.9177,N,01321.4570,E,30.29,109.95,130912,,,A*56
$GPGGA,084301.000,5229.9149,N,01321.4707,E,1,07,1.3,34.6,M,44.8,M,,0000*62
$GPGSA,A,3,12,09,25,04,02,14,27,,,,,,2.8,1.3,2.5*36
$GPRMC,084301.000,A,5229.9149,N,01321.4707,E,30.66,110.68,130912,,,A*59
$GPGGA,084302.000,5229.9122,N,01321.4846,E,1,07,1.3,35.5,M,44.8,M,,0000*64
$GPGSA,A,3,12,09,25,04,02,14,27,,,,,,2.8,1.3,2.5*36
$GPRMC,084302.000,A,5229.9122,N,01321.4846,E,31.11,110.04,130912,,,A*56
$GPGGA,084303.000,5229.9096,N,01321.4987,E,1,07,1.3,36.3,M,44.8,M,,0000*62
$GPGSA,A,3,12,09,25,04,02,14,27,,,,,,2.8,1.3,2.5*36
$GPRMC,084303.000,A,5229.9096,N,01321.4987,E,31.56,109.33,130912,,,A*5A
$GPGGA,084304.000,5229.9069,N,01321.5131,E,1,07,1.3,36.9,M,44.8,M,,0000*6B
$GPGSA,A,3,12,09,25,04,02,14,27,,,,,,2.8,1.3,2.5*36
$GPGSV,3,1,11,12,80,054,30,25,54,273,32,14,39,272,23,09,33,144,32*73
$GPGSV,3,2,11,02,29,111,28,04,26,063,26,27,26,144,34,29,25,207,26*71
$GPGSV,3,3,11,31,10,310,17,32,04,336,,20,01,002,*4C
$GPRMC,084304.000,A,5229.9069,N,01321.5131,E,32.16,109.56,130912,,,A*5D
$GPGGA,084305.000,5229.9042,N,01321.5274,E,1,07,1.3,37.6,M,44.8,M,,0000*6F
$GPGSA,A,3,12,09,25,04,02,14,27,,,,,,2.8,1.3,2.5*36
$GPRMC,084305.000,A,5229.9042,N,01321.5274,E,32.18,109.53,130912,,,A*5C
$GPGGA,084306.000,5229.9015,N,01321.5417,E,1,07,1.3,38.1,M,44.8,M,,0000*65
$GPGSA,A,3,12,09,25,04,02,14,27,,,,,,2.8,1.3,2.5*36
$GPRMC,084306.000,A,5229.9015,N,01321.5417,E,32.24,109.24,130912,,,A*51
$GPGGA,084307.000,5229.8988,N,01321.5560,E,1,07,1.3,38.6,M,44.8,M,,0000*6E
$GPGSA,A,3,12,09,25,04,02,14,27,,,,,,2.8,1.3,2.5*36
$GPRMC,084307.000,A,5229.8988,N,01321.5560,E,32.15,109.06,130912,,,A*5F
$GPGGA,084308.000,5229.8961,N,01321.5702,E,1,07,1.3,39.0,M,44.8,M,,0000*67
$GPGSA,A,3,12,09,25,04,02,14,27,,,,,,2.8,1.3,2.5*36
$GPRMC,084308.000,A,5229.8961,N,01321.5702,E,32.07,109.06,130912,,,A*52
$GPGGA,084309.000,5229.8934,N,01321.5844,E,1,07,1.3,39.4,M,44.8,M,,0000*6F
$GPGSA,A,3,12,09,25,04,02,14,27,,,,,,2.8,1.3,2.5*36
$GPGSV,3,1,11,12,80,054,31,25,54,273,32,14,39,272,23,09,33,144,32*72
$GPGSV,3,2,11,02,29,111,28,04,26,063,29,27,26,144,34,29,25,207,35*7C
$GPGSV,3,3,11,31,10,310,18,32,04,336,,20,01,002,*43
$GPRMC,084309.000,A,5229.8934,N,01321.5844,E,32.20,109.07,130912,,,A*5A
$GPGGA,084310.000,5229.8907,N,01321.5985,E,1,07,1.3,39.9,M,44.8,M,,0000*66
$GPGSA,A,3,12,09,25,04,02,14,27,,,,,,2.8,1.3,2.5*36
$GPRMC,084310.000,A,5229.8907,N,01321.5985,E,31.90,109.13,130912,,,A*53
$GPGGA,084311.000,5229.8880,N,01321.6126,E,1,07,1.3,40.5,M,44.8,M,,0000*69
$GPGSA,A,3,12,09,25,04,02,14,27,,,,,,2.8,1.3,2.5*36
$GPRMC,084311.000,A,5229.8880,N,01321.6126,E,31.96,108.77,130912,,,A*5B
$GPGGA,084312.000,5229.8851,N,01321.6265,E,1,07,1.3,41.1,M,44.8,M,,0000*67
$GPGSA,A,3,12,09,25,04,02,14,27,,,,,,2.8,1.3,2.5*36
$GPRMC,084312.000,A,5229.8851,N,01321.6265,E,31.56,110.01,130912,,,A*54
$GPGGA,084313.000,5229.8823,N,01321.6403,E,1,07,1.3,41.8,M,44.8,M,,0000*6C
$GPGSA,A,3,12,09,25,04,02,14,27,,,,,,2.8,1.3,2.5*36
$GPRMC,084313.000,A,5229.8823,N,01321.6403,E,31.41,109.60,130912,,,A*5F
$GPGGA,084314.000,5229.8796,N,01321.6540,E,1,07,1.3,42.2,M,44.8,M,,0000*65
$GPGSA,A,3,12,09,25,04,02,14,27,,,,,,2.8,1.3,2.5*36
$GPGSV,3,1,11,12,80,054,32,25,54,273,31,14,39,272,22,09,33,144,32*73
$GPGSV,3,2,11,02,29,111,28,04,26,063,31,27,26,144,33,29,25,207,24*72
$GPGSV,3,3,11,31,10,310,19,32,04,336,,20,01,002,*42
$GPRMC,084314.000,A,5229.8796,N,01321.6540,E,31.27,109.18,130912,,,A*50
$GPGGA,084315.000,5229.8769,N,01321.6677,E,1,07,1.3,42.5,M,44.8,M,,0000*64
$GPGSA,A,3,12,09,25,04,02,14,27,,,,,,2.8,1.3,2.5*36
$GPRMC,084315.000,A,5229.8769,N,01321.6677,E,31.20,109.03,130912,,,A*5B
$GPGGA,084316.000,5229.8743,N,01321.6811,E,1,07,1.3,42.6,M,44.8,M,,0000*62
$GPGSA,A,3,12,09,25,04,02,14,27,,,,,,2.8,1.3,2.5*36
$GPRMC,084316.000,A,5229.8743,N,01321.6811,E,30.48,109.03,130912,,,A*51
$GPGGA,084317.000,5229.8718,N,01321.6941,E,1,07,1.3,42.7,M,44.8,M,,0000*68
$GPGSA,A,3,12,09,25,04,02,14,27,,,,,,2.8,1.3,2.5*36
$GPRMC,084317.000,A,5229.8718,N,01321.6941,E,29.42,109.00,130912,,,A*5B
$GPGGA,084318.000,5229.8694,N,01321.7067,E,1,07,1.3,42.9,M,44.8,M,,0000*60
$GPGSA,A,3,12,09,25,04,02,14,27,,,,,,2.8,1.3,2.5*36
$GPRMC,084318.000,A,5229.8694,N,01321.7067,E,28.44,108.43,130912,,,A*5C
$GPGGA,084319.000,5229.8673,N,01321.7186,E,1,07,1.3,42.9,M,44.8,M,,0000*66
$GPGSA,A,3,12,09,25,04,02,14,27,,,,,,2.8,1.3,2.5*36
$GPGSV,3,1,11,12,80,055,32,25,54,274,31,14,39,271,28,09,33,145,32*7D
$GPGSV,3,2,11,02,29,111,28,04,26,063,20,27,26,144,29,29,25,208,35*76
$GPGSV,3,3,11,31,10,310,18,32,04,335,,20,01,002,*40
$GPRMC,084319.000,A,5229.8673,N,01321.7186,E,26.82,107.02,130912,,,A*54
$GPGGA,084320.000,5229.8654,N,01321.7298,E,1,07,1.3,43.0,M,44.8,M,,0000*6D
$GPGSA,A,3,12,09,25,04,02,14,27,,,,,,2.8,1.3,2.5*36
$GPRMC,084320.000,A,5229.8654,N,01321.7298,E,25.29,107.34,130912,,,A*50
$GPGGA,084321.000,5229.8635,N,01321.7403,E,1,07,1.3,43.1,M,44.8,M,,0000*6E
$GPGSA,A,3,12,09,25,04,02,14,27,,,,,,2.8,1.3,2.5*36
$GPRMC,084321.000,A,5229.8635,N,01321.7403,E,23.54,107.70,130912,,,A*5E
$GPGGA,084322.000,5229.8616,N,01321.7491,E,1,06,1.6,43.2,M,44.8,M,,0000*60
$GPGSA,A,3,09,25,04,02,14,27,,,,,,,6.0,1.6,5.8*36
$GPRMC,084322.000,A,5229.8616,N,01321.7491,E,20.32,110.96,130912,,,A*5A
$GPGGA,084323.000,5229.8594,N,01321.7567,E,1,05,2.8,43.5,M,44.8,M,,0000*69
$GPGSA,A,3,09,25,02,14,27,,,,,,,,6.9,2.8,6.3*3E
$GPRMC,084323.000,A,5229.8594,N,01321.7567,E,18.19,116.01,130912,,,A*50
$GPGGA,084324.000,5229.8575,N,01321.7625,E,1,05,2.5,43.8,M,44.8,M,,0000*64
$GPGSA,A,3,12,09,25,14,27,,,,,,,,2.7,2.5,1.0*3C
$GPGSV,3,1,11,12,80,055,16,25,54,274,20,14,39,271,20,09,33,145,19*7A
$GPGSV,3,2,11,02,29,111,18,04,26,063,17,27,26,144,20,29,25,208,26*7A
$GPGSV,3,3,11,31,10,310,17,32,04,335,,20,01,002,*4F
$GPRMC,084324.000,A,5229.8575,N,01321.7625,E,14.50,119.12,130912,,,A*51
$GPGGA,084325.000,5229.8551,N,01321.7652,E,1,06,1.3,44.1,M,44.8,M,,0000*6B
$GPGSA,A,3,12,09,25,04,14,27,,,,,,,2.8,1.3,2.5*34
$GPRMC,084325.000,A,5229.8551,N,01321.7652,E,10.67,141.91,130912,,,A*50
$GPGGA,084326.000,5229.8527,N,01321.7676,E,0,00,,44.4,M,44.8,M,,0000*41
$GPGSA,A,1,,,,,,,,,,,,,,,*1E
$GPRMC,084329.000,A,5229.8466,N,01321.7746,E,7.15,133.93,130912,,,A*69
$GPGGA,084330.000,5229.8463,N,01321.7762,E,1,05,1.7,45.3,M,44.8,M,,0000*69
$GPGSA,A,3,12,09,25,04,27,,,,,,,,3.6,1.7,3.2*3C
$GPRMC,084330.000,A,5229.8463,N,01321.7762,E,4.12,124.73,130912,,,A*6E
$GPGGA,084331.000,5229.8462,N,01321.7768,E,1,06,1.3,45.0,M,44.8,M,,0000*67
$GPGSA,A,3,12,09,25,04,14,27,,,,,,,2.8,1.3,2.5*34
$GPRMC,084331.000,A,5229.8462,N,01321.7768,E,1.75,129.24,130912,,,A*6F
$GPGGA,084332.000,5229.8461,N,01321.7774,E,1,05,1.6,44.8,M,44.8,M,,0000*65
$GPGSA,A,3,09,25,04,14,27,,,,,,,,6.2,1.6,5.9*37
$GPRMC,084332.000,A,5229.8461,N,01321.7774,E,1.46,135.64,130912,,,A*6B
$GPGGA,084333.000,5229.8462,N,01321.7780,E,1,06,1.6,44.5,M,44.8,M,,0000*62
$GPGSA,A,3,09,25,04,02,14,27,,,,,,,6.0,1.6,5.8*36
$GPRMC,084333.000,A,5229.8462,N,01321.7780,E,1.14,136.97,130912,,,A*6A
$GPGGA,084334.000,5229.8464,N,01321.7787,E,1,06,1.6,44.1,M,44.8,M,,0000*60
$GPGSA,A,3,09,25,04,02,14,27,,,,,,,6.0,1.6,5.8*36
$GPGSV,3,1,11,12,80,056,18,25,54,274,18,14,39,271,20,09,33,145,28*7E
$GPGSV,3,2,11,02,29,111,17,04,26,063,20,27,26,144,28,29,25,208,17*7B
$GPGSV,3,3,11,31,10,310,18,32,04,335,,20,01,002,*40
$GPRMC,084334.000,A,5229.8464,N,01321.7787,E,1.03,110.14,130912,,,A*65
$GPGGA,084335.000,5229.8467,N,01321.7794,E,1,06,1.6,43.8,M,44.8,M,,0000*6E
$GPGSA,A,3,09,25,04,02,14,27,,,,,,,6.0,1.6,5.8*36
$GPRMC,084335.000,A,5229.8467,N,01321.7794,E,0.88,113.03,130912,,,A*62
$GPGGA,084336.000,5229.8471,N,01321.7800,E,1,05,1.3,43.5,M,44.8,M,,0000*63
$GPGSA,A,3,09,04,02,14,27,,,,,,,,1.6,1.3,1.0*39
$GPRMC,084340.000,A,5229.8493,N,01321.7802,E,0.93,330.92,130912,,,A*6A
$GPGGA,084341.000,5229.8497,N,01321.7802,E,1,05,1.6,39.0,M,44.8,M,,0000*64
$GPGSA,A,3,09,25,04,14,27,,,,,,,,6.1,1.6,5.9*34
$GPRMC,084343.000,A,5229.8509,N,01321.7806,E,0.97,19.18,130912,,,A*51
$GPGGA,084344.000,5229.8513,N,01321.7806,E,1,05,1.6,36.7,M,44.8,M,,0000*60
$GPGSA,A,3,09,25,04,14,27,,,,,,,,6.1,1.6,5.9*34
$GPGSV,3,1,11,12,80,056,17,25,54,274,16,14,39,271,22,09,33,145,28*7D
$GPGSV,3,2,11,02,29,111,15,04,26,063,20,27,26,144,20,29,25,208,24*71
$GPGSV,3,3,11,31,10,310,17,32,04,335,,20,01,002,*4F
$GPRMC,084346.000,A,5229.8512,N,01321.7802,E,1.68,213.99,130912,,,A*6A
$GPGGA,084347.000,5229.8510,N,01321.7800,E,1,05,2.8,34.3,M,44.8,M,,0000*6D
$GPGSA,A,3,09,25,02,14,27,,,,,,,,6.9,2.8,6.3*3E
$GPRMC,084347.000,A,5229.8510,N,01321.7800,E,2.04,206.55,130912,,,A*66
$GPGGA,084348.000,5229.8506,N,01321.7796,E,1,05,2.8,33.4,M,44.8,M,,0000*65
$GPGSA,A,3,09,25,02,14,27,,,,,,,,6.9,2.8,6.3*3E
$GPRMC,084348.000,A,5229.8506,N,01321.7796,E,2.38,205.96,130912,,,A*6D
$GPGGA,084349.000,5229.8502,N,01321.7793,E,0,04,,32.8,M,44.8,M,,0000*4C
$GPGSA,A,1,09,25,14,27,,,,,,,,,,,*10
$GPGSV,3,1,11,12,80,056,15,25,54,274,18,14,39,271,22,09,33,145,28*71
$GPGSV,3,2,11,02,29,111,15,04,26,063,16,27,26,144,21,29,25,208,24*75
$GPGSV,3,3,11,31,10,310,15,32,04,335,,20,01,002,*4D
$GPRMC,084350.000,A,5229.8499,N,01321.7790,E,2.05,209.50,130912,,,A*6D
$GPGGA,084351.000,5229.8497,N,01321.7788,E,1,06,1.6,31.4,M,44.8,M,,0000*67
$GPGSA,A,3,09,25,04,02,14,27,,,,,,,5.9,1.6,5.7*33
$GPRMC,084351.000,A,5229.8497,N,01321.7788,E,1.30,215.65,130912,,,A*65
$GPGGA,084352.000,5229.8498,N,01321.7787,E,1,04,5.8,30.4,M,44.8,M,,0000*6D
$GPGSA,A,3,09,04,02,27,,,,,,,,,5.9,5.8,1.0*38
$GPRMC,084352.000,A,5229.8498,N,01321.7787,E,0.96,228.53,130912,,,A*60
$GPGGA,084353.000,5229.8501,N,01321.7786,E,1,07,1.3,29.5,M,44.8,M,,0000*69
$GPGSA,A,3,12,09,25,04,02,14,27,,,,,,2.8,1.3,2.5*36
$GPRMC,084355.000,A,5229.8513,N,01321.7795,E,2.08,26.44,130912,,,A*59
$GPGGA,084356.000,5229.8519,N,01321.7800,E,1,07,1.3,26.4,M,44.8,M,,0000*6A
$GPGSA,A,3,12,09,25,04,02,14,27,,,,,,2.8,1.3,2.5*36
$GPRMC,084356.000,A,5229.8519,N,01321.7800,E,1.85,26.11,130912,,,A*55
$GPGGA,084357.000,5229.8518,N,01321.7808,E,1,05,1.5,25.7,M,44.8,M,,0000*66
$GPGSA,A,3,12,04,02,14,27,,,,,,,,2.9,1.5,2.5*3F
$GPRMC,084357.000,A,5229.8518,N,01321.7808,E,1.52,125.56,130912,,,A*66
$GPGGA,084358.000,5229.8512,N,01321.7815,E,1,05,2.9,25.1,M,44.8,M,,0000*66
$GPGSA,A,3,12,09,25,02,14,,,,,,,,4.7,2.9,3.6*35
$GPRMC,084358.000,A,5229.8512,N,01321.7815,E,2.55,147.95,130912,,,A*60
$GPGGA,084359.000,5229.8510,N,01321.7833,E,1,05,2.9,24.5,M,44.8,M,,0000*64
$GPGSA,A,3,12,09,25,02,14,,,,,,,,4.7,2.9,3.6*35
$GPGSV,3,1,11,12,80,056,16,25,54,274,16,14,38,271,16,09,32,145,14*74
$GPGSV,3,2,11,02,29,110,13,04,26,062,09,29,26,208,15,27,25,144,17*7A
$GPGSV,3,3,11,31,11,310,16,32,04,335,,20,01,002,*4F
$GPRMC,084359.000,A,5229.8510,N,01321.7833,E,3.53,106.17,130912,,,A*6F
$GPGGA,084400.000,5229.8511,N,01321.7859,E,1,03,3.0,23.7,M,44.8,M,,0000*69
$GPGSA,A,2,12,09,25,,,,,,,,,,3.2,3.0,1.0*3D
$GPRMC,084400.000,A,5229.8511,N,01321.7859,E,5.34,87.97,130912,,,A*5E
$GPGGA,084401.000,5229.8511,N,01321.7877,E,1,05,1.5,23.0,M,44.8,M,,0000*62
$GPGSA,A,3,12,09,25,04,14,,,,,,,,3.0,1.5,2.6*3D
$GPRMC,084401.000,A,5229.8511,N,01321.7877,E,3.79,92.45,130912,,,A*57
$GPGGA,084402.000,5229.8508,N,01321.7902,E,1,03,3.3,22.3,M,44.8,M,,0000*6A
$GPGSA,A,2,12,02,27,,,,,,,,,,3.5,3.3,1.0*30
$GPRMC,084402.000,A,5229.8508,N,01321.7902,E,5.15,101.77,130912,,,A*69
$GPGGA,084403.000,5229.8504,N,01321.7926,E,0,00,,21.6,M,44.8,M,,0000*4B
$GPGSA,A,1,,,,,,,,,,,,,,,*1E
$GPRMC,084405.000,A,5229.8495,N,01321.8001,E,10.13,100.83,130912,,,A*56
$GPGGA,084406.000,5229.8484,N,01321.8084,E,1,07,1.3,18.5,M,44.8,M,,0000*6A
$GPGSA,A,3,12,09,25,04,02,14,27,,,,,,2.8,1.3,2.5*36
$GPRMC,084406.000,A,5229.8484,N,01321.8084,E,17.07,103.31,130912,,,A*50
$GPGGA,084407.000,5229.8469,N,01321.8179,E,1,06,2.7,17.1,M,44.8,M,,0000*66
$GPGSA,A,3,12,09,25,02,14,27,,,,,,,4.5,2.7,3.6*3C
$GPRMC,084407.000,A,5229.8469,N,01321.8179,E,19.68,104.61,130912,,,A*54
$GPGGA,084408.000,5229.8454,N,01321.8280,E,1,06,1.3,15.8,M,44.8,M,,0000*6E
$GPGSA,A,3,12,09,25,04,14,27,,,,,,,2.8,1.3,2.5*34
$GPRMC,084408.000,A,5229.8454,N,01321.8280,E,19.65,103.77,130912,,,A*5D
$GPGGA,084409.000,5229.8444,N,01321.8383,E,1,07,1.3,14.4,M,44.8,M,,0000*60
$GPGSA,A,3,12,09,25,04,02,14,27,,,,,,2.8,1.3,2.5*36
$GPGSV,3,1,11,12,80,056,31,25,54,274,26,14,38,271,28,09,32,145,28*70
$GPGSV,3,2,11,02,29,110,24,04,26,062,32,29,26,208,27,27,25,144,28*7B
$GPGSV,3,3,11,31,11,310,18,32,04,335,,20,01,002,*41
$GPRMC,084409.000,A,5229.8444,N,01321.8383,E,19.44,97.92,130912,,,A*6B
$GPGGA,084410.000,5229.8441,N,01321.8487,E,1,07,1.3,13.0,M,44.8,M,,0000*6D
$GPGSA,A,3,12,09,25,04,02,14,27,,,,,,2.8,1.3,2.5*36
$GPRMC,084410.000,A,5229.8441,N,01321.8487,E,19.47,92.04,130912,,,A*6C
$GPGGA,084411.000,5229.8441,N,01321.8597,E,1,06,2.7,11.7,M,44.8,M,,0000*6F
$GPGSA,A,3,12,09,25,02,14,27,,,,,,,4.5,2.7,3.6*3C
$GPRMC,084411.000,A,5229.8441,N,01321.8597,E,20.19,88.56,130912,,,A*60
$GPGGA,084412.000,5229.8443,N,01321.8710,E,1,06,2.7,10.3,M,44.8,M,,0000*66
$GPGSA,A,3,12,09,25,02,14,27,,,,,,,4.5,2.7,3.6*3C
$GPRMC,084412.000,A,5229.8443,N,01321.8710,E,20.55,86.39,130912,,,A*63
$GPGGA,084413.000,5229.8446,N,01321.8829,E,1,07,1.3,8.5,M,44.8,M,,0000*5E
$GPGSA,A,3,12,09,25,04,02,14,27,,,,,,2.8,1.3,2.5*36
$GPRMC,084413.000,A,5229.8446,N,01321.8829,E,21.48,83.95,130912,,,A*6C
$GPGGA,084414.000,5229.8446,N,01321.8947,E,1,07,1.3,6.3,M,44.8,M,,0000*58
$GPGSA,A,3,12,09,25,04,02,14,27,,,,,,2.8,1.3,2.5*36
$GPGSV,3,1,11,12,80,056,30,25,54,274,31,14,38,271,28,09,32,145,30*7E
$GPGSV,3,2,11,02,29,110,29,04,26,062,31,29,26,208,34,27,25,144,25*7A
$GPGSV,3,3,11,31,11,310,20,32,04,335,,20,01,002,*4A
$GPRMC,084414.000,A,5229.8446,N,01321.8947,E,21.06,86.51,130912,,,A*65
$GPGGA,084415.000,5229.8441,N,01321.9063,E,1,06,1.4,3.7,M,44.8,M,,0000*57
$GPGSA,A,3,12,09,25,04,02,14,,,,,,,2.9,1.4,2.5*35
$GPRMC,084415.000,A,5229.8441,N,01321.9063,E,20.94,92.54,130912,,,A*67
$GPGGA,084416.000,5229.8428,N,01321.9178,E,1,07,1.3,1.1,M,44.8,M,,0000*52
$GPGSA,A,3,12,09,25,04,02,14,27,,,,,,2.8,1.3,2.5*36
$GPRMC,084416.000,A,5229.8428,N,01321.9178,E,20.86,98.82,130912,,,A*62
$GPGGA,084417.000,5229.8407,N,01321.9288,E,1,07,1.3,-1.3,M,44.8,M,,0000*7D
$GPGSA,A,3,12,09,25,04,02,14,27,,,,,,2.8,1.3,2.5*36
$GPRMC,084417.000,A,5229.8407,N,01321.9288,E,20.56,105.58,130912,,,A*5D
$GPGGA,084418.000,5229.8385,N,01321.9397,E,1,07,1.3,-3.3,M,44.8,M,,0000*72
$GPGSA,A,3,12,09,25,04,02,14,27,,,,,,2.8,1.3,2.5*36
$GPRMC,084418.000,A,5229.8385,N,01321.9397,E,20.64,107.31,130912,,,A*5C
$GPGGA,084419.000,5229.8364,N,01321.9507,E,1,07,1.3,-5.1,M,44.8,M,,0000*77
$GPGSA,A,3,12,09,25,04,02,14,27,,,,,,2.8,1.3,2.5*36
$GPGSV,3,1,11,12,80,056,19,25,54,274,24,14,38,271,20,09,32,145,26*7E
$GPGSV,3,2,11,02,29,110,24,04,26,062,29,29,26,208,29,27,25,144,29*7E
$GPGSV,3,3,11,31,11,310,15,32,04,335,,20,01,002,*4C
$GPRMC,084419.000,A,5229.8364,N,01321.9507,E,20.66,106.81,130912,,,A*55
$GPGGA,084420.000,5229.8342,N,01321.9616,E,1,07,1.3,-6.6,M,44.8,M,,0000*7E
$GPGSA,A,3,12,09,25,04,02,14,27,,,,,,2.8,1.3,2.5*36
$GPRMC,084420.000,A,5229.8342,N,01321.9616,E,20.42,106.55,130912,,,A*57
$GPGGA,084421.000,5229.8321,N,01321.9724,E,1,07,1.3,-7.8,M,44.8,M,,0000*75
$GPGSA,A,3,12,09,25,04,02,14,27,,,,,,2.8,1.3,2.5*36
$GPRMC,084421.000,A,5229.8321,N,01321.9724,E,20.31,106.17,130912,,,A*51
$GPGGA,084422.000,5229.8300,N,01321.9832,E,1,07,1.3,-8.8,M,44.8,M,,0000*72
$GPGSA,A,3,12,09,25,04,02,14,27,,,,,,2.8,1.3,2.5*36
$GPRMC,084422.000,A,5229.8300,N,01321.9832,E,20.18,107.08,130912,,,A*5D
$GPGGA,084423.000,5229.8277,N,01321.9933,E,1,07,1.3,-9.5,M,44.8,M,,0000*7E
$GPGSA,A,3,12,09,25,04,02,14,27,,,,,,2.8,1.3,2.5*36
$GPRMC,084423.000,A,5229.8277,N,01321.9933,E,19.17,108.49,130912,,,A*52
$GPGGA,084424.000,5229.8257,N,01322.0035,E,1,07,1.3,-10.0,M,44.8,M,,0000*43
$GPGSA,A,3,12,09,25,04,02,14,27,,,,,,2.8,1.3,2.5*36
$GPGSV,3,1,11,12,80,056,23,25,54,274,29,14,38,271,27,09,32,145,28*73
$GPGSV,3,2,11,02,29,110,24,04,26,062,23,29,26,208,20,27,25,144,27*73
$GPGSV,3,3,11,31,11,310,27,32,04,335,,20,01,002,*4D
$GPRMC,084424.000,A,5229.8257,N,01322.0035,E,19.41,104.88,130912,,,A*50
$GPGGA,084425.000,5229.8245,N,01322.0140,E,1,06,1.4,-10.6,M,44.8,M,,0000*42
$GPGSA,A,3,12,25,04,02,14,27,,,,,,,2.9,1.4,2.5*39
$GPRMC,084425.000,A,5229.8245,N,01322.0140,E,19.37,97.74,130912,,,A*68
$GPGGA,084426.000,5229.8239,N,01322.0243,E,1,06,1.4,-11.2,M,44.8,M,,0000*4F
$GPGSA,A,3,12,25,04,02,14,27,,,,,,,2.9,1.4,2.5*39
$GPRMC,084426.000,A,5229.8239,N,01322.0243,E,18.99,91.98,130912,,,A*61
$GPGGA,084427.000,5229.8234,N,01322.0344,E,1,07,1.3,-12.2,M,44.8,M,,0000*40
$GPGSA,A,3,12,09,25,04,02,14,27,,,,,,2.8,1.3,2.5*36
$GPRMC,084427.000,A,5229.8234,N,01322.0344,E,18.72,89.97,130912,,,A*68
$GPGGA,084428.000,5229.8232,N,01322.0447,E,1,07,1.3,-13.4,M,44.8,M,,0000*4A
$GPGSA,A,3,12,09,25,04,02,14,27,,,,,,2.8,1.3,2.5*36
$GPRMC,084428.000,A,5229.8232,N,01322.0447,E,19.19,88.36,130912,,,A*63
$GPGGA,084429.000,5229.8229,N,01322.0556,E,1,07,1.3,-14.7,M,44.8,M,,0000*44
$GPGSA,A,3,12,09,25,04,02,14,27,,,,,,2.8,1.3,2.5*36
$GPGSV,3,1,11,12,80,056,23,25,54,274,22,14,38,271,23,09,32,145,34*71
$GPGSV,3,2,11,02,29,110,30,04,26,062,23,29,26,208,21,27,25,144,28*78
$GPGSV,3,3,11,31,11,310,31,32,04,335,,20,01,002,*4A
$GPRMC,084429.000,A,5229.8229,N,01322.0556,E,20.79,89.37,130912,,,A*65
$GPGGA,084430.000,5229.8227,N,01322.0666,E,1,07,1.3,-16.0,M,44.8,M,,0000*47
$GPGSA,A,3,12,09,25,04,02,14,27,,,,,,2.8,1.3,2.5*36
$GPRMC,084430.000,A,5229.8227,N,01322.0666,E,21.18,89.28,130912,,,A*6B
$GPGGA,084431.000,5229.8225,N,01322.0775,E,1,07,1.3,-16.7,M,44.8,M,,0000*40
$GPGSA,A,3,12,09,25,04,02,14,27,,,,,,2.8,1.3,2.5*36
$GPRMC,084431.000,A,5229.8225,N,01322.0775,E,20.83,89.10,130912,,,A*63
$GPGGA,084432.000,5229.8223,N,01322.0881,E,1,06,1.4,-17.0,M,44.8,M,,0000*41
$GPGSA,A,3,12,09,25,04,02,14,,,,,,,2.9,1.4,2.5*35
$GPRMC,084432.000,A,5229.8223,N,01322.0881,E,20.00,89.03,130912,,,A*6B
$GPGGA,084433.000,5229.8223,N,01322.0986,E,1,07,1.3,-16.8,M,44.8,M,,0000*49
$GPGSA,A,3,12,09,25,04,02,14,27,,,,,,2.8,1.3,2.5*36
$GPRMC,084433.000,A,5229.8223,N,01322.0986,E,19.83,87.43,130912,,,A*67
$GPGGA,084434.000,5229.8225,N,01322.1089,E,1,07,1.3,-16.2,M,44.8,M,,0000*45
$GPGSA,A,3,12,09,25,04,02,14,27,,,,,,2.8,1.3,2.5*36
$GPGSV,3,1,11,12,80,056,28,25,54,274,28,14,38,271,24,09,32,145,34*77
$GPGSV,3,2,11,02,29,110,21,04,26,062,29,29,26,208,29,27,25,144,31*72
$GPGSV,3,3,11,31,11,310,33,32,04,335,19,20,01,002,*40
$GPRMC,084434.000,A,5229.8225,N,01322.1089,E,19.60,86.35,130912,,,A*6C
$GPGGA,084435.000,5229.8226,N,01322.1189,E,1,07,1.3,-15.6,M,44.8,M,,0000*41
$GPGSA,A,3,12,09,25,04,02,14,27,,,,,,2.8,1.3,2.5*36
$GPRMC,084435.000,A,5229.8226,N,01322.1189,E,19.10,87.08,130912,,,A*67
$GPGGA,084436.000,5229.8226,N,01322.1288,E,1,07,1.3,-14.8,M,44.8,M,,0000*4F
$GPGSA,A,3,12,09,25,04,02,14,27,,,,,,2.8,1.3,2.5*36
$GPRMC,084436.000,A,5229.8226,N,01322.1288,E,18.89,88.99,130912,,,A*60
$GPGGA,084437.000,5229.8227,N,01322.1387,E,1,07,1.3,-14.0,M,44.8,M,,0000*49
$GPGSA,A,3,12,09,25,04,02,14,27,,,,,,2.8,1.3,2.5*36
$GPRMC,084437.000,A,5229.8227,N,01322.1387,E,19.37,87.41,130912,,,A*60
$GPGGA,084438.000,5229.8230,N,01322.1485,E,1,07,1.3,-13.0,M,44.8,M,,0000*42
$GPGSA,A,3,12,09,25,04,02,14,27,,,,,,2.8,1.3,2.5*36
$GPRMC,084438.000,A,5229.8230,N,01322.1485,E,19.10,86.77,130912,,,A*6D
$GPGGA,084439.000,5229.8229,N,01322.1585,E,1,07,1.3,-12.0,M,44.8,M,,0000*4B
$GPGSA,A,3,12,09,25,04,02,14,27,,,,,,2.8,1.3,2.5*36
$GPGSV,3,1,11,12,80,056,25,25,54,274,26,14,38,271,23,09,32,145,34*73
$GPGSV,3,2,11,02,29,110,27,04,26,062,23,29,26,208,27,27,25,144,31*70
$GPGSV,3,3,11,31,11,310,33,32,04,335,26,20,01,002,*4C
$GPRMC,084439.000,A,5229.8229,N,01322.1585,E,19.45,89.65,130912,,,A*69
$GPGGA,084440.000,5229.8227,N,01322.1685,E,1,07,1.3,-10.8,M,44.8,M,,0000*42
$GPGSA,A,3,12,09,25,04,02,14,27,,,,,,2.8,1.3,2.5*36
$GPRMC,084440.000,A,5229.8227,N,01322.1685,E,19.63,91.21,130912,,,A*67
$GPGGA,084441.000,5229.8227,N,01322.1791,E,1,07,1.3,-9.7,M,44.8,M,,0000*70
$GPGSA,A,3,12,09,25,04,02,14,27,,,,,,2.8,1.3,2.5*36
$GPRMC,084441.000,A,5229.8227,N,01322.1791,E,20.89,89.93,130912,,,A*6C
$GPGGA,084442.000,5229.8226,N,01322.1901,E,1,07,1.3,-8.3,M,44.8,M,,0000*70
$GPGSA,A,3,12,09,25,04,02,14,27,,,,,,2.8,1.3,2.5*36
$GPRMC,084442.000,A,5229.8226,N,01322.1901,E,22.05,89.89,130912,,,A*64
$GPGGA,084443.000,5229.8225,N,01322.2013,E,1,07,1.3,-6.7,M,44.8,M,,0000*71
$GPGSA,A,3,12,09,25,04,02,14,27,,,,,,2.8,1.3,2.5*36
$GPRMC,084443.000,A,5229.8225,N,01322.2013,E,22.19,90.18,130912,,,A*62
$GPGGA,084444.000,5229.8223,N,01322.2130,E,1,07,1.3,-4.8,M,44.8,M,,0000*7D
$GPGSA,A,3,12,09,25,04,02,14,27,,,,,,2.8,1.3,2.5*36
$GPGSV,3,1,11,12,80,056,30,25,54,274,26,14,38,271,24,09,32,145,33*77
$GPGSV,3,2,11,02,29,110,27,04,26,062,26,29,26,208,33,27,25,144,30*71
$GPGSV,3,3,11,31,11,310,33,32,04,335,28,20,01,002,24*44
$GPRMC,084444.000,A,5229.8223,N,01322.2130,E,23.42,90.46,130912,,,A*67
$GPGGA,084445.000,5229.8221,N,01322.2251,E,1,07,1.3,-2.9,M,44.8,M,,0000*7D
$GPGSA,A,3,12,09,25,04,02,14,27,,,,,,2.8,1.3,2.5*36
$GPRMC,084445.000,A,5229.8221,N,01322.2251,E,24.38,90.11,130912,,,A*68
$GPGGA,084446.000,5229.8221,N,01322.2374,E,1,07,1.3,-1.0,M,44.8,M,,0000*72
$GPGSA,A,3,12,09,25,04,02,14,27,,,,,,2.8,1.3,2.5*36
$GPRMC,084446.000,A,5229.8221,N,01322.2374,E,24.55,88.95,130912,,,A*63
$GPGGA,084447.000,5229.8220,N,01322.2497,E,1,07,1.3,0.9,M,44.8,M,,0000*5D
$GPGSA,A,3,12,09,25,04,02,14,27,,,,,,2.8,1.3,2.5*36
$GPRMC,084447.000,A,5229.8220,N,01322.2497,E,24.87,89.64,130912,,,A*69
$GPGGA,084448.000,5229.8221,N,01322.2618,E,1,07,1.3,3.0,M,44.8,M,,0000*5C
$GPGSA,A,3,12,09,25,04,02,14,27,,,,,,2.8,1.3,2.5*36
$GPRMC,084448.000,A,5229.8221,N,01322.2618,E,24.26,87.66,130912,,,A*65
$GPGGA,084449.000,5229.8221,N,01322.2737,E,1,07,1.3,5.1,M,44.8,M,,0000*56
$GPGSA,A,3,12,09,25,04,02,14,27,,,,,,2.8,1.3,2.5*36
$GPGSV,3,1,11,12,80,056,30,25,54,274,26,14,38,271,28,09,32,145,33*7B
$GPGSV,3,2,11,02,29,110,27,04,26,062,29,29,26,208,33,27,25,144,29*76
$GPGSV,3,3,11,31,11,310,33,32,04,335,29,20,01,002,26*47
$GPRMC,084449.000,A,5229.8221,N,01322.2737,E,23.80,87.70,130912,,,A*64
$GPGGA,084450.000,5229.8223,N,01322.2855,E,1,07,1.3,7.2,M,44.8,M,,0000*56
$GPGSA,A,3,12,09,25,04,02,14,27,,,,,,2.8,1.3,2.5*36
$GPRMC,084450.000,A,5229.8223,N,01322.2855,E,23.81,87.36,130912,,,A*66
$GPGGA,084451.000,5229.8225,N,01322.2975,E,1,07,1.3,9.4,M,44.8,M,,0000*5A
$GPGSA,A,3,12,09,25,04,02,14,27,,,,,,2.8,1.3,2.5*36
$GPRMC,084451.000,A,5229.8225,N,01322.2975,E,24.02,86.79,130912,,,A*64
$GPGGA,084452.000,5229.8227,N,01322.3089,E,1,07,1.3,11.2,M,44.8,M,,0000*6F
$GPGSA,A,3,12,09,25,04,02,14,27,,,,,,2.8,1.3,2.5*36
$GPRMC,084452.000,A,5229.8227,N,01322.3089,E,23.01,85.98,130912,,,A*66
$GPGGA,084453.000,5229.8237,N,01322.3202,E,1,06,1.3,13.1,M,44.8,M,,0000*6E
$GPGSA,A,3,12,09,25,04,14,27,,,,,,,2.8,1.3,2.5*34
$GPRMC,084453.000,A,5229.8237,N,01322.3202,E,22.90,79.34,130912,,,A*6B
$GPGGA,084454.000,5229.8253,N,01322.3314,E,1,06,1.3,15.1,M,44.8,M,,0000*6B
$GPGSA,A,3,12,09,25,04,14,27,,,,,,,2.8,1.3,2.5*34
$GPGSV,3,1,11,12,80,056,29,25,54,274,26,14,38,271,29,09,32,145,33*72
$GPGSV,3,2,11,02,29,110,,04,26,062,25,29,26,208,33,27,25,144,33*74
$GPGSV,3,3,11,31,11,310,30,32,04,335,25,20,01,002,*4C
$GPRMC,084454.000,A,5229.8253,N,01322.3314,E,22.76,74.13,130912,,,A*68
$GPGGA,084455.000,5229.8274,N,01322.3427,E,1,07,1.3,17.1,M,44.8,M,,0000*6B
$GPGSA,A,3,12,09,25,04,02,14,27,,,,,,2.8,1.3,2.5*36
$GPRMC,084455.000,A,5229.8274,N,01322.3427,E,23.63,69.59,130912,,,A*6C
$GPGGA,084456.000,5229.8305,N,01322.3537,E,1,07,1.3,19.1,M,44.8,M,,0000*61
$GPGSA,A,3,12,09,25,04,02,14,27,,,,,,2.8,1.3,2.5*36
$GPRMC,084456.000,A,5229.8305,N,01322.3537,E,24.31,61.07,130912,,,A*6B
$GPGGA,084457.000,5229.8345,N,01322.3644,E,1,06,1.5,21.1,M,44.8,M,,0000*6F
$GPGSA,A,3,09,25,04,02,14,27,,,,,,,5.7,1.5,5.5*3C
$GPRMC,084457.000,A,5229.8345,N,01322.3644,E,24.92,53.81,130912,,,A*6F
$GPGGA,084458.000,5229.8393,N,01322.3742,E,1,07,1.3,23.1,M,44.8,M,,0000*69
$GPGSA,A,3,12,09,25,04,02,14,27,,,,,,2.8,1.3,2.5*36
$GPRMC,084458.000,A,5229.8393,N,01322.3742,E,25.03,46.56,130912,,,A*6B
$GPGGA,084459.000,5229.8448,N,01322.3829,E,1,06,2.7,25.1,M,44.8,M,,0000*6B
$GPGSA,A,3,12,09,25,02,14,27,,,,,,,4.5,2.7,3.7*3D
$GPGSV,3,1,11,12,80,056,29,25,54,274,31,14,38,271,28,09,32,145,29*7E
$GPGSV,3,2,11,02,29,110,35,04,26,062,,29,26,208,26,27,25,144,26*75
$GPGSV,3,3,11,31,11,310,30,32,04,335,26,20,01,002,23*4E
$GPRMC,084459.000,A,5229.8448,N,01322.3829,E,25.09,38.13,130912,,,A*6B
$GPGGA,084500.000,5229.8505,N,01322.3906,E,1,06,1.7,26.8,M,44.8,M,,0000*6B
$GPGSA,A,3,12,09,25,04,02,27,,,,,,,3.6,1.7,3.1*3D
$GPRMC,084500.000,A,5229.8505,N,01322.3906,E,24.48,33.79,130912,,,A*61
$GPGGA,084501.000,5229.8568,N,01322.3972,E,1,07,1.3,28.1,M,44.8,M,,0000*60
$GPGSA,A,3,12,09,25,04,02,14,27,,,,,,2.8,1.3,2.5*36
$GPRMC,084501.000,A,5229.8568,N,01322.3972,E,25.30,26.83,130912,,,A*67
$GPGGA,084502.000,5229.8639,N,01322.4027,E,1,07,1.3,29.0,M,44.8,M,,0000*6A
$GPGSA,A,3,12,09,25,04,02,14,27,,,,,,2.8,1.3,2.5*36
$GPRMC,084502.000,A,5229.8639,N,01322.4027,E,26.42,20.67,130912,,,A*67
$GPGGA,084503.000,5229.8713,N,01322.4076,E,1,06,1.4,29.8,M,44.8,M,,0000*68
$GPGSA,A,3,12,09,25,04,02,14,,,,,,,2.9,1.4,2.5*35
$GPRMC,084503.000,A,5229.8713,N,01322.4076,E,27.38,17.70,130912,,,A*65
$GPGGA,084504.000,5229.8789,N,01322.4122,E,1,06,2.7,30.6,M,44.8,M,,0000*6A
$GPGSA,A,3,12,09,25,02,14,27,,,,,,,4.5,2.7,3.7*3D
$GPGSV,3,1,11,12,80,056,28,25,54,274,32,14,38,271,25,09,32,145,30*79
$GPGSV,3,2,11,02,29,110,35,04,26,062,,29,26,208,25,27,25,144,32*73
$GPGSV,3,3,11,31,11,310,30,32,04,335,15,20,01,002,15*4B
$GPRMC,084504.000,A,5229.8789,N,01322.4122,E,28.01,16.17,130912,,,A*64
$GPGGA,084505.000,5229.8864,N,01322.4166,E,1,07,1.3,31.2,M,44.8,M,,0000*64
$GPGSA,A,3,12,09,25,04,02,14,27,,,,,,2.8,1.3,2.5*36
$GPRMC,084505.000,A,5229.8864,N,01322.4166,E,27.07,16.07,130912,,,A*61
$GPGGA,084506.000,5229.8937,N,01322.4210,E,1,07,1.3,31.7,M,44.8,M,,0000*67
$GPGSA,A,3,12,09,25,04,02,14,27,,,,,,2.8,1.3,2.5*36
$GPRMC,084506.000,A,5229.8937,N,01322.4210,E,26.76,16.30,130912,,,A*64
$GPGGA,084507.000,5229.9008,N,01322.4248,E,1,07,1.3,32.1,M,44.8,M,,0000*6A
$GPGSA,A,3,12,09,25,04,02,14,27,,,,,,2.8,1.3,2.5*36
$GPRMC,084507.000,A,5229.9008,N,01322.4248,E,25.38,14.59,130912,,,A*68
$GPGGA,084508.000,5229.9076,N,01322.4282,E,1,07,1.3,32.5,M,44.8,M,,0000*6E
$GPGSA,A,3,12,09,25,04,02,14,27,,,,,,2.8,1.3,2.5*36
$GPRMC,084508.000,A,5229.9076,N,01322.4282,E,24.54,13.77,130912,,,A*68
$GPGGA,084509.000,5229.9143,N,01322.4314,E,1,07,1.3,32.8,M,44.8,M,,0000*6B
$GPGSA,A,3,12,09,25,04,02,14,27,,,,,,2.8,1.3,2.5*36
$GPGSV,3,1,11,12,80,056,28,25,54,274,32,14,38,271,32,09,32,145,29*77
$GPGSV,3,2,11,02,29,110,34,04,26,062,31,29,26,208,30,27,25,144,33*75
$GPGSV,3,3,11,31,11,310,30,32,04,335,19,20,01,002,13*41
$GPRMC,084509.000,A,5229.9143,N,01322.4314,E,23.72,12.83,130912,,,A*69
$GPGGA,084510.000,5229.9206,N,01322.4344,E,1,07,1.3,32.9,M,44.8,M,,0000*65
$GPGSA,A,3,12,09,25,04,02,14,27,,,,,,2.8,1.3,2.5*36
$GPRMC,084510.000,A,5229.9206,N,01322.4344,E,22.54,12.65,130912,,,A*6B
$GPGGA,084511.000,5229.9265,N,01322.4373,E,1,07,1.3,32.9,M,44.8,M,,0000*65
$GPGSA,A,3,12,09,25,04,02,14,27,,,,,,2.8,1.3,2.5*36
$GPRMC,084511.000,A,5229.9265,N,01322.4373,E,20.95,13.11,130912,,,A*66
$GPGGA,084512.000,5229.9321,N,01322.4402,E,1,07,1.3,32.7,M,44.8,M,,0000*68
$GPGSA,A,3,12,09,25,04,02,14,27,,,,,,2.8,1.3,2.5*36
$GPRMC,084512.000,A,5229.9321,N,01322.4402,E,19.69,14.44,130912,,,A*6B
$GPGGA,084513.000,5229.9373,N,01322.4432,E,1,07,1.3,32.3,M,44.8,M,,0000*69
$GPGSA,A,3,12,09,25,04,02,14,27,,,,,,2.8,1.3,2.5*36
$GPRMC,084513.000,A,5229.9373,N,01322.4432,E,18.70,16.05,130912,,,A*60
$GPGGA,084514.000,5229.9422,N,01322.4456,E,1,07,1.3,31.7,M,44.8,M,,0000*68
$GPGSA,A,3,12,09,25,04,02,14,27,,,,,,2.8,1.3,2.5*36
$GPGSV,3,1,11,12,80,056,24,25,54,274,26,14,38,271,22,09,32,145,24*72
$GPGSV,3,2,11,02,29,110,32,04,26,062,27,29,26,208,31,27,25,144,33*75
$GPGSV,3,3,11,31,11,310,19,32,04,335,,20,01,002,*40
$GPRMC,084514.000,A,5229.9422,N,01322.4456,E,17.58,13.44,130912,,,A*63
$GPGGA,084515.000,5229.9470,N,01322.4475,E,1,07,1.3,31.1,M,44.8,M,,0000*69
$GPGSA,A,3,12,09,25,04,02,14,27,,,,,,2.8,1.3,2.5*36
$GPRMC,084515.000,A,5229.9470,N,01322.4475,E,16.56,11.13,130912,,,A*6B
$GPGGA,084516.000,5229.9515,N,01322.4492,E,1,07,1.3,30.3,M,44.8,M,,0000*62
$GPGSA,A,3,12,09,25,04,02,14,27,,,,,,2.8,1.3,2.5*36
$GPRMC,084516.000,A,5229.9515,N,01322.4492,E,15.64,11.41,130912,,,A*66
$GPGGA,084517.000,5229.9553,N,01322.4505,E,1,06,2.7,29.4,M,44.8,M,,0000*67
$GPGSA,A,3,12,09,25,02,14,27,,,,,,,4.6,2.7,3.7*3E
$GPRMC,084517.000,A,5229.9553,N,01322.4505,E,13.32,10.03,130912,,,A*68
$GPGGA,084518.000,5229.9591,N,01322.4517,E,0,00,,28.5,M,44.8,M,,0000*49
$GPGSA,A,1,,,,,,,,,,,,,,,*1E
$GPRMC,084520.000,A,5229.9661,N,01322.4541,E,11.57,12.20,130912,,,A*6C
$GPGGA,084521.000,5229.9690,N,01322.4555,E,1,07,1.3,26.1,M,44.8,M,,0000*67
$GPGSA,A,3,12,09,25,04,02,14,27,,,,,,2.8,1.3,2.5*36
$GPRMC,084521.000,A,5229.9690,N,01322.4555,E,10.48,15.56,130912,,,A*6F
$GPGGA,084522.000,5229.9707,N,01322.4565,E,1,07,1.3,26.0,M,44.8,M,,0000*69
$GPGSA,A,3,12,09,25,04,02,14,27,,,,,,2.8,1.3,2.5*36
$GPRMC,084522.000,A,5229.9707,N,01322.4565,E,6.69,19.41,130912,,,A*5E
$GPGGA,084523.000,5229.9715,N,01322.4571,E,1,07,1.3,26.1,M,44.8,M,,0000*6F
$GPGSA,A,3,12,09,25,04,02,14,27,,,,,,2.8,1.3,2.5*36
$GPRMC,084523.000,A,5229.9715,N,01322.4571,E,3.09,28.54,130912,,,A*5C
$GPGGA,084524.000,5229.9712,N,01322.4569,E,1,06,1.5,27.2,M,44.8,M,,0000*63
$GPGSA,A,3,09,25,04,02,14,27,,,,,,,5.6,1.5,5.4*3C
$GPGSV,3,1,11,12,80,056,23,25,54,274,30,14,38,271,24,09,32,145,28*78
$GPGSV,3,2,11,02,29,110,23,04,26,062,19,29,26,208,26,27,25,144,21*7D
$GPGSV,3,3,11,31,11,310,17,32,04,335,,20,01,002,*4E
$GPRMC,084525.000,A,5229.9705,N,01322.4562,E,1.04,221.11,130912,,,A*6C
$GPGGA,084526.000,5229.9694,N,01322.4556,E,1,06,1.7,31.1,M,44.8,M,,0000*64
$GPGSA,A,3,12,09,25,04,02,27,,,,,,,3.6,1.7,3.1*3D
$GPRMC,084526.000,A,5229.9694,N,01322.4556,E,1.31,174.93,130912,,,A*6E
$GPGGA,084527.000,5229.9683,N,01322.4550,E,1,06,1.4,34.2,M,44.8,M,,0000*60
$GPGSA,A,3,12,25,04,02,27,14,,,,,,,2.9,1.4,2.5*39
$GPRMC,084527.000,A,5229.9683,N,01322.4550,E,1.38,179.17,130912,,,A*67
$GPGGA,084528.000,5229.9674,N,01322.4542,E,1,07,1.3,37.4,M,44.8,M,,0000*67
$GPGSA,A,3,12,09,25,04,02,27,14,,,,,,2.8,1.3,2.5*36
$GPRMC,084528.000,A,5229.9674,N,01322.4542,E,0.86,197.84,130912,,,A*6D
$GPGGA,084529.000,5229.9664,N,01322.4527,E,1,07,1.3,40.7,M,44.8,M,,0000*67
$GPGSA,A,3,12,09,25,04,02,27,14,,,,,,2.8,1.3,2.5*36
$GPGSV,3,1,11,12,80,056,41,25,54,274,42,14,38,271,38,09,32,145,35*78
$GPGSV,3,2,11,02,29,110,32,04,26,062,27,29,26,208,37,27,25,144,32*72
$GPGSV,3,3,11,31,11,310,25,32,04,335,,20,01,002,*4F
$GPRMC,084529.000,A,5229.9664,N,01322.4527,E,2.09,248.88,130912,,,A*66
$GPGGA,084530.000,5229.9653,N,01322.4514,E,1,07,1.3,43.9,M,44.8,M,,0000*66
$GPGSA,A,3,12,09,25,04,02,27,14,,,,,,2.8,1.3,2.5*36
$GPRMC,084530.000,A,5229.9653,N,01322.4514,E,2.28,223.33,130912,,,A*64
$GPGGA,084531.000,5229.9644,N,01322.4507,E,1,07,1.3,46.5,M,44.8,M,,0000*6A
$GPGSA,A,3,12,09,25,04,02,27,14,,,,,,2.8,1.3,2.5*36
$GPRMC,084531.000,A,5229.9644,N,01322.4507,E,1.37,193.51,130912,,,A*60
$GPGGA,084532.000,5229.9636,N,01322.4501,E,1,07,1.3,48.7,M,44.8,M,,0000*66
$GPGSA,A,3,12,09,25,04,02,27,14,,,,,,2.8,1.3,2.5*36
$GPRMC,084532.000,A,5229.9636,N,01322.4501,E,0.82,176.23,130912,,,A*61
$GPGGA,084533.000,5229.9629,N,01322.4497,E,1,07,1.3,50.4,M,44.8,M,,0000*6D
$GPGSA,A,3,12,09,25,04,02,27,14,,,,,,2.8,1.3,2.5*36
$GPRMC,084533.000,A,5229.9629,N,01322.4497,E,1.00,165.78,130912,,,A*67
$GPGGA,084534.000,5229.9621,N,01322.4495,E,1,07,1.3,51.4,M,44.8,M,,0000*61
$GPGSA,A,3,12,09,25,04,02,27,14,,,,,,2.8,1.3,2.5*36
$GPGSV,3,1,11,12,80,056,28,25,54,274,29,14,38,271,28,09,32,145,29*76
$GPGSV,3,2,11,02,29,110,29,04,26,062,26,29,26,208,33,27,25,144,32*7D
$GPGSV,3,3,11,31,11,310,21,32,04,335,,20,01,002,19*43
$GPRMC,084534.000,A,5229.9621,N,01322.4495,E,1.17,147.60,130912,,,A*65
$GPGGA,084535.000,5229.9617,N,01322.4493,E,1,07,1.3,52.5,M,44.8,M,,0000*61
$GPGSA,A,3,12,09,25,04,02,27,14,,,,,,2.8,1.3,2.5*36
$GPRMC,084545.000,A,5229.9607,N,01322.4478,E,1.26,26.37,130912,,,A*52
$GPGGA,084546.000,5229.9608,N,01322.4474,E,1,07,1.3,51.1,M,44.8,M,,0000*65
$GPGSA,A,3,12,09,25,04,02,27,14,,,,,,2.8,1.3,2.5*36
$GPRMC,084550.000,A,5229.9613,N,01322.4463,E,0.87,290.18,130912,,,A*61
$GPGGA,084551.000,5229.9614,N,01322.4459,E,1,07,1.3,47.4,M,44.8,M,,0000*63
$GPGSA,A,3,12,09,25,04,02,27,14,,,,,,2.8,1.3,2.5*36
$GPRMC,084602.000,A,5229.9628,N,01322.4458,E,0.82,265.13,130912,,,A*61
$GPGGA,084603.000,5229.9631,N,01322.4458,E,1,06,1.3,38.6,M,44.8,M,,0000*6A
$GPGSA,A,3,12,09,25,04,27,14,,,,,,,2.8,1.3,2.5*34
$GPRMC,084610.000,A,5229.9654,N,01322.4453,E,1.09,325.15,130912,,,A*63
$GPGGA,084611.000,5229.9658,N,01322.4452,E,1,07,1.3,22.5,M,44.8,M,,0000*65
