$GPGGA,140250.000,6351.1821,N,01813.8314,W,1,09,1.3,357.7,M,60.1,M,,0000*48
$GPGSA,A,3,13,16,03,21,06,29,05,30,07,,,,2.5,1.3,2.1*3D
$GPGSV,3,1,12,16,73,241,24,30,59,155,38,06,51,230,41,21,49,103,32*74
$GPGSV,3,2,12,03,34,242,36,13,21,291,30,07,19,322,28,05,16,015,36*73
$GPGSV,3,3,12,29,12,071,23,23,06,261,32,19,06,239,33,31,04,176,24*70
$GPRMC,140250.000,A,6351.1821,N,01813.8314,W,8.77,107.45,010912,,,A*74
$GPGGA,140251.000,6351.1814,N,01813.8261,W,1,09,1.3,357.6,M,60.1,M,,0000*4D
$GPGSA,A,3,13,16,03,21,06,29,05,30,07,,,,2.5,1.3,2.1*3D
$GPRMC,140251.000,A,6351.1814,N,01813.8261,W,8.90,107.10,010912,,,A*79
$GPGGA,140252.000,6351.1807,N,01813.8209,W,1,09,1.3,357.6,M,60.1,M,,0000*42
$GPGSA,A,3,13,16,03,21,06,29,05,30,07,,,,2.5,1.3,2.1*3D
$GPRMC,140252.000,A,6351.1807,N,01813.8209,W,8.80,105.63,010912,,,A*71
$GPGGA,140253.000,6351.1802,N,01813.8156,W,1,09,1.3,357.7,M,60.1,M,,0000*4E
$GPGSA,A,3,13,16,03,21,06,29,05,30,07,,,,2.5,1.3,2.1*3D
$GPRMC,140253.000,A,6351.1802,N,01813.8156,W,8.89,103.09,010912,,,A*7F
$GPGGA,140254.000,6351.1796,N,01813.8102,W,1,09,1.3,357.6,M,60.1,M,,0000*4B
$GPGSA,A,3,13,16,03,21,06,29,05,30,07,,,,2.5,1.3,2.1*3D
$GPRMC,140254.000,A,6351.1796,N,01813.8102,W,8.83,102.70,010912,,,A*7E
$GPGGA,140255.000,6351.1790,N,01813.8048,W,1,09,1.3,357.5,M,60.1,M,,0000*40
$GPGSA,A,3,13,16,03,21,06,29,05,30,07,,,,2.5,1.3,2.1*3D
$GPGSV,3,1,12,16,73,240,19,30,59,155,39,06,51,230,39,21,50,102,33*7D
$GPGSV,3,2,12,03,34,242,32,13,21,291,31,07,19,322,27,05,16,015,36*79
$GPGSV,3,3,12,29,12,071,32,23,06,261,36,19,06,239,32,31,04,176,17*75
$GPRMC,140255.000,A,6351.1790,N,01813.8048,W,9.00,102.95,010912,,,A*77
$GPGGA,140256.000,6351.1784,N,01813.7995,W,1,09,1.3,357.2,M,60.1,M,,0000*47
$GPGSA,A,3,13,16,03,21,06,29,05,30,07,,,,2.5,1.3,2.1*3D
$GPRMC,140256.000,A,6351.1784,N,01813.7995,W,8.88,103.05,010912,,,A*7E
$GPGGA,140257.000,6351.1779,N,01813.7942,W,1,08,1.3,356.9,M,60.1,M,,0000*45
$GPGSA,A,3,16,03,21,06,29,05,30,07,,,,,2.6,1.3,2.2*3F
$GPRMC,140257.000,A,6351.1779,N,01813.7942,W,8.78,101.60,010912,,,A*79
$GPGGA,140258.000,6351.1775,N,01813.7887,W,1,08,1.3,356.3,M,60.1,M,,0000*44
$GPGSA,A,3,16,03,21,06,29,05,30,07,,,,,2.6,1.3,2.2*3F
$GPRMC,140258.000,A,6351.1775,N,01813.7887,W,9.05,98.74,010912,,,A*4D
$GPGGA,140259.000,6351.1770,N,01813.7831,W,1,08,1.3,355.7,M,60.1,M,,0000*4A
$GPGSA,A,3,16,03,21,06,29,05,30,07,,,,,2.6,1.3,2.2*3F
$GPRMC,140259.000,A,6351.1770,N,01813.7831,W,9.32,99.15,010912,,,A*46
$GPGGA,140300.000,6351.1764,N,01813.7774,W,1,07,1.5,355.2,M,60.1,M,,0000*40
$GPGSA,A,3,03,21,06,29,05,30,07,,,,,,3.3,1.5,2.9*31
$GPGSV,3,1,12,16,73,240,,30,59,155,39,06,51,230,39,21,50,102,34*72
$GPGSV,3,2,12,03,34,242,30,13,21,291,,07,19,322,32,05,16,015,37*7C
$GPGSV,3,3,12,29,12,071,29,23,06,261,26,19,06,239,31,31,04,176,28*71
$GPRMC,140300.000,A,6351.1764,N,01813.7774,W,9.34,102.44,010912,,,A*71
$GPGGA,140301.000,6351.1758,N,01813.7717,W,1,07,1.5,354.7,M,60.1,M,,0000*4F
$GPGSA,A,3,03,21,06,29,05,30,07,,,,,,3.3,1.5,2.9*31
$GPRMC,140301.000,A,6351.1758,N,01813.7717,W,9.49,102.22,010912,,,A*70
$GPGGA,140302.000,6351.1752,N,01813.7660,W,1,08,1.3,354.1,M,60.1,M,,0000*48
$GPGSA,A,3,16,03,21,06,29,05,30,07,,,,,2.6,1.3,2.2*3F
$GPRMC,140302.000,A,6351.1752,N,01813.7660,W,9.53,102.76,010912,,,A*72
$GPGGA,140303.000,6351.1746,N,01813.7603,W,1,08,1.3,353.7,M,60.1,M,,0000*48
$GPGSA,A,3,16,03,21,06,29,05,30,07,,,,,2.6,1.3,2.2*3F
$GPRMC,140303.000,A,6351.1746,N,01813.7603,W,9.40,101.71,010912,,,A*75
$GPGGA,140304.000,6351.1741,N,01813.7546,W,1,08,1.3,353.3,M,60.1,M,,0000*4E
$GPGSA,A,3,16,03,21,06,29,05,30,07,,,,,2.6,1.3,2.2*3F
$GPRMC,140304.000,A,6351.1741,N,01813.7546,W,9.39,100.57,010912,,,A*7C
$GPGGA,140305.000,6351.1736,N,01813.7489,W,1,08,1.3,352.9,M,60.1,M,,0000*46
$GPGSA,A,3,16,03,21,06,29,05,30,07,,,,,2.6,1.3,2.2*3F
$GPGSV,3,1,12,16,73,240,27,30,59,155,39,06,51,230,39,21,50,102,35*76
$GPGSV,3,2,12,03,34,242,33,13,21,291,,07,19,322,32,05,16,015,33*7B
$GPGSV,3,3,12,29,12,071,25,23,06,261,25,19,06,239,32,31,04,176,26*73
$GPRMC,140305.000,A,6351.1736,N,01813.7489,W,9.43,102.33,010912,,,A*72
$GPGGA,140306.000,6351.1729,N,01813.7432,W,1,08,1.3,352.5,M,60.1,M,,0000*47
$GPGSA,A,3,16,03,21,06,29,05,30,07,,,,,2.6,1.3,2.2*3F
$GPRMC,140306.000,A,6351.1729,N,01813.7432,W,9.62,105.07,010912,,,A*7C
$GPGGA,140307.000,6351.1721,N,01813.7376,W,1,08,1.3,351.9,M,60.1,M,,0000*46
$GPGSA,A,3,16,03,21,06,29,05,30,07,,,,,2.6,1.3,2.2*3F
$GPRMC,140307.000,A,6351.1721,N,01813.7376,W,9.42,105.24,010912,,,A*71
$GPGGA,140308.000,6351.1714,N,01813.7318,W,1,09,1.3,351.3,M,60.1,M,,0000*4C
$GPGSA,A,3,16,03,13,21,06,29,05,30,07,,,,2.5,1.3,2.1*3D
$GPRMC,140308.000,A,6351.1714,N,01813.7318,W,9.68,104.68,010912,,,A*71
$GPGGA,140309.000,6351.1709,N,01813.7260,W,1,09,1.3,350.9,M,60.1,M,,0000*44
$GPGSA,A,3,16,03,13,21,06,29,05,30,07,,,,2.5,1.3,2.1*3D
$GPRMC,140309.000,A,6351.1709,N,01813.7260,W,9.54,101.54,010912,,,A*77
$GPGGA,140310.000,6351.1704,N,01813.7202,W,1,09,1.3,350.6,M,60.1,M,,0000*4A
$GPGSA,A,3,16,03,13,21,06,29,05,30,07,,,,2.5,1.3,2.1*3D
$GPGSV,3,1,12,16,73,240,20,30,59,155,39,06,51,230,38,21,50,102,35*70
$GPGSV,3,2,12,03,34,242,29,13,21,291,21,07,19,322,29,05,16,015,35*7F
$GPGSV,3,3,12,29,12,071,29,23,06,261,23,19,06,239,30,31,04,176,26*7B
$GPRMC,140310.000,A,6351.1704,N,01813.7202,W,9.65,98.75,010912,,,A*46
$GPGGA,140311.000,6351.1702,N,01813.7142,W,1,09,1.3,350.4,M,60.1,M,,0000*48
$GPGSA,A,3,16,03,13,21,06,29,05,30,07,,,,2.5,1.3,2.1*3D
$GPRMC,140311.000,A,6351.1702,N,01813.7142,W,9.66,94.65,010912,,,A*48
$GPGGA,140312.000,6351.1702,N,01813.7081,W,1,09,1.3,350.3,M,60.1,M,,0000*42
$GPGSA,A,3,16,03,13,21,06,29,05,30,07,,,,2.5,1.3,2.1*3D
$GPRMC,140312.000,A,6351.1702,N,01813.7081,W,9.90,91.23,010912,,,A*4B
$GPGGA,140313.000,6351.1701,N,01813.7018,W,1,09,1.3,350.1,M,60.1,M,,0000*42
$GPGSA,A,3,16,03,13,21,06,29,05,30,07,,,,2.5,1.3,2.1*3D
$GPRMC,140313.000,A,6351.1701,N,01813.7018,W,10.19,91.14,010912,,,A*74
$GPGGA,140314.000,6351.1701,N,01813.6955,W,1,09,1.3,349.8,M,60.1,M,,0000*45
$GPGSA,A,3,16,03,13,21,06,29,05,30,07,,,,2.5,1.3,2.1*3D
$GPRMC,140314.000,A,6351.1701,N,01813.6955,W,10.11,89.53,010912,,,A*70
$GPGGA,140315.000,6351.1702,N,01813.6895,W,1,09,1.3,349.4,M,60.1,M,,0000*46
$GPGSA,A,3,16,03,13,21,06,29,05,30,07,,,,2.5,1.3,2.1*3D
$GPGSV,3,1,12,16,73,240,31,30,59,155,39,06,51,230,38,21,50,102,31*74
$GPGSV,3,2,12,03,34,242,25,13,21,290,21,07,20,322,35,05,15,015,27*75
$GPGSV,3,3,12,29,12,071,35,19,06,239,25,23,06,261,26,31,04,176,31*71
$GPRMC,140315.000,A,6351.1702,N,01813.6895,W,9.74,87.79,010912,,,A*42
$GPGGA,140316.000,6351.1703,N,01813.6838,W,1,09,1.3,349.0,M,60.1,M,,0000*47
$GPGSA,A,3,16,03,13,21,06,29,05,30,07,,,,2.5,1.3,2.1*3D
$GPRMC,140316.000,A,6351.1703,N,01813.6838,W,9.10,86.07,010912,,,A*4D
$GPGGA,140317.000,6351.1705,N,01813.6783,W,1,09,1.3,348.5,M,60.1,M,,0000*4B
$GPGSA,A,3,16,03,13,21,06,29,05,30,07,,,,2.5,1.3,2.1*3D
$GPRMC,140317.000,A,6351.1705,N,01813.6783,W,9.01,84.69,010912,,,A*4F
$GPGGA,140318.000,6351.1707,N,01813.6722,W,1,09,1.3,348.0,M,60.1,M,,0000*48
$GPGSA,A,3,16,03,13,21,06,29,05,30,07,,,,2.5,1.3,2.1*3D
$GPRMC,140318.000,A,6351.1707,N,01813.6722,W,9.75,83.69,010912,,,A*4D
$GPGGA,140319.000,6351.1711,N,01813.6661,W,1,09,1.3,347.5,M,60.1,M,,0000*42
$GPGSA,A,3,16,03,13,21,06,29,05,30,07,,,,2.5,1.3,2.1*3D
$GPRMC,140319.000,A,6351.1711,N,01813.6661,W,9.93,82.00,010912,,,A*4B
$GPGGA,140320.000,6351.1716,N,01813.6601,W,1,09,1.3,347.3,M,60.1,M,,0000*4F
$GPGSA,A,3,16,03,13,21,06,29,05,30,07,,,,2.5,1.3,2.1*3D
$GPGSV,3,1,12,16,73,240,33,30,59,155,39,06,51,230,38,21,50,102,34*73
$GPGSV,3,2,12,03,34,242,30,13,21,290,24,07,20,322,30,05,15,015,31*76
$GPGSV,3,3,12,29,12,071,29,19,06,239,23,23,06,261,24,31,04,176,25*7D
$GPRMC,140320.000,A,6351.1716,N,01813.6601,W,9.78,77.63,010912,,,A*4A
$GPGGA,140321.000,6351.1723,N,01813.6542,W,1,09,1.3,347.2,M,60.1,M,,0000*4D
$GPGSA,A,3,16,03,13,21,06,29,05,30,07,,,,2.5,1.3,2.1*3D
$GPRMC,140321.000,A,6351.1723,N,01813.6542,W,9.67,75.77,010912,,,A*40
$GPGGA,140322.000,6351.1729,N,01813.6484,W,1,09,1.3,347.2,M,60.1,M,,0000*4F
$GPGSA,A,3,16,03,13,21,06,29,05,30,07,,,,2.5,1.3,2.1*3D
$GPRMC,140322.000,A,6351.1729,N,01813.6484,W,9.54,77.57,010912,,,A*42
$GPGGA,140323.000,6351.1734,N,01813.6426,W,1,08,1.4,347.1,M,60.1,M,,0000*4F
$GPGSA,A,3,16,03,13,21,06,29,05,30,,,,,2.6,1.4,2.2*3D
$GPRMC,140323.000,A,6351.1734,N,01813.6426,W,9.30,79.54,010912,,,A*48
$GPGGA,140324.000,6351.1738,N,01813.6369,W,1,09,1.3,346.9,M,60.1,M,,0000*47
$GPGSA,A,3,16,03,13,21,06,29,05,30,07,,,,2.5,1.3,2.1*3D
$GPRMC,140324.000,A,6351.1738,N,01813.6369,W,9.16,81.29,010912,,,A*46
$GPGGA,140325.000,6351.1741,N,01813.6313,W,1,08,1.3,346.7,M,60.1,M,,0000*4A
$GPGSA,A,3,16,03,21,06,29,05,30,07,,,,,2.6,1.3,2.2*3F
$GPGSV,3,1,12,16,73,239,33,30,59,155,39,06,51,230,39,21,50,102,33*7B
$GPGSV,3,2,12,03,35,242,28,13,21,290,17,07,20,322,31,05,15,015,31*7F
$GPGSV,3,3,12,29,12,071,31,19,06,239,25,23,06,261,24,31,04,176,33*75
$GPRMC,140325.000,A,6351.1741,N,01813.6313,W,9.10,82.05,010912,,,A*4F
$GPGGA,140326.000,6351.1745,N,01813.6257,W,1,08,1.3,346.5,M,60.1,M,,0000*4E
$GPGSA,A,3,16,03,21,06,29,05,30,07,,,,,2.6,1.3,2.2*3F
$GPRMC,140326.000,A,6351.1745,N,01813.6257,W,8.96,80.47,010912,,,A*42
$GPGGA,140327.000,6351.1749,N,01813.6202,W,1,08,1.3,346.3,M,60.1,M,,0000*45
$GPGSA,A,3,16,03,21,06,29,05,30,07,,,,,2.6,1.3,2.2*3F
$GPRMC,140327.000,A,6351.1749,N,01813.6202,W,8.91,81.09,010912,,,A*43
$GPGGA,140328.000,6351.1752,N,01813.6146,W,1,09,1.3,346.0,M,60.1,M,,0000*41
$GPGSA,A,3,16,03,13,21,06,29,05,30,07,,,,2.5,1.3,2.1*3D
$GPRMC,140328.000,A,6351.1752,N,01813.6146,W,8.94,83.06,010912,,,A*4D
$GPGGA,140329.000,6351.1755,N,01813.6091,W,1,09,1.3,345.8,M,60.1,M,,0000*47
$GPGSA,A,3,16,03,13,21,06,29,05,30,07,,,,2.5,1.3,2.1*3D
$GPRMC,140329.000,A,6351.1755,N,01813.6091,W,8.88,83.14,010912,,,A*4E
$GPGGA,140330.000,6351.1758,N,01813.6035,W,1,09,1.3,345.6,M,60.1,M,,0000*42
$GPGSA,A,3,16,03,13,21,06,29,05,30,07,,,,2.5,1.3,2.1*3D
$GPGSV,3,1,12,16,73,239,25,30,59,155,39,06,51,230,39,21,50,102,34*7B
$GPGSV,3,2,12,03,35,242,24,13,21,290,23,07,20,322,32,05,15,015,27*70
$GPGSV,3,3,12,29,12,071,32,19,06,239,33,23,06,261,25,31,04,176,23*71
$GPRMC,140330.000,A,6351.1758,N,01813.6035,W,8.93,82.79,010912,,,A*45
$GPGGA,140331.000,6351.1761,N,01813.5979,W,1,08,1.5,345.4,M,60.1,M,,0000*4E
$GPGSA,A,3,03,13,21,06,29,05,30,07,,,,,3.2,1.5,2.9*32
$GPRMC,140331.000,A,6351.1761,N,01813.5979,W,9.07,84.08,010912,,,A*40
$GPGGA,140332.000,6351.1763,N,01813.5923,W,1,09,1.3,345.3,M,60.1,M,,0000*40
$GPGSA,A,3,16,03,13,21,06,29,05,30,07,,,,2.5,1.3,2.1*3D
$GPRMC,140332.000,A,6351.1763,N,01813.5923,W,9.06,84.53,010912,,,A*41
$GPGGA,140333.000,6351.1765,N,01813.5861,W,1,09,1.3,345.4,M,60.1,M,,0000*47
$GPGSA,A,3,16,03,13,21,06,29,05,30,07,,,,2.5,1.3,2.1*3D
$GPRMC,140333.000,A,6351.1765,N,01813.5861,W,9.92,87.82,010912,,,A*43
$GPGGA,140334.000,6351.1764,N,01813.5795,W,1,09,1.3,345.6,M,60.1,M,,0000*47
$GPGSA,A,3,16,03,13,21,06,29,05,30,07,,,,2.5,1.3,2.1*3D
$GPRMC,140334.000,A,6351.1764,N,01813.5795,W,10.68,92.63,010912,,,A*77
$GPGGA,140335.000,6351.1762,N,01813.5726,W,1,09,1.3,346.0,M,60.1,M,,0000*4D
$GPGSA,A,3,16,03,13,21,06,29,05,30,07,,,,2.5,1.3,2.1*3D
$GPGSV,3,1,12,16,73,239,32,30,59,155,39,06,51,230,36,21,50,102,33*75
$GPGSV,3,2,12,03,35,242,28,13,21,290,26,07,20,322,26,05,15,015,33*79
$GPGSV,3,3,12,29,12,071,14,19,06,239,34,23,06,261,22,31,04,176,33*74
$GPRMC,140335.000,A,6351.1762,N,01813.5726,W,11.10,96.48,010912,,,A*7B
$GPGGA,140336.000,6351.1757,N,01813.5659,W,1,09,1.3,346.5,M,60.1,M,,0000*44
$GPGSA,A,3,16,03,13,21,06,29,05,30,07,,,,2.5,1.3,2.1*3D
$GPRMC,140336.000,A,6351.1757,N,01813.5659,W,10.89,100.31,010912,,,A*46
$GPGGA,140337.000,6351.1752,N,01813.5596,W,1,09,1.3,347.0,M,60.1,M,,0000*44
$GPGSA,A,3,16,03,13,21,06,29,05,30,07,,,,2.5,1.3,2.1*3D
$GPRMC,140337.000,A,6351.1752,N,01813.5596,W,10.43,102.60,010912,,,A*42
$GPGGA,140338.000,6351.1745,N,01813.5534,W,1,09,1.3,347.5,M,60.1,M,,0000*40
$GPGSA,A,3,16,03,13,21,06,29,05,30,07,,,,2.5,1.3,2.1*3D
$GPRMC,140338.000,A,6351.1745,N,01813.5534,W,10.29,106.30,010912,,,A*4E
$GPGGA,140339.000,6351.1737,N,01813.5476,W,1,09,1.3,347.9,M,60.1,M,,0000*4F
$GPGSA,A,3,16,03,13,21,06,29,05,30,07,,,,2.5,1.3,2.1*3D
$GPRMC,140339.000,A,6351.1737,N,01813.5476,W,9.85,109.40,010912,,,A*7B
$GPGGA,140340.000,6351.1727,N,01813.5422,W,1,09,1.3,348.2,M,60.1,M,,0000*45
$GPGSA,A,3,16,03,13,21,06,29,05,30,07,,,,2.5,1.3,2.1*3D
$GPGSV,3,1,12,16,73,239,36,30,59,155,38,06,51,230,39,21,50,102,34*78
$GPGSV,3,2,12,03,35,242,38,13,21,290,28,07,20,322,26,05,15,015,32*77
$GPGSV,3,3,12,29,12,071,28,19,06,239,30,23,06,261,30,31,04,176,31*7E
$GPRMC,140340.000,A,6351.1727,N,01813.5422,W,9.54,115.08,010912,,,A*78
$GPGGA,140341.000,6351.1716,N,01813.5372,W,1,09,1.3,348.5,M,60.1,M,,0000*43
$GPGSA,A,3,16,03,13,21,06,29,05,30,07,,,,2.5,1.3,2.1*3D
$GPRMC,140341.000,A,6351.1716,N,01813.5372,W,9.15,118.85,010912,,,A*74
$GPGGA,140342.000,6351.1705,N,01813.5327,W,1,09,1.3,348.6,M,60.1,M,,0000*41
$GPGSA,A,3,16,03,13,21,06,29,05,30,07,,,,2.5,1.3,2.1*3D
$GPRMC,140342.000,A,6351.1705,N,01813.5327,W,8.40,119.97,010912,,,A*76
$GPGGA,140343.000,6351.1694,N,01813.5284,W,1,08,1.4,348.6,M,60.1,M,,0000*47
$GPGSA,A,3,16,03,13,21,06,29,05,30,,,,,2.6,1.4,2.2*3D
$GPRMC,140343.000,A,6351.1694,N,01813.5284,W,7.94,121.44,010912,,,A*75
$GPGGA,140344.000,6351.1682,N,01813.5245,W,1,08,1.4,348.4,M,60.1,M,,0000*48
$GPGSA,A,3,16,03,13,21,06,29,05,30,,,,,2.6,1.4,2.2*3D
$GPRMC,140344.000,A,6351.1682,N,01813.5245,W,7.59,123.98,010912,,,A*7A
$GPGGA,140345.000,6351.1671,N,01813.5207,W,1,08,1.4,348.3,M,60.1,M,,0000*44
$GPGSA,A,3,16,03,13,21,06,29,05,30,,,,,2.6,1.4,2.2*3D
$GPGSV,3,1,12,16,73,239,29,30,59,155,43,06,51,230,42,21,50,102,35*77
$GPGSV,3,2,12,03,35,242,38,13,21,290,27,07,20,322,,05,15,015,36*78
$GPGSV,3,3,12,29,12,071,33,19,06,239,31,23,06,261,23,31,04,176,32*74
$GPRMC,140345.000,A,6351.1671,N,01813.5207,W,7.16,123.51,010912,,,A*7F
$GPGGA,140346.000,6351.1661,N,01813.5173,W,1,08,1.4,348.1,M,60.1,M,,0000*44
$GPGSA,A,3,16,03,13,21,06,29,05,30,,,,,2.6,1.4,2.2*3D
$GPRMC,140346.000,A,6351.1661,N,01813.5173,W,6.74,125.13,010912,,,A*78
$GPGGA,140347.000,6351.1650,N,01813.5141,W,1,08,1.4,348.0,M,60.1,M,,0000*47
$GPGSA,A,3,16,03,13,21,06,29,05,30,,,,,2.6,1.4,2.2*3D
$GPRMC,140347.000,A,6351.1650,N,01813.5141,W,6.37,126.41,010912,,,A*79
$GPGGA,140348.000,6351.1640,N,01813.5109,W,1,08,1.4,347.9,M,60.1,M,,0000*43
$GPGSA,A,3,16,03,13,21,06,29,05,30,,,,,2.6,1.4,2.2*3D
$GPRMC,140348.000,A,6351.1640,N,01813.5109,W,6.34,126.32,010912,,,A*7C
$GPGGA,140349.000,6351.1629,N,01813.5076,W,1,08,1.4,347.7,M,60.1,M,,0000*4A
$GPGSA,A,3,16,03,13,21,06,29,05,30,,,,,2.6,1.4,2.2*3D
$GPRMC,140349.000,A,6351.1629,N,01813.5076,W,6.67,125.81,010912,,,A*76
$GPGGA,140350.000,6351.1618,N,01813.5040,W,1,08,1.4,347.6,M,60.1,M,,0000*44
$GPGSA,A,3,16,03,13,21,06,29,05,30,,,,,2.6,1.4,2.2*3D
$GPGSV,3,1,12,16,73,239,28,30,59,155,43,06,51,230,42,21,50,102,35*76
$GPGSV,3,2,12,03,35,242,38,13,21,290,30,07,20,322,,05,15,015,33*7B
$GPGSV,3,3,12,29,12,071,33,19,06,239,27,23,06,261,31,31,04,176,33*71
$GPRMC,140350.000,A,6351.1618,N,01813.5040,W,7.01,124.31,010912,,,A*72
$GPGGA,140351.000,6351.1606,N,01813.5002,W,1,08,1.5,347.5,M,60.1,M,,0000*4E
$GPGSA,A,3,16,03,13,21,06,29,30,07,,,,,2.7,1.5,2.2*3F
$GPRMC,140351.000,A,6351.1606,N,01813.5002,W,7.64,125.14,010912,,,A*7F
$GPGGA,140352.000,6351.1593,N,01813.4960,W,1,09,1.3,347.4,M,60.1,M,,0000*48
$GPGSA,A,3,16,03,13,21,06,29,05,30,07,,,,2.5,1.3,2.1*3D
$GPRMC,140352.000,A,6351.1593,N,01813.4960,W,8.35,125.01,010912,,,A*70
$GPGGA,140353.000,6351.1578,N,01813.4915,W,1,08,1.3,347.2,M,60.1,M,,0000*49
$GPGSA,A,3,16,03,21,06,29,05,30,07,,,,,2.6,1.3,2.2*3F
$GPRMC,140353.000,A,6351.1578,N,01813.4915,W,8.94,126.07,010912,,,A*78
$GPGGA,140354.000,6351.1563,N,01813.4870,W,1,08,1.3,347.0,M,60.1,M,,0000*44
$GPGSA,A,3,16,03,21,06,29,05,30,07,,,,,2.6,1.3,2.2*3F
$GPRMC,140354.000,A,6351.1563,N,01813.4870,W,9.23,127.28,010912,,,A*76
$GPGGA,140355.000,6351.1547,N,01813.4827,W,1,08,1.3,346.9,M,60.1,M,,0000*49
$GPGSA,A,3,16,03,21,06,29,05,30,07,,,,,2.6,1.3,2.2*3F
$GPGSV,3,1,12,16,73,239,24,30,58,155,43,06,51,229,41,21,50,102,36*73
$GPGSV,3,2,12,03,35,242,38,13,21,290,,07,20,322,25,05,15,015,32*7E
$GPGSV,3,3,12,29,12,071,34,19,07,239,31,23,06,261,27,31,03,176,32*71
$GPRMC,140355.000,A,6351.1547,N,01813.4827,W,8.91,128.55,010912,,,A*7E
$GPGGA,140356.000,6351.1531,N,01813.4784,W,1,09,1.3,346.7,M,60.1,M,,0000*42
$GPGSA,A,3,16,03,13,21,06,29,05,30,07,,,,2.5,1.3,2.1*3D
$GPRMC,140356.000,A,6351.1531,N,01813.4784,W,9.08,129.84,010912,,,A*76
$GPGGA,140357.000,6351.1514,N,01813.4741,W,1,09,1.3,346.5,M,60.1,M,,0000*4F
$GPGSA,A,3,16,03,13,21,06,29,05,30,07,,,,2.5,1.3,2.1*3D
$GPRMC,140357.000,A,6351.1514,N,01813.4741,W,9.33,131.76,010912,,,A*75
$GPGGA,140358.000,6351.1497,N,01813.4695,W,1,08,1.4,346.2,M,60.1,M,,0000*43
$GPGSA,A,3,16,03,13,21,06,29,05,30,,,,,2.6,1.4,2.2*3D
$GPRMC,140358.000,A,6351.1497,N,01813.4695,W,9.57,128.80,010912,,,A*7B
$GPGGA,140359.000,6351.1482,N,01813.4643,W,1,08,1.4,346.0,M,60.1,M,,0000*4F
$GPGSA,A,3,16,03,13,21,06,29,05,30,,,,,2.6,1.4,2.2*3D
$GPRMC,140359.000,A,6351.1482,N,01813.4643,W,9.95,121.41,010912,,,A*7F
$GPGGA,140400.000,6351.1468,N,01813.4589,W,1,09,1.3,345.8,M,60.1,M,,0000*48
$GPGSA,A,3,16,03,13,21,06,29,05,30,07,,,,2.5,1.3,2.1*3D
$GPGSV,3,1,12,16,73,239,31,30,58,155,42,06,51,229,41,21,50,102,37*77
$GPGSV,3,2,12,03,35,242,38,13,21,290,21,07,20,322,26,05,15,015,31*7D
$GPGSV,3,3,12,29,12,071,33,19,07,239,35,23,06,261,27,31,03,176,32*72
$GPRMC,140400.000,A,6351.1468,N,01813.4589,W,10.02,119.67,010912,,,A*4C
$GPGGA,140401.000,6351.1452,N,01813.4537,W,1,09,1.3,345.6,M,60.1,M,,0000*4B
$GPGSA,A,3,16,03,13,21,06,29,05,30,07,,,,2.5,1.3,2.1*3D
$GPRMC,140401.000,A,6351.1452,N,01813.4537,W,10.00,123.28,010912,,,A*41
$GPGGA,140402.000,6351.1436,N,01813.4487,W,1,09,1.3,345.4,M,60.1,M,,0000*42
$GPGSA,A,3,16,03,13,21,06,29,05,30,07,,,,2.5,1.3,2.1*3D
$GPRMC,140402.000,A,6351.1436,N,01813.4487,W,9.83,124.89,010912,,,A*75
$GPGGA,140403.000,6351.1420,N,01813.4438,W,1,08,1.4,345.2,M,60.1,M,,0000*40
$GPGSA,A,3,16,03,13,21,06,29,05,30,,,,,2.6,1.4,2.2*3D
$GPRMC,140403.000,A,6351.1420,N,01813.4438,W,9.85,126.59,010912,,,A*7E
$GPGGA,140404.000,6351.1403,N,01813.4392,W,1,08,1.4,345.0,M,60.1,M,,0000*43
$GPGSA,A,3,16,03,13,21,06,29,05,30,,,,,2.6,1.4,2.2*3D
$GPRMC,140404.000,A,6351.1403,N,01813.4392,W,9.65,129.27,010912,,,A*77
$GPGGA,140405.000,6351.1385,N,01813.4346,W,1,08,1.4,344.9,M,60.1,M,,0000*4A
$GPGSA,A,3,16,03,13,21,06,29,05,30,,,,,2.6,1.4,2.2*3D
$GPGSV,3,1,12,16,73,239,25,30,58,155,42,06,51,229,41,21,50,102,26*72
$GPGSV,3,2,12,03,35,242,35,13,21,290,23,07,20,322,,05,15,015,33*74
$GPGSV,3,3,12,29,12,071,30,19,07,239,31,23,06,261,27,31,03,176,32*75
$GPRMC,140405.000,A,6351.1385,N,01813.4346,W,9.57,130.13,010912,,,A*78
$GPGGA,140406.000,6351.1368,N,01813.4301,W,1,08,1.4,344.8,M,60.1,M,,0000*48
$GPGSA,A,3,16,03,13,21,06,29,05,30,,,,,2.6,1.4,2.2*3D
$GPRMC,140406.000,A,6351.1368,N,01813.4301,W,9.40,129.91,010912,,,A*7F
$GPGGA,140407.000,6351.1352,N,01813.4256,W,1,08,1.4,344.6,M,60.1,M,,0000*4D
$GPGSA,A,3,16,03,13,21,06,29,05,30,,,,,2.6,1.4,2.2*3D
$GPRMC,140407.000,A,6351.1352,N,01813.4256,W,9.22,128.88,010912,,,A*79
$GPGGA,140408.000,6351.1338,N,01813.4211,W,1,09,1.3,344.6,M,60.1,M,,0000*4B
$GPGSA,A,3,16,03,13,21,06,29,05,30,07,,,,2.5,1.3,2.1*3D
$GPRMC,140408.000,A,6351.1338,N,01813.4211,W,8.90,124.60,010912,,,A*7B
$GPGGA,140409.000,6351.1323,N,01813.4164,W,1,09,1.3,344.6,M,60.1,M,,0000*41
$GPGSA,A,3,16,03,13,21,06,29,05,30,07,,,,2.5,1.3,2.1*3D
$GPRMC,140409.000,A,6351.1323,N,01813.4164,W,9.15,125.59,010912,,,A*76
$GPGGA,140410.000,6351.1308,N,01813.4116,W,1,09,1.3,344.6,M,60.1,M,,0000*45
$GPGSA,A,3,16,03,13,21,06,29,05,30,07,,,,2.5,1.3,2.1*3D
$GPGSV,3,1,12,16,73,239,26,30,58,155,42,06,51,229,41,21,50,102,35*73
$GPGSV,3,2,12,03,35,242,36,13,21,290,31,07,20,322,25,05,15,015,35*75
$GPGSV,3,3,12,29,12,071,33,19,07,239,33,23,06,261,22,31,03,176,33*70
$GPRMC,140410.000,A,6351.1308,N,01813.4116,W,9.40,124.25,010912,,,A*78
$GPGGA,140411.000,6351.1294,N,01813.4065,W,1,08,1.4,344.6,M,60.1,M,,0000*43
$GPGSA,A,3,16,03,13,21,06,29,05,30,,,,,2.6,1.4,2.2*3D
$GPRMC,140411.000,A,6351.1294,N,01813.4065,W,9.61,122.68,010912,,,A*74
$GPGGA,140412.000,6351.1280,N,01813.4014,W,1,08,1.4,344.6,M,60.1,M,,0000*43
$GPGSA,A,3,16,03,13,21,06,29,05,30,,,,,2.6,1.4,2.2*3D
$GPRMC,140412.000,A,6351.1280,N,01813.4014,W,9.63,121.37,010912,,,A*7F
$GPGGA,140413.000,6351.1265,N,01813.3964,W,1,09,1.3,344.6,M,60.1,M,,0000*46
$GPGSA,A,3,16,03,13,21,06,29,05,30,07,,,,2.5,1.3,2.1*3D
$GPRMC,140413.000,A,6351.1265,N,01813.3964,W,9.57,123.03,010912,,,A*7E
$GPGGA,140414.000,6351.1253,N,01813.3912,W,1,09,1.3,344.7,M,60.1,M,,0000*44
$GPGSA,A,3,16,03,13,21,06,29,05,30,07,,,,2.5,1.3,2.1*3D
$GPRMC,140414.000,A,6351.1253,N,01813.3912,W,9.34,118.00,010912,,,A*73
$GPGGA,140415.000,6351.1242,N,01813.3859,W,1,09,1.3,344.6,M,60.1,M,,0000*4A
$GPGSA,A,3,16,03,13,21,06,29,05,30,07,,,,2.5,1.3,2.1*3D
$GPGSV,3,1,12,16,73,238,27,30,58,155,31,06,51,229,40,21,50,102,36*75
$GPGSV,3,2,12,03,35,242,36,13,21,290,29,07,20,322,28,05,15,015,19*7F
$GPGSV,3,3,12,29,11,071,33,19,07,239,20,23,06,261,30,31,03,176,26*76
$GPRMC,140415.000,A,6351.1242,N,01813.3859,W,9.29,113.22,010912,,,A*7B
$GPGGA,140416.000,6351.1231,N,01813.3804,W,1,09,1.3,344.4,M,60.1,M,,0000*47
$GPGSA,A,3,16,03,13,21,06,29,05,30,07,,,,2.5,1.3,2.1*3D
$GPRMC,140416.000,A,6351.1231,N,01813.3804,W,9.47,112.10,010912,,,A*7C
$GPGGA,140417.000,6351.1220,N,01813.3747,W,1,09,1.3,344.2,M,60.1,M,,0000*48
$GPGSA,A,3,16,03,13,21,06,29,05,30,07,,,,2.5,1.3,2.1*3D
$GPRMC,140417.000,A,6351.1220,N,01813.3747,W,9.65,111.32,010912,,,A*76
$GPGGA,140418.000,6351.1211,N,01813.3690,W,1,09,1.3,344.0,M,60.1,M,,0000*4C
$GPGSA,A,3,16,03,13,21,06,29,05,30,07,,,,2.5,1.3,2.1*3D
$GPRMC,140418.000,A,6351.1211,N,01813.3690,W,9.71,108.11,010912,,,A*7C
$GPGGA,140419.000,6351.1203,N,01813.3630,W,1,09,1.3,343.8,M,60.1,M,,0000*4B
$GPGSA,A,3,16,03,13,21,06,29,05,30,07,,,,2.5,1.3,2.1*3D
$GPRMC,140419.000,A,6351.1203,N,01813.3630,W,9.82,105.09,010912,,,A*7C
$GPGGA,140420.000,6351.1195,N,01813.3570,W,1,09,1.3,343.6,M,60.1,M,,0000*44
$GPGSA,A,3,16,03,13,21,06,29,05,30,07,,,,2.5,1.3,2.1*3D
$GPGSV,3,1,12,16,73,238,35,30,58,155,31,06,51,229,41,21,50,102,33*72
$GPGSV,3,2,12,03,35,242,41,13,21,290,29,07,20,322,29,05,15,015,33*76
$GPGSV,3,3,12,29,11,071,31,19,07,239,25,23,06,261,33,31,03,176,26*72
$GPRMC,140420.000,A,6351.1195,N,01813.3570,W,9.93,105.99,010912,,,A*74
$GPGGA,140421.000,6351.1187,N,01813.3510,W,1,09,1.3,343.6,M,60.1,M,,0000*40
$GPGSA,A,3,16,03,13,21,06,29,05,30,07,,,,2.5,1.3,2.1*3D
$GPRMC,140421.000,A,6351.1187,N,01813.3510,W,9.89,104.87,010912,,,A*75
$GPGGA,140422.000,6351.1178,N,01813.3451,W,1,09,1.3,343.5,M,60.1,M,,0000*44
$GPGSA,A,3,16,03,13,21,06,29,05,30,07,,,,2.5,1.3,2.1*3D
$GPRMC,140422.000,A,6351.1178,N,01813.3451,W,9.80,106.09,010912,,,A*7F
$GPGGA,140423.000,6351.1170,N,01813.3395,W,1,09,1.3,343.6,M,60.1,M,,0000*41
$GPGSA,A,3,16,03,13,21,06,29,05,30,07,,,,2.5,1.3,2.1*3D
$GPRMC,140423.000,A,6351.1170,N,01813.3395,W,9.40,106.59,010912,,,A*70
$GPGGA,140424.000,6351.1162,N,01813.3343,W,1,08,1.4,343.7,M,60.1,M,,0000*49
$GPGSA,A,3,16,03,13,21,06,29,05,30,,,,,2.6,1.4,2.2*3D
$GPRMC,140424.000,A,6351.1162,N,01813.3343,W,8.68,106.92,010912,,,A*73
$GPGGA,140425.000,6351.1156,N,01813.3295,W,1,09,1.3,343.9,M,60.1,M,,0000*4D
$GPGSA,A,3,16,03,13,21,06,29,05,30,07,,,,2.5,1.3,2.1*3D
$GPGSV,3,1,12,16,73,238,35,30,58,155,31,06,51,229,41,21,50,102,35*74
$GPGSV,3,2,12,03,35,242,41,13,21,290,29,07,20,322,19,05,15,015,25*72
$GPGSV,3,3,12,29,11,071,31,19,07,239,32,23,06,261,31,31,03,176,26*76
$GPRMC,140425.000,A,6351.1156,N,01813.3295,W,7.82,104.65,010912,,,A*7E
$GPGGA,140426.000,6351.1152,N,01813.3252,W,1,09,1.3,344.1,M,60.1,M,,0000*4E
$GPGSA,A,3,16,03,13,21,06,29,05,30,07,,,,2.5,1.3,2.1*3D
$GPRMC,140426.000,A,6351.1152,N,01813.3252,W,6.98,101.60,010912,,,A*78
$GPGGA,140427.000,6351.1147,N,01813.3211,W,1,09,1.3,344.3,M,60.1,M,,0000*4E
$GPGSA,A,3,16,03,13,21,06,29,05,30,07,,,,2.5,1.3,2.1*3D
$GPRMC,140427.000,A,6351.1147,N,01813.3211,W,6.69,102.84,010912,,,A*7D
$GPGGA,140428.000,6351.1142,N,01813.3170,W,1,08,1.5,344.5,M,60.1,M,,0000*41
$GPGSA,A,3,03,13,21,06,29,05,30,07,,,,,3.2,1.5,2.8*33
$GPRMC,140428.000,A,6351.1142,N,01813.3170,W,6.78,103.39,010912,,,A*74
$GPGGA,140429.000,6351.1138,N,01813.3126,W,1,09,1.3,344.7,M,60.1,M,,0000*4B
$GPGSA,A,3,16,03,13,21,06,29,05,30,07,,,,2.5,1.3,2.1*3D
$GPRMC,140429.000,A,6351.1138,N,01813.3126,W,7.01,100.08,010912,,,A*75
$GPGGA,140430.000,6351.1138,N,01813.3078,W,1,09,1.3,344.9,M,60.1,M,,0000*47
$GPGSA,A,3,16,03,13,21,06,29,05,30,07,,,,2.5,1.3,2.1*3D
$GPGSV,3,1,12,16,73,238,26,30,58,155,36,06,51,229,38,21,50,102,34*7E
$GPGSV,3,2,12,03,35,242,32,13,21,290,28,07,20,322,31,05,15,015,31*78
$GPGSV,3,3,12,29,11,071,27,19,07,239,30,23,06,261,33,31,03,176,27*70
$GPRMC,140430.000,A,6351.1138,N,01813.3078,W,7.67,90.53,010912,,,A*41
$GPGGA,140431.000,6351.1142,N,01813.3030,W,1,09,1.3,345.0,M,60.1,M,,0000*4F
$GPGSA,A,3,16,03,13,21,06,29,05,30,07,,,,2.5,1.3,2.1*3D
$GPRMC,140431.000,A,6351.1142,N,01813.3030,W,7.83,77.19,010912,,,A*4C
$GPGGA,140432.000,6351.1150,N,01813.2983,W,1,08,1.3,345.1,M,60.1,M,,0000*4F
$GPGSA,A,3,16,03,21,06,29,05,30,07,,,,,2.6,1.3,2.2*3F
$GPRMC,140432.000,A,6351.1150,N,01813.2983,W,8.21,66.53,010912,,,A*45
$GPGGA,140433.000,6351.1161,N,01813.2937,W,1,09,1.3,345.3,M,60.1,M,,0000*40
$GPGSA,A,3,16,03,13,21,06,29,05,30,07,,,,2.5,1.3,2.1*3D
$GPRMC,140433.000,A,6351.1161,N,01813.2937,W,8.47,60.85,010912,,,A*44
$GPGGA,140434.000,6351.1172,N,01813.2892,W,1,09,1.3,345.4,M,60.1,M,,0000*4C
$GPGSA,A,3,16,03,13,21,06,29,05,30,07,,,,2.5,1.3,2.1*3D
$GPRMC,140434.000,A,6351.1172,N,01813.2892,W,8.31,58.64,010912,,,A*4A
$GPGGA,140435.000,6351.1184,N,01813.2850,W,1,09,1.3,345.5,M,60.1,M,,0000*4B
$GPGSA,A,3,16,03,13,21,06,29,05,30,07,,,,2.5,1.3,2.1*3D
$GPGSV,3,1,12,16,73,238,37,30,58,155,39,06,51,229,27,21,50,102,26*7C
$GPGSV,3,2,12,03,35,242,32,13,21,290,33,07,20,322,22,05,15,015,32*73
$GPGSV,3,3,12,29,11,071,33,19,07,239,20,23,06,261,30,31,03,176,32*73
$GPRMC,140435.000,A,6351.1184,N,01813.2850,W,8.01,54.84,010912,,,A*4D
$GPGGA,140436.000,6351.1196,N,01813.2808,W,1,08,1.3,345.6,M,60.1,M,,0000*44
$GPGSA,A,3,16,03,21,06,29,05,30,07,,,,,2.6,1.3,2.2*3F
$GPRMC,140436.000,A,6351.1196,N,01813.2808,W,7.99,55.64,010912,,,A*41
$GPGGA,140437.000,6351.1207,N,01813.2767,W,1,08,1.3,345.7,M,60.1,M,,0000*49
$GPGSA,A,3,16,03,13,06,29,05,30,07,,,,,2.6,1.3,2.2*3E
$GPRMC,140437.000,A,6351.1207,N,01813.2767,W,7.49,58.52,010912,,,A*48
$GPGGA,140438.000,6351.1214,N,01813.2725,W,1,08,1.3,345.8,M,60.1,M,,0000*4D
$GPGSA,A,3,16,03,13,06,29,05,30,07,,,,,2.6,1.3,2.2*3E
$GPRMC,140438.000,A,6351.1214,N,01813.2725,W,7.22,66.82,010912,,,A*4E
$GPGGA,140439.000,6351.1220,N,01813.2679,W,1,08,1.3,345.9,M,60.1,M,,0000*42
$GPGSA,A,3,16,03,21,06,29,05,30,07,,,,,2.6,1.3,2.2*3F
$GPRMC,140439.000,A,6351.1220,N,01813.2679,W,7.58,73.35,010912,,,A*45
$GPGGA,140440.000,6351.1224,N,01813.2632,W,1,08,1.5,345.9,M,60.1,M,,0000*41
$GPGSA,A,3,16,03,13,21,06,29,30,07,,,,,2.7,1.5,2.2*3F
$GPGSV,3,1,12,16,73,238,37,30,58,155,37,06,51,229,32,21,50,102,36*77
$GPGSV,3,2,12,03,35,242,31,13,21,290,23,07,20,322,36,05,15,015,29*7E
$GPGSV,3,3,12,29,11,071,33,19,07,239,28,23,06,261,25,31,03,176,22*7E
$GPRMC,140440.000,A,6351.1224,N,01813.2632,W,7.61,79.27,010912,,,A*43
$GPGGA,140441.000,6351.1226,N,01813.2583,W,1,09,1.3,345.8,M,60.1,M,,0000*4D
$GPGSA,A,3,16,03,13,21,06,29,05,30,07,,,,2.5,1.3,2.1*3D
$GPRMC,140441.000,A,6351.1226,N,01813.2583,W,7.86,86.30,010912,,,A*46
$GPGGA,140442.000,6351.1225,N,01813.2533,W,1,09,1.3,345.8,M,60.1,M,,0000*46
$GPGSA,A,3,16,03,13,21,06,29,05,30,07,,,,2.5,1.3,2.1*3D
$GPRMC,140442.000,A,6351.1225,N,01813.2533,W,8.09,91.78,010912,,,A*4F
$GPGGA,140443.000,6351.1222,N,01813.2482,W,1,08,1.5,345.7,M,60.1,M,,0000*43
$GPGSA,A,3,16,03,13,21,06,29,30,07,,,,,2.7,1.5,2.2*3F
$GPRMC,140443.000,A,6351.1222,N,01813.2482,W,8.20,97.70,010912,,,A*47
$GPGGA,140444.000,6351.1217,N,01813.2432,W,1,09,1.3,345.6,M,60.1,M,,0000*4F
$GPGSA,A,3,16,03,13,21,06,29,05,30,07,,,,2.5,1.3,2.1*3D
$GPRMC,140444.000,A,6351.1217,N,01813.2432,W,8.41,104.76,010912,,,A*77
$GPGGA,140445.000,6351.1210,N,01813.2380,W,1,09,1.3,345.5,M,60.1,M,,0000*44
$GPGSA,A,3,16,03,13,21,06,29,05,30,07,,,,2.5,1.3,2.1*3D
$GPGSV,3,1,12,16,73,238,32,30,58,155,38,06,51,229,37,21,50,102,34*7A
$GPGSV,3,2,12,03,35,242,36,13,21,290,25,07,20,322,29,05,15,015,29*71
$GPGSV,3,3,12,29,11,071,30,19,07,239,25,23,06,261,31,31,03,176,28*7F
$GPRMC,140445.000,A,6351.1210,N,01813.2380,W,8.80,107.89,010912,,,A*71
$GPGGA,140446.000,6351.1201,N,01813.2327,W,1,09,1.3,345.3,M,60.1,M,,0000*4C
$GPGSA,A,3,16,03,13,21,06,29,05,30,07,,,,2.5,1.3,2.1*3D
$GPRMC,140446.000,A,6351.1201,N,01813.2327,W,9.12,111.04,010912,,,A*77
$GPGGA,140447.000,6351.1191,N,01813.2274,W,1,08,1.5,345.2,M,60.1,M,,0000*46
$GPGSA,A,3,16,03,13,21,06,29,30,07,,,,,2.7,1.5,2.2*3F
$GPRMC,140447.000,A,6351.1191,N,01813.2274,W,9.26,113.89,010912,,,A*7B
$GPGGA,140448.000,6351.1181,N,01813.2222,W,1,09,1.3,345.0,M,60.1,M,,0000*4E
$GPGSA,A,3,16,03,13,21,06,29,05,30,07,,,,2.5,1.3,2.1*3D
$GPRMC,140448.000,A,6351.1181,N,01813.2222,W,9.11,113.66,010912,,,A*73
$GPGGA,140449.000,6351.1172,N,01813.2171,W,1,09,1.3,344.8,M,60.1,M,,0000*4F
$GPGSA,A,3,16,03,13,21,06,29,05,30,07,,,,2.5,1.3,2.1*3D
$GPRMC,140449.000,A,6351.1172,N,01813.2171,W,8.82,112.62,010912,,,A*75
$GPGGA,140450.000,6351.1163,N,01813.2121,W,1,09,1.3,344.5,M,60.1,M,,0000*4F
$GPGSA,A,3,16,03,13,21,06,29,05,30,07,,,,2.5,1.3,2.1*3D
$GPGSV,3,1,12,16,73,238,22,30,58,155,35,06,51,229,39,21,50,102,36*7A
$GPGSV,3,2,12,03,35,242,37,13,21,290,27,07,20,322,29,05,15,015,28*73
$GPGSV,3,3,12,29,11,071,32,19,07,239,20,23,06,261,25,31,03,176,28*7D
$GPRMC,140450.000,A,6351.1163,N,01813.2121,W,8.56,111.60,010912,,,A*70
$GPGGA,140451.000,6351.1154,N,01813.2073,W,1,09,1.3,344.3,M,60.1,M,,0000*4A
$GPGSA,A,3,16,03,13,21,06,29,05,30,07,,,,2.5,1.3,2.1*3D
$GPRMC,140451.000,A,6351.1154,N,01813.2073,W,8.37,113.60,010912,,,A*76
$GPGGA,140452.000,6351.1145,N,01813.2027,W,1,09,1.3,344.1,M,60.1,M,,0000*4A
$GPGSA,A,3,16,03,13,21,06,29,05,30,07,,,,2.5,1.3,2.1*3D
$GPRMC,140452.000,A,6351.1145,N,01813.2027,W,7.90,113.89,010912,,,A*71
$GPGGA,140453.000,6351.1136,N,01813.1984,W,1,09,1.3,343.8,M,60.1,M,,0000*42
$GPGSA,A,3,16,03,13,21,06,29,05,30,07,,,,2.5,1.3,2.1*3D
$GPRMC,140453.000,A,6351.1136,N,01813.1984,W,7.59,115.24,010912,,,A*73
$GPGGA,140454.000,6351.1126,N,01813.1943,W,1,09,1.3,343.5,M,60.1,M,,0000*42
$GPGSA,A,3,16,03,13,21,06,29,05,30,07,,,,2.5,1.3,2.1*3D
$GPRMC,140454.000,A,6351.1126,N,01813.1943,W,7.39,116.89,010912,,,A*7C
$GPGGA,140455.000,6351.1117,N,01813.1904,W,1,09,1.3,343.3,M,60.1,M,,0000*44
$GPGSA,A,3,16,03,13,21,06,29,05,30,07,,,,2.5,1.3,2.1*3D
$GPGSV,3,1,12,16,73,238,33,30,58,155,41,06,51,229,44,21,50,102,36*73
$GPGSV,3,2,12,03,35,242,37,13,21,290,27,07,20,322,27,05,15,015,31*75
$GPGSV,3,3,12,29,11,071,28,19,07,239,,23,06,261,33,31,03,176,28*73
$GPRMC,140455.000,A,6351.1117,N,01813.1904,W,7.19,119.33,010912,,,A*70
$GPGGA,140456.000,6351.1107,N,01813.1868,W,1,08,1.4,343.1,M,60.1,M,,0000*49
$GPGSA,A,3,16,03,13,21,06,29,05,30,,,,,2.6,1.4,2.2*3D
$GPRMC,140456.000,A,6351.1107,N,01813.1868,W,6.68,121.69,010912,,,A*7A
$GPGGA,140457.000,6351.1099,N,01813.1840,W,1,08,1.4,342.9,M,60.1,M,,0000*4D
$GPGSA,A,3,16,03,13,21,06,29,05,30,,,,,2.6,1.4,2.2*3D
$GPRMC,140457.000,A,6351.1099,N,01813.1840,W,5.38,121.97,010912,,,A*70
$GPGGA,140458.000,6351.1091,N,01813.1815,W,1,08,1.4,342.7,M,60.1,M,,0000*44
$GPGSA,A,3,16,03,13,21,06,29,05,30,,,,,2.6,1.4,2.2*3D
$GPRMC,140458.000,A,6351.1091,N,01813.1815,W,4.65,123.47,010912,,,A*71
$GPGGA,140459.000,6351.1084,N,01813.1792,W,1,08,1.4,342.5,M,60.1,M,,0000*43
$GPGSA,A,3,16,03,13,21,06,29,05,30,,,,,2.6,1.4,2.2*3D
$GPRMC,140459.000,A,6351.1084,N,01813.1792,W,4.41,124.35,010912,,,A*70
$GPGGA,140500.000,6351.1078,N,01813.1772,W,1,08,1.4,342.4,M,60.1,M,,0000*42
$GPGSA,A,3,16,03,13,21,06,29,05,30,,,,,2.6,1.4,2.2*3D
$GPGSV,3,1,12,16,73,238,35,30,58,155,45,06,51,229,43,21,50,102,35*75
$GPGSV,3,2,12,03,35,242,38,13,21,290,31,07,20,322,,05,15,015,35*7C
$GPGSV,3,3,12,29,11,071,29,19,07,239,30,23,06,261,32,31,03,176,31*78
$GPRMC,140500.000,A,6351.1078,N,01813.1772,W,3.99,122.58,010912,,,A*7F
$GPGGA,140501.000,6351.1073,N,01813.1752,W,1,08,1.4,342.3,M,60.1,M,,0000*4D
$GPGSA,A,3,16,03,13,21,06,29,05,30,,,,,2.6,1.4,2.2*3D
$GPRMC,140501.000,A,6351.1073,N,01813.1752,W,3.61,121.52,010912,,,A*79
$GPGGA,140502.000,6351.1068,N,01813.1732,W,1,07,1.8,342.1,M,60.1,M,,0000*43
$GPGSA,A,3,16,03,13,21,06,05,30,,,,,,3.7,1.8,3.2*3B
$GPRMC,140502.000,A,6351.1068,N,01813.1732,W,3.78,119.41,010912,,,A*77
$GPGGA,140503.000,6351.1062,N,01813.1712,W,1,08,1.4,342.0,M,60.1,M,,0000*48
$GPGSA,A,3,16,03,13,21,06,29,05,30,,,,,2.6,1.4,2.2*3D
$GPRMC,140503.000,A,6351.1062,N,01813.1712,W,3.88,120.43,010912,,,A*79
$GPGGA,140504.000,6351.1057,N,01813.1691,W,1,08,1.4,341.9,M,60.1,M,,0000*49
$GPGSA,A,3,16,03,13,21,06,29,05,30,,,,,2.6,1.4,2.2*3D
$GPRMC,140504.000,A,6351.1057,N,01813.1691,W,3.92,121.49,010912,,,A*72
$GPGGA,140505.000,6351.1051,N,01813.1671,W,1,08,1.4,341.8,M,60.1,M,,0000*41
$GPGSA,A,3,16,03,13,21,06,29,05,30,,,,,2.6,1.4,2.2*3D
$GPGSV,3,1,12,16,73,238,34,30,58,155,45,06,51,229,43,21,50,102,35*74
$GPGSV,3,2,12,03,35,242,39,13,21,290,29,07,20,322,,05,15,015,34*75
$GPGSV,3,3,12,29,11,071,30,19,07,239,34,23,06,261,24,31,03,176,22*71
$GPRMC,140505.000,A,6351.1051,N,01813.1671,W,3.82,120.50,010912,,,A*73
$GPGGA,140506.000,6351.1046,N,01813.1651,W,1,08,1.4,341.7,M,60.1,M,,0000*49
$GPGSA,A,3,16,03,13,21,06,29,05,30,,,,,2.6,1.4,2.2*3D
$GPRMC,140506.000,A,6351.1046,N,01813.1651,W,3.82,122.36,010912,,,A*76
$GPGGA,140507.000,6351.1040,N,01813.1632,W,1,08,1.4,341.6,M,60.1,M,,0000*4A
$GPGSA,A,3,16,03,13,21,06,29,05,30,,,,,2.6,1.4,2.2*3D
$GPRMC,140507.000,A,6351.1040,N,01813.1632,W,3.75,123.78,010912,,,A*77
$GPGGA,140508.000,6351.1034,N,01813.1613,W,1,08,1.4,341.6,M,60.1,M,,0000*45
$GPGSA,A,3,16,03,13,21,06,29,05,30,,,,,2.6,1.4,2.2*3D
$GPRMC,140508.000,A,6351.1034,N,01813.1613,W,3.90,124.59,010912,,,A*77
$GPGGA,140509.000,6351.1027,N,01813.1595,W,1,08,1.4,341.6,M,60.1,M,,0000*4B
$GPGSA,A,3,16,03,13,21,06,29,05,30,,,,,2.6,1.4,2.2*3D
$GPRMC,140509.000,A,6351.1027,N,01813.1595,W,3.88,128.88,010912,,,A*70
$GPGGA,140510.000,6351.1020,N,01813.1578,W,1,08,1.4,341.5,M,60.1,M,,0000*44
$GPGSA,A,3,16,03,13,21,06,29,05,30,,,,,2.6,1.4,2.2*3D
$GPGSV,3,1,12,16,73,238,34,30,58,155,44,06,51,229,43,21,50,102,26*77
$GPGSV,3,2,12,03,35,242,40,13,21,290,22,07,20,322,,05,15,015,32*76
$GPGSV,3,3,12,29,11,071,25,19,07,239,26,23,06,261,25,31,03,176,30*74
$GPRMC,140510.000,A,6351.1020,N,01813.1578,W,3.85,133.90,010912,,,A*72
$GPGGA,140511.000,6351.1013,N,01813.1561,W,1,09,1.3,341.5,M,60.1,M,,0000*4B
$GPGSA,A,3,16,03,13,21,06,29,05,30,07,,,,2.5,1.3,2.1*3D
$GPRMC,140511.000,A,6351.1013,N,01813.1561,W,3.92,130.66,010912,,,A*77
$GPGGA,140512.000,6351.1005,N,01813.1543,W,1,09,1.3,341.5,M,60.1,M,,0000*4F
$GPGSA,A,3,16,03,13,21,06,29,05,30,07,,,,2.5,1.3,2.1*3D
$GPRMC,140512.000,A,6351.1005,N,01813.1543,W,3.98,132.81,010912,,,A*72
$GPGGA,140513.000,6351.0998,N,01813.1525,W,1,09,1.3,341.4,M,60.1,M,,0000*43
$GPGSA,A,3,16,03,13,21,06,29,05,30,07,,,,2.5,1.3,2.1*3D
$GPRMC,140513.000,A,6351.0998,N,01813.1525,W,4.01,131.87,010912,,,A*7D
$GPGGA,140514.000,6351.0991,N,01813.1507,W,1,09,1.3,341.4,M,60.1,M,,0000*4D
$GPGSA,A,3,16,03,13,21,06,29,05,30,07,,,,2.5,1.3,2.1*3D
$GPRMC,140514.000,A,6351.0991,N,01813.1507,W,3.99,130.65,010912,,,A*78
$GPGGA,140515.000,6351.0984,N,01813.1489,W,1,09,1.3,341.4,M,60.1,M,,0000*4F
$GPGSA,A,3,16,03,13,21,06,29,05,30,07,,,,2.5,1.3,2.1*3D
$GPGSV,3,1,12,16,73,237,35,30,58,154,43,06,52,229,42,21,50,101,22*7A
$GPGSV,3,2,12,03,35,242,40,13,20,290,24,07,20,321,27,05,15,014,34*70
$GPGSV,3,3,12,29,11,071,29,19,07,239,32,23,05,261,24,31,03,176,32*7D
$GPRMC,140515.000,A,6351.0984,N,01813.1489,W,4.01,128.82,010912,,,A*7C
$GPGGA,140516.000,6351.0978,N,01813.1470,W,1,09,1.3,341.4,M,60.1,M,,0000*49
$GPGSA,A,3,16,03,13,21,06,29,05,30,07,,,,2.5,1.3,2.1*3D
$GPRMC,140516.000,A,6351.0978,N,01813.1470,W,3.94,126.85,010912,,,A*78
$GPGGA,140517.000,6351.0971,N,01813.1450,W,1,09,1.3,341.3,M,60.1,M,,0000*44
$GPGSA,A,3,16,03,13,21,06,29,05,30,07,,,,2.5,1.3,2.1*3D
$GPRMC,140517.000,A,6351.0971,N,01813.1450,W,4.03,124.70,010912,,,A*73
$GPGGA,140518.000,6351.0964,N,01813.1430,W,1,09,1.3,341.3,M,60.1,M,,0000*49
$GPGSA,A,3,16,03,13,21,06,29,05,30,07,,,,2.5,1.3,2.1*3D
$GPRMC,140518.000,A,6351.0964,N,01813.1430,W,4.20,126.70,010912,,,A*7D
$GPGGA,140519.000,6351.0956,N,01813.1409,W,1,09,1.3,341.3,M,60.1,M,,0000*43
$GPGSA,A,3,16,03,13,21,06,29,05,30,07,,,,2.5,1.3,2.1*3D
$GPRMC,140519.000,A,6351.0956,N,01813.1409,W,4.57,130.33,010912,,,A*77
$GPGGA,140520.000,6351.0948,N,01813.1389,W,1,09,1.3,341.2,M,60.1,M,,0000*48
$GPGSA,A,3,16,03,13,21,06,29,05,30,07,,,,2.5,1.3,2.1*3D
$GPGSV,3,1,12,16,73,237,34,30,58,154,43,06,52,229,42,21,50,101,24*7D
$GPGSV,3,2,12,03,35,242,39,13,20,290,29,07,20,321,26,05,15,014,35*73
$GPGSV,3,3,12,29,11,071,23,19,07,239,33,23,05,261,32,31,03,176,28*7A
$GPRMC,140520.000,A,6351.0948,N,01813.1389,W,4.66,133.08,010912,,,A*74
$GPGGA,140521.000,6351.0938,N,01813.1368,W,1,09,1.3,341.2,M,60.1,M,,0000*41
$GPGSA,A,3,16,03,13,21,06,29,05,30,07,,,,2.5,1.3,2.1*3D
$GPRMC,140521.000,A,6351.0938,N,01813.1368,W,4.90,134.42,010912,,,A*7D
$GPGGA,140522.000,6351.0928,N,01813.1348,W,1,09,1.3,341.2,M,60.1,M,,0000*41
$GPGSA,A,3,16,03,13,21,06,29,05,30,07,,,,2.5,1.3,2.1*3D
$GPRMC,140522.000,A,6351.0928,N,01813.1348,W,4.88,137.32,010912,,,A*70
$GPGGA,140523.000,6351.0918,N,01813.1328,W,1,09,1.3,341.1,M,60.1,M,,0000*46
$GPGSA,A,3,16,03,13,21,06,29,05,30,07,,,,2.5,1.3,2.1*3D
$GPRMC,140523.000,A,6351.0918,N,01813.1328,W,5.02,138.95,010912,,,A*75
$GPGGA,140524.000,6351.0907,N,01813.1308,W,1,09,1.3,341.1,M,60.1,M,,0000*4D
$GPGSA,A,3,16,03,13,21,06,29,05,30,07,,,,2.5,1.3,2.1*3D
$GPRMC,140524.000,A,6351.0907,N,01813.1308,W,5.25,140.00,010912,,,A*78
$GPGGA,140525.000,6351.0895,N,01813.1288,W,1,09,1.3,341.1,M,60.1,M,,0000*4F
$GPGSA,A,3,16,03,13,21,06,29,05,30,07,,,,2.5,1.3,2.1*3D
$GPGSV,3,1,12,16,73,237,35,30,58,154,35,06,52,229,41,21,50,101,25*7F
$GPGSV,3,2,12,03,35,242,38,13,20,290,31,07,20,321,24,05,15,014,29*74
$GPGSV,3,3,12,29,11,071,27,19,07,239,31,23,05,261,38,31,03,176,33*7C
$GPRMC,140525.000,A,6351.0895,N,01813.1288,W,5.42,143.09,010912,,,A*71
$GPGGA,140526.000,6351.0884,N,01813.1269,W,1,09,1.3,341.1,M,60.1,M,,0000*43
$GPGSA,A,3,16,03,13,21,06,29,05,30,07,,,,2.5,1.3,2.1*3D
$GPRMC,140526.000,A,6351.0884,N,01813.1269,W,5.25,144.30,010912,,,A*71
$GPGGA,140527.000,6351.0872,N,01813.1252,W,1,09,1.3,341.1,M,60.1,M,,0000*43
$GPGSA,A,3,16,03,13,21,06,29,05,30,07,,,,2.5,1.3,2.1*3D
$GPRMC,140527.000,A,6351.0872,N,01813.1252,W,5.02,146.59,010912,,,A*79
$GPGGA,140528.000,6351.0861,N,01813.1237,W,1,09,1.3,341.1,M,60.1,M,,0000*4D
$GPGSA,A,3,16,03,13,21,06,29,05,30,07,,,,2.5,1.3,2.1*3D
$GPRMC,140528.000,A,6351.0861,N,01813.1237,W,4.62,146.60,010912,,,A*7A
$GPGGA,140529.000,6351.0853,N,01813.1222,W,1,09,1.3,341.1,M,60.1,M,,0000*49
$GPGSA,A,3,16,03,13,21,06,29,05,30,07,,,,2.5,1.3,2.1*3D
$GPRMC,140529.000,A,6351.0853,N,01813.1222,W,3.96,143.88,010912,,,A*71
$GPGGA,140530.000,6351.0844,N,01813.1208,W,1,09,1.3,341.1,M,60.1,M,,0000*4F
$GPGSA,A,3,16,03,13,21,06,29,05,30,07,,,,2.5,1.3,2.1*3D
$GPGSV,3,1,12,16,73,237,35,30,58,154,35,06,52,229,41,21,50,101,27*7D
$GPGSV,3,2,12,03,35,242,33,13,20,290,29,07,20,321,25,05,15,014,24*7A
$GPGSV,3,3,12,29,11,071,31,19,07,239,30,23,05,261,38,31,03,176,31*78
$GPRMC,140530.000,A,6351.0844,N,01813.1208,W,3.93,141.95,010912,,,A*7C
$GPGGA,140531.000,6351.0836,N,01813.1191,W,1,09,1.3,341.1,M,60.1,M,,0000*48
$GPGSA,A,3,16,03,13,21,06,29,05,30,07,,,,2.5,1.3,2.1*3D
$GPRMC,140531.000,A,6351.0836,N,01813.1191,W,4.10,138.16,010912,,,A*72
$GPGGA,140532.000,6351.0827,N,01813.1170,W,1,09,1.3,341.1,M,60.1,M,,0000*44
$GPGSA,A,3,16,03,13,21,06,29,05,30,07,,,,2.5,1.3,2.1*3D
$GPRMC,140532.000,A,6351.0827,N,01813.1170,W,4.64,134.46,010912,,,A*74
$GPGGA,140533.000,6351.0817,N,01813.1148,W,1,09,1.3,341.1,M,60.1,M,,0000*4D
$GPGSA,A,3,16,03,13,21,06,29,05,30,07,,,,2.5,1.3,2.1*3D
$GPRMC,140533.000,A,6351.0817,N,01813.1148,W,5.14,132.97,010912,,,A*71
$GPGGA,140534.000,6351.0807,N,01813.1124,W,1,09,1.3,341.0,M,60.1,M,,0000*40
$GPGSA,A,3,16,03,13,21,06,29,05,30,07,,,,2.5,1.3,2.1*3D
$GPRMC,140534.000,A,6351.0807,N,01813.1124,W,5.19,131.61,010912,,,A*7A
$GPGGA,140535.000,6351.0799,N,01813.1103,W,1,09,1.3,340.8,M,60.1,M,,0000*45
$GPGSA,A,3,16,03,13,21,06,29,05,30,07,,,,2.5,1.3,2.1*3D
$GPGSV,3,1,12,16,73,237,30,30,58,154,43,06,52,229,41,21,50,101,31*7E
$GPGSV,3,2,12,03,35,242,38,13,20,290,23,07,20,321,29,05,15,014,31*73
$GPGSV,3,3,12,29,11,071,26,19,07,239,31,23,05,261,,31,03,176,28*7C
$GPRMC,140535.000,A,6351.0799,N,01813.1103,W,4.61,131.45,010912,,,A*7E
$GPGGA,140536.000,6351.0791,N,01813.1083,W,1,09,1.3,340.6,M,60.1,M,,0000*49
$GPGSA,A,3,16,03,13,21,06,29,05,30,07,,,,2.5,1.3,2.1*3D
$GPRMC,140536.000,A,6351.0791,N,01813.1083,W,4.31,130.56,010912,,,A*7A
$GPGGA,140537.000,6351.0783,N,01813.1063,W,1,09,1.3,340.3,M,60.1,M,,0000*40
$GPGSA,A,3,16,03,13,21,06,29,05,30,07,,,,2.5,1.3,2.1*3D
$GPRMC,140537.000,A,6351.0783,N,01813.1063,W,4.16,128.85,010912,,,A*74
$GPGGA,140538.000,6351.0775,N,01813.1039,W,1,09,1.3,340.0,M,60.1,M,,0000*4A
$GPGSA,A,3,16,03,13,21,06,29,05,30,07,,,,2.5,1.3,2.1*3D
$GPRMC,140538.000,A,6351.0775,N,01813.1039,W,4.84,127.56,010912,,,A*77
$GPGGA,140539.000,6351.0767,N,01813.1017,W,1,09,1.3,339.6,M,60.1,M,,0000*4C
$GPGSA,A,3,16,03,13,21,06,29,05,30,07,,,,2.5,1.3,2.1*3D
$GPRMC,140539.000,A,6351.0767,N,01813.1017,W,4.66,130.01,010912,,,A*71
$GPGGA,140540.000,6351.0758,N,01813.0998,W,1,09,1.3,339.2,M,60.1,M,,0000*45
$GPGSA,A,3,16,03,13,21,06,29,05,30,07,,,,2.5,1.3,2.1*3D
$GPGSV,3,1,12,16,73,237,31,30,58,154,45,06,52,229,42,21,50,101,32*79
$GPGSV,3,2,12,03,35,242,39,13,20,290,24,07,20,321,29,05,15,014,32*76
$GPGSV,3,3,12,29,11,071,26,19,07,239,30,23,05,261,25,31,03,176,23*71
$GPRMC,140540.000,A,6351.0758,N,01813.0998,W,4.31,133.88,010912,,,A*7C
$GPGGA,140541.000,6351.0750,N,01813.0979,W,1,09,1.3,338.8,M,60.1,M,,0000*48
$GPGSA,A,3,16,03,13,21,06,29,05,30,07,,,,2.5,1.3,2.1*3D
$GPRMC,140541.000,A,6351.0750,N,01813.0979,W,4.12,132.29,010912,,,A*71
$GPGGA,140542.000,6351.0743,N,01813.0964,W,1,09,1.3,338.3,M,60.1,M,,0000*4E
$GPGSA,A,3,16,03,13,21,06,29,05,30,07,,,,2.5,1.3,2.1*3D
$GPRMC,140542.000,A,6351.0743,N,01813.0964,W,3.32,133.80,010912,,,A*7B
$GPGGA,140543.000,6351.0738,N,01813.0951,W,1,09,1.3,337.9,M,60.1,M,,0000*40
$GPGSA,A,3,16,03,13,21,06,29,05,30,07,,,,2.5,1.3,2.1*3D
$GPRMC,140543.000,A,6351.0738,N,01813.0951,W,2.95,132.11,010912,,,A*75
$GPGGA,140544.000,6351.0733,N,01813.0939,W,1,09,1.3,337.5,M,60.1,M,,0000*4E
$GPGSA,A,3,16,03,13,21,06,29,05,30,07,,,,2.5,1.3,2.1*3D
$GPRMC,140544.000,A,6351.0733,N,01813.0939,W,2.56,131.42,010912,,,A*7D
$GPGGA,140545.000,6351.0727,N,01813.0925,W,1,09,1.3,337.1,M,60.1,M,,0000*43
$GPGSA,A,3,16,03,13,21,06,29,05,30,07,,,,2.5,1.3,2.1*3D
$GPGSV,3,1,12,16,73,236,36,30,58,154,44,06,52,229,42,21,50,101,29*74
$GPGSV,3,2,12,03,36,242,41,07,20,321,29,13,20,289,23,05,15,014,33*74
$GPGSV,3,3,12,29,11,071,27,19,07,239,30,23,05,260,21,31,03,176,20*76
$GPRMC,140545.000,A,6351.0727,N,01813.0925,W,2.99,128.93,010912,,,A*73
$GPGGA,140546.000,6351.0721,N,01813.0910,W,1,09,1.3,336.8,M,60.1,M,,0000*48
$GPGSA,A,3,16,03,13,21,06,29,05,30,07,,,,2.5,1.3,2.1*3D
$GPRMC,140546.000,A,6351.0721,N,01813.0910,W,3.39,132.06,010912,,,A*7C
$GPGGA,140547.000,6351.0715,N,01813.0890,W,1,09,1.3,336.5,M,60.1,M,,0000*4A
$GPGSA,A,3,16,03,13,21,06,29,05,30,07,,,,2.5,1.3,2.1*3D
$GPRMC,140547.000,A,6351.0715,N,01813.0890,W,3.97,123.64,010912,,,A*73
$GPGGA,140548.000,6351.0707,N,01813.0870,W,1,08,1.5,336.3,M,60.1,M,,0000*49
$GPGSA,A,3,16,03,13,21,06,29,30,07,,,,,2.7,1.5,2.2*3F
$GPRMC,140548.000,A,6351.0707,N,01813.0870,W,4.16,128.85,010912,,,A*7B
$GPGGA,140549.000,6351.0699,N,01813.0852,W,1,09,1.3,336.1,M,60.1,M,,0000*4B
$GPGSA,A,3,16,03,13,21,06,29,05,30,07,,,,2.5,1.3,2.1*3D
$GPRMC,140549.000,A,6351.0699,N,01813.0852,W,4.21,134.68,010912,,,A*76
$GPGGA,140550.000,6351.0690,N,01813.0835,W,1,09,1.3,335.9,M,60.1,M,,0000*40
$GPGSA,A,3,16,03,13,21,06,29,05,30,07,,,,2.5,1.3,2.1*3D
$GPGSV,3,1,12,16,73,236,30,30,58,154,44,06,52,229,42,21,50,101,26*7D
$GPGSV,3,2,12,03,36,242,35,07,20,321,25,13,20,289,29,05,15,014,30*72
$GPGSV,3,3,12,29,11,071,30,19,07,239,23,23,05,260,27,31,03,176,19*7E
$GPRMC,140550.000,A,6351.0690,N,01813.0835,W,4.43,138.20,010912,,,A*72
$GPGGA,140551.000,6351.0679,N,01813.0814,W,1,09,1.3,335.7,M,60.1,M,,0000*4B
$GPGSA,A,3,16,03,13,21,06,29,05,30,07,,,,2.5,1.3,2.1*3D
$GPRMC,140551.000,A,6351.0679,N,01813.0814,W,5.18,139.10,010912,,,A*7A
$GPGGA,140552.000,6351.0667,N,01813.0790,W,1,09,1.3,335.5,M,60.1,M,,0000*46
$GPGSA,A,3,16,03,13,21,06,29,05,30,07,,,,2.5,1.3,2.1*3D
$GPRMC,140552.000,A,6351.0667,N,01813.0790,W,5.78,136.26,010912,,,A*79
$GPGGA,140553.000,6351.0652,N,01813.0762,W,1,09,1.3,335.2,M,60.1,M,,0000*4B
$GPGSA,A,3,16,03,13,21,06,29,05,30,07,,,,2.5,1.3,2.1*3D
$GPRMC,140553.000,A,6351.0652,N,01813.0762,W,7.08,138.46,010912,,,A*7E
$GPGGA,140554.000,6351.0637,N,01813.0730,W,1,09,1.3,334.9,M,60.1,M,,0000*42
$GPGSA,A,3,16,03,13,21,06,29,05,30,07,,,,2.5,1.3,2.1*3D
$GPRMC,140554.000,A,6351.0637,N,01813.0730,W,7.53,134.39,010912,,,A*77
$GPGGA,140555.000,6351.0621,N,01813.0692,W,1,09,1.3,334.5,M,60.1,M,,0000*41
$GPGSA,A,3,16,03,13,21,06,29,05,30,07,,,,2.5,1.3,2.1*3D
$GPGSV,3,1,12,16,73,236,29,30,58,154,45,06,52,229,42,21,50,101,33*70
$GPGSV,3,2,12,03,36,242,37,07,20,321,26,13,20,289,25,05,15,014,26*78
$GPGSV,3,3,12,29,11,071,26,19,07,239,07,23,05,260,13,31,03,176,24*76
$GPRMC,140555.000,A,6351.0621,N,01813.0692,W,8.56,132.87,010912,,,A*71
$GPGGA,140556.000,6351.0602,N,01813.0648,W,1,09,1.3,334.2,M,60.1,M,,0000*43
$GPGSA,A,3,16,03,13,21,06,29,05,30,07,,,,2.5,1.3,2.1*3D
$GPRMC,140556.000,A,6351.0602,N,01813.0648,W,9.94,132.35,010912,,,A*72
$GPGGA,140557.000,6351.0582,N,01813.0600,W,1,09,1.3,333.8,M,60.1,M,,0000*48
$GPGSA,A,3,16,03,13,21,06,29,05,30,07,,,,2.5,1.3,2.1*3D
$GPRMC,140557.000,A,6351.0582,N,01813.0600,W,10.68,131.82,010912,,,A*40
$GPGGA,140558.000,6351.0562,N,01813.0549,W,1,09,1.3,333.5,M,60.1,M,,0000*4A
$GPGSA,A,3,16,03,13,21,06,29,05,30,07,,,,2.5,1.3,2.1*3D
$GPRMC,140558.000,A,6351.0562,N,01813.0549,W,10.93,130.12,010912,,,A*43
$GPGGA,140559.000,6351.0545,N,01813.0497,W,1,09,1.3,333.1,M,60.1,M,,0000*48
$GPGSA,A,3,16,03,13,21,06,29,05,30,07,,,,2.5,1.3,2.1*3D
$GPRMC,140559.000,A,6351.0545,N,01813.0497,W,10.56,125.41,010912,,,A*4E
$GPGGA,140600.000,6351.0531,N,01813.0445,W,1,09,1.3,332.8,M,60.1,M,,0000*43
$GPGSA,A,3,16,03,13,21,06,29,05,30,07,,,,2.5,1.3,2.1*3D
$GPGSV,3,1,12,16,73,236,27,30,58,154,37,06,52,229,42,21,50,101,37*7F
$GPGSV,3,2,12,03,36,242,39,07,20,321,24,13,20,289,23,05,15,014,34*71
$GPGSV,3,3,12,29,11,071,31,19,07,239,,23,05,260,,31,03,176,23*72
$GPRMC,140600.000,A,6351.0531,N,01813.0445,W,9.94,119.76,010912,,,A*70
$GPGGA,140601.000,6351.0521,N,01813.0393,W,1,09,1.3,332.6,M,60.1,M,,0000*41
$GPGSA,A,3,16,03,13,21,06,29,05,30,07,,,,2.5,1.3,2.1*3D
$GPRMC,140601.000,A,6351.0521,N,01813.0393,W,9.33,113.54,010912,,,A*7B
$GPGGA,140602.000,6351.0512,N,01813.0339,W,1,09,1.3,332.5,M,60.1,M,,0000*41
$GPGSA,A,3,16,03,13,21,06,29,05,30,07,,,,2.5,1.3,2.1*3D
$GPRMC,140602.000,A,6351.0512,N,01813.0339,W,9.23,108.80,010912,,,A*7A
$GPGGA,140603.000,6351.0505,N,01813.0284,W,1,09,1.3,332.3,M,60.1,M,,0000*47
$GPGSA,A,3,16,03,13,21,06,29,05,30,07,,,,2.5,1.3,2.1*3D
$GPRMC,140603.000,A,6351.0505,N,01813.0284,W,9.33,104.90,010912,,,A*76
$GPGGA,140604.000,6351.0502,N,01813.0227,W,1,09,1.3,332.2,M,60.1,M,,0000*4F
$GPGSA,A,3,16,03,13,21,06,29,05,30,07,,,,2.5,1.3,2.1*3D
$GPRMC,140604.000,A,6351.0502,N,01813.0227,W,9.43,95.86,010912,,,A*46
$GPGGA,140605.000,6351.0499,N,01813.0170,W,1,09,1.3,332.1,M,60.1,M,,0000*4F
$GPGSA,A,3,16,03,13,21,06,29,05,30,07,,,,2.5,1.3,2.1*3D
$GPGSV,3,1,12,16,73,236,34,30,58,154,42,06,52,229,36,21,50,101,31*7A
$GPGSV,3,2,12,03,36,242,30,07,20,321,23,13,20,289,25,05,15,014,30*7D
$GPGSV,3,3,12,29,11,071,31,19,07,239,,23,05,260,,31,03,176,26*77
$GPRMC,140605.000,A,6351.0499,N,01813.0170,W,9.39,95.56,010912,,,A*45
$GPGGA,140606.000,6351.0494,N,01813.0113,W,1,08,1.6,332.1,M,60.1,M,,0000*40
$GPGSA,A,3,16,13,21,06,29,05,30,07,,,,,2.9,1.6,2.5*33
$GPRMC,140606.000,A,6351.0494,N,01813.0113,W,9.35,101.00,010912,,,A*7D
$GPGGA,140607.000,6351.0487,N,01813.0059,W,1,09,1.3,331.9,M,60.1,M,,0000*43
$GPGSA,A,3,16,03,13,21,06,29,05,30,07,,,,2.5,1.3,2.1*3D
$GPRMC,140607.000,A,6351.0487,N,01813.0059,W,9.07,105.24,010912,,,A*72
$GPGGA,140608.000,6351.0478,N,01813.0006,W,1,09,1.3,331.8,M,60.1,M,,0000*47
$GPGSA,A,3,16,03,13,21,06,29,05,30,07,,,,2.5,1.3,2.1*3D
$GPRMC,140608.000,A,6351.0478,N,01813.0006,W,9.00,110.12,010912,,,A*71
$GPGGA,140609.000,6351.0469,N,01812.9954,W,1,08,1.3,331.7,M,60.1,M,,0000*4E
$GPGSA,A,3,16,03,13,06,29,05,30,07,,,,,2.6,1.3,2.2*3E
$GPRMC,140609.000,A,6351.0469,N,01812.9954,W,8.94,109.67,010912,,,A*70
$GPGGA,140610.000,6351.0462,N,01812.9904,W,1,09,1.3,331.4,M,60.1,M,,0000*4A
$GPGSA,A,3,16,03,13,21,06,29,05,30,07,,,,2.5,1.3,2.1*3D
$GPGSV,3,1,12,16,73,236,30,30,58,154,36,06,52,229,40,21,50,101,30*7D
$GPGSV,3,2,12,03,36,242,39,07,20,321,28,13,20,289,20,05,15,014,31*7B
$GPGSV,3,3,12,29,11,071,27,19,07,239,28,23,05,260,,31,03,176,32*7F
$GPRMC,140610.000,A,6351.0462,N,01812.9904,W,8.46,105.53,010912,,,A*72
$GPGGA,140611.000,6351.0455,N,01812.9857,W,1,09,1.3,331.0,M,60.1,M,,0000*4C
$GPGSA,A,3,16,03,13,21,06,29,05,30,07,,,,2.5,1.3,2.1*3D
$GPRMC,140611.000,A,6351.0455,N,01812.9857,W,7.81,106.96,010912,,,A*7E
$GPGGA,140612.000,6351.0446,N,01812.9818,W,1,09,1.3,330.6,M,60.1,M,,0000*41
$GPGSA,A,3,16,03,13,21,06,29,05,30,07,,,,2.5,1.3,2.1*3D
$GPRMC,140612.000,A,6351.0446,N,01812.9818,W,7.03,115.98,010912,,,A*72
$GPGGA,140613.000,6351.0435,N,01812.9786,W,1,08,1.7,330.2,M,60.1,M,,0000*4D
$GPGSA,A,3,16,03,13,21,06,05,30,07,,,,,3.6,1.7,3.1*31
$GPRMC,140613.000,A,6351.0435,N,01812.9786,W,6.37,128.60,010912,,,A*70
$GPGGA,140614.000,6351.0423,N,01812.9762,W,1,06,2.1,329.7,M,60.1,M,,0000*41
$GPGSA,A,3,16,03,13,06,05,30,,,,,,,3.9,2.1,3.3*3D
$GPRMC,140614.000,A,6351.0423,N,01812.9762,W,5.80,138.67,010912,,,A*73
$GPGGA,140615.000,6351.0408,N,01812.9742,W,1,08,1.3,329.3,M,60.1,M,,0000*40
$GPGSA,A,3,16,03,13,06,29,05,30,07,,,,,2.6,1.3,2.2*3E
$GPGSV,3,1,12,16,73,235,37,30,57,154,39,06,52,229,40,21,50,100,*7B
$GPGSV,3,2,12,03,36,242,39,07,21,321,22,13,20,289,29,05,15,014,25*7C
$GPGSV,3,3,12,29,11,071,24,19,08,239,32,23,05,260,21,31,02,176,31*79
$GPRMC,140615.000,A,6351.0408,N,01812.9742,W,5.94,149.16,010912,,,A*7C
$GPGGA,140616.000,6351.0393,N,01812.9730,W,1,09,1.3,328.9,M,60.1,M,,0000*49
$GPGSA,A,3,16,03,13,21,06,29,05,30,07,,,,2.5,1.3,2.1*3D
$GPRMC,140616.000,A,6351.0393,N,01812.9730,W,5.78,160.15,010912,,,A*75
$GPGGA,140617.000,6351.0376,N,01812.9721,W,1,09,1.3,328.6,M,60.1,M,,0000*4C
$GPGSA,A,3,16,03,13,21,06,29,05,30,07,,,,2.5,1.3,2.1*3D
$GPRMC,140617.000,A,6351.0376,N,01812.9721,W,5.96,167.62,010912,,,A*78
$GPGGA,140618.000,6351.0359,N,01812.9718,W,1,09,1.3,328.4,M,60.1,M,,0000*46
$GPGSA,A,3,16,03,13,21,06,29,05,30,07,,,,2.5,1.3,2.1*3D
$GPRMC,140618.000,A,6351.0359,N,01812.9718,W,6.25,176.35,010912,,,A*79
$GPGGA,140619.000,6351.0340,N,01812.9716,W,1,09,1.3,328.2,M,60.1,M,,0000*47
$GPGSA,A,3,16,03,13,21,06,29,05,30,07,,,,2.5,1.3,2.1*3D
$GPRMC,140619.000,A,6351.0340,N,01812.9716,W,6.59,177.43,010912,,,A*75
$GPGGA,140620.000,6351.0321,N,01812.9712,W,1,09,1.3,328.0,M,60.1,M,,0000*4C
$GPGSA,A,3,16,03,13,21,06,29,05,30,07,,,,2.5,1.3,2.1*3D
$GPGSV,3,1,12,16,73,235,37,30,57,154,38,06,52,229,36,21,50,100,25*7C
$GPGSV,3,2,12,03,36,242,31,07,21,321,30,13,20,289,35,05,15,014,27*78
$GPGSV,3,3,12,29,11,071,33,19,08,239,27,23,05,260,20,31,02,176,*78
$GPRMC,140620.000,A,6351.0321,N,01812.9712,W,6.84,175.72,010912,,,A*7C
$GPGGA,140621.000,6351.0302,N,01812.9706,W,1,09,1.3,327.9,M,60.1,M,,0000*4F
$GPGSA,A,3,16,03,13,21,06,29,05,30,07,,,,2.5,1.3,2.1*3D
$GPRMC,140621.000,A,6351.0302,N,01812.9706,W,7.07,172.44,010912,,,A*71
$GPGGA,140622.000,6351.0282,N,01812.9691,W,1,09,1.3,327.8,M,60.1,M,,0000*4B
$GPGSA,A,3,16,03,13,21,06,29,05,30,07,,,,2.5,1.3,2.1*3D
$GPRMC,140622.000,A,6351.0282,N,01812.9691,W,7.62,161.84,010912,,,A*79
$GPGGA,140623.000,6351.0262,N,01812.9668,W,1,09,1.3,327.6,M,60.1,M,,0000*4C
$GPGSA,A,3,16,03,13,21,06,29,05,30,07,,,,2.5,1.3,2.1*3D
$GPRMC,140623.000,A,6351.0262,N,01812.9668,W,8.27,152.90,010912,,,A*7B
$GPGGA,140624.000,6351.0244,N,01812.9637,W,1,07,2.1,327.5,M,60.1,M,,0000*49
$GPGSA,A,3,16,03,13,21,06,29,30,,,,,,3.2,2.1,2.4*3D
$GPRMC,140624.000,A,6351.0244,N,01812.9637,W,8.20,142.11,010912,,,A*7D
$GPGGA,140625.000,6351.0229,N,01812.9596,W,1,07,2.1,327.4,M,60.1,M,,0000*4A
$GPGSA,A,3,16,03,13,21,06,29,30,,,,,,3.2,2.1,2.4*3D
$GPGSV,3,1,12,16,73,235,26,30,57,154,39,06,52,229,43,21,50,100,31*7A
$GPGSV,3,2,12,03,36,242,36,07,21,321,,13,20,289,24,05,15,014,*79
$GPGSV,3,3,12,29,11,071,28,19,08,239,29,23,05,260,30,31,02,176,25*7A
$GPRMC,140625.000,A,6351.0229,N,01812.9596,W,8.35,127.83,010912,,,A*73
$GPGGA,140626.000,6351.0222,N,01812.9549,W,1,08,1.3,327.3,M,60.1,M,,0000*49
$GPGSA,A,3,16,03,21,06,29,07,30,05,,,,,2.6,1.3,2.2*3F
$GPRMC,140626.000,A,6351.0222,N,01812.9549,W,8.03,107.90,010912,,,A*7C
$GPGGA,140627.000,6351.0222,N,01812.9500,W,1,09,1.3,327.4,M,60.1,M,,0000*43
$GPGSA,A,3,16,03,13,21,06,29,07,30,05,,,,2.5,1.3,2.1*3D
$GPRMC,140627.000,A,6351.0222,N,01812.9500,W,8.13,90.04,010912,,,A*43
$GPGGA,140628.000,6351.0228,N,01812.9450,W,1,09,1.3,327.5,M,60.1,M,,0000*43
$GPGSA,A,3,16,03,13,21,06,29,07,30,05,,,,2.5,1.3,2.1*3D
$GPRMC,140628.000,A,6351.0228,N,01812.9450,W,8.33,74.61,010912,,,A*49
$GPGGA,140629.000,6351.0240,N,01812.9403,W,1,09,1.3,327.5,M,60.1,M,,0000*4A
$GPGSA,A,3,16,03,13,21,06,29,07,30,05,,,,2.5,1.3,2.1*3D
$GPRMC,140629.000,A,6351.0240,N,01812.9403,W,8.98,58.47,010912,,,A*4B
$GPGGA,140630.000,6351.0258,N,01812.9358,W,1,09,1.3,327.4,M,60.1,M,,0000*43
$GPGSA,A,3,16,03,13,21,06,29,07,30,05,,,,2.5,1.3,2.1*3D
$GPGSV,3,1,12,16,73,235,26,30,57,154,40,06,52,229,34,21,50,100,34*71
$GPGSV,3,2,12,03,36,242,29,07,21,321,36,13,20,289,27,05,15,014,31*73
$GPGSV,3,3,12,29,11,071,29,19,08,239,26,23,05,260,23,31,02,176,26*75
$GPRMC,140630.000,A,6351.0258,N,01812.9358,W,10.02,46.81,010912,,,A*7C
$GPGGA,140631.000,6351.0281,N,01812.9321,W,1,08,1.6,327.2,M,60.1,M,,0000*4A
$GPGSA,A,3,16,13,21,06,29,07,30,05,,,,,2.9,1.6,2.4*32
$GPRMC,140631.000,A,6351.0281,N,01812.9321,W,10.33,34.68,010912,,,A*77
$GPGGA,140632.000,6351.0305,N,01812.9297,W,1,08,1.6,327.0,M,60.1,M,,0000*4A
$GPGSA,A,3,16,13,21,06,29,07,30,05,,,,,2.9,1.6,2.4*32
$GPRMC,140632.000,A,6351.0305,N,01812.9297,W,9.64,22.17,010912,,,A*40
$GPGGA,140633.000,6351.0327,N,01812.9283,W,1,09,1.3,326.7,M,60.1,M,,0000*4C
$GPGSA,A,3,16,03,13,21,06,29,07,30,05,,,,2.5,1.3,2.1*3D
$GPRMC,140633.000,A,6351.0327,N,01812.9283,W,8.26,15.07,010912,,,A*46
$GPGGA,140634.000,6351.0344,N,01812.9268,W,1,09,1.3,326.5,M,60.1,M,,0000*49
$GPGSA,A,3,16,03,13,21,06,29,07,30,05,,,,2.5,1.3,2.1*3D
$GPRMC,140634.000,A,6351.0344,N,01812.9268,W,6.86,19.98,010912,,,A*4F
$GPGGA,140635.000,6351.0360,N,01812.9252,W,1,08,1.3,326.1,M,60.1,M,,0000*42
$GPGSA,A,3,16,03,13,21,29,07,30,05,,,,,2.5,1.3,2.1*3B
$GPGSV,3,1,12,16,73,235,27,30,57,154,35,06,52,229,,21,50,100,35*74
$GPGSV,3,2,12,03,36,242,26,07,21,321,28,13,20,289,32,05,15,014,31*77
$GPGSV,3,3,12,29,11,071,30,19,08,239,19,23,05,260,12,31,02,176,15*73
$GPRMC,140635.000,A,6351.0360,N,01812.9252,W,6.13,23.64,010912,,,A*47
$GPGGA,140636.000,6351.0374,N,01812.9233,W,1,09,1.3,325.7,M,60.1,M,,0000*47
$GPGSA,A,3,16,03,13,21,06,29,07,30,05,,,,2.5,1.3,2.1*3D
$GPRMC,140636.000,A,6351.0374,N,01812.9233,W,6.04,29.80,010912,,,A*40
$GPGGA,140637.000,6351.0388,N,01812.9211,W,1,09,1.3,325.3,M,60.1,M,,0000*41
$GPGSA,A,3,16,03,13,21,06,29,07,30,05,,,,2.5,1.3,2.1*3D
$GPRMC,140637.000,A,6351.0388,N,01812.9211,W,6.34,34.11,010912,,,A*45
$GPGGA,140638.000,6351.0402,N,01812.9184,W,1,09,1.3,324.9,M,60.1,M,,0000*4F
$GPGSA,A,3,16,03,13,21,06,29,07,30,05,,,,2.5,1.3,2.1*3D
$GPRMC,140638.000,A,6351.0402,N,01812.9184,W,6.53,40.52,010912,,,A*45
$GPGGA,140639.000,6351.0415,N,01812.9153,W,1,09,1.3,324.5,M,60.1,M,,0000*4E
$GPGSA,A,3,16,03,13,21,06,29,07,30,05,,,,2.5,1.3,2.1*3D
$GPRMC,140639.000,A,6351.0415,N,01812.9153,W,6.70,46.06,010912,,,A*4E
$GPGGA,140640.000,6351.0428,N,01812.9120,W,1,09,1.3,324.2,M,60.1,M,,0000*4D
$GPGSA,A,3,16,03,13,21,06,29,07,30,05,,,,2.5,1.3,2.1*3D
$GPGSV,3,1,12,16,73,235,32,30,57,154,42,06,52,229,29,21,50,100,34*7A
$GPGSV,3,2,12,03,36,242,32,07,21,321,33,13,20,289,32,05,15,014,32*7B
$GPGSV,3,3,12,29,11,071,31,19,08,239,16,23,05,260,,31,02,176,13*78
$GPRMC,140640.000,A,6351.0428,N,01812.9120,W,7.02,49.42,010912,,,A*41
$GPGGA,140641.000,6351.0439,N,01812.9082,W,1,09,1.3,323.8,M,60.1,M,,0000*48
$GPGSA,A,3,16,03,13,21,06,29,07,30,05,,,,2.5,1.3,2.1*3D
$GPRMC,140641.000,A,6351.0439,N,01812.9082,W,7.43,54.89,010912,,,A*47
$GPGGA,140642.000,6351.0450,N,01812.9038,W,1,09,1.3,323.5,M,60.1,M,,0000*48
$GPGSA,A,3,16,03,13,21,06,29,07,30,05,,,,2.5,1.3,2.1*3D
$GPRMC,140642.000,A,6351.0450,N,01812.9038,W,8.10,60.62,010912,,,A*41
$GPGGA,140643.000,6351.0461,N,01812.8989,W,1,08,1.7,323.1,M,60.1,M,,0000*48
$GPGSA,A,3,16,03,13,21,06,07,30,05,,,,,3.6,1.7,3.1*31
$GPRMC,140643.000,A,6351.0461,N,01812.8989,W,8.73,64.33,010912,,,A*45
$GPGGA,140644.000,6351.0469,N,01812.8936,W,1,09,1.3,322.7,M,60.1,M,,0000*41
$GPGSA,A,3,16,03,13,21,06,29,07,30,05,,,,2.5,1.3,2.1*3D
$GPRMC,140644.000,A,6351.0469,N,01812.8936,W,9.03,70.65,010912,,,A*4E
$GPGGA,140645.000,6351.0476,N,01812.8881,W,1,09,1.3,322.3,M,60.1,M,,0000*47
$GPGSA,A,3,16,03,13,21,06,29,07,30,05,,,,2.5,1.3,2.1*3D
$GPGSV,3,1,12,16,73,235,24,30,57,154,39,06,52,229,34,21,50,100,37*7E
$GPGSV,3,2,12,03,36,242,25,07,21,321,34,13,20,289,31,05,15,014,28*72
$GPGSV,3,3,12,29,11,071,31,19,08,239,16,23,05,260,,31,02,176,*7A
$GPRMC,140645.000,A,6351.0476,N,01812.8881,W,9.07,74.98,010912,,,A*4E
$GPGGA,140646.000,6351.0480,N,01812.8825,W,1,09,1.3,321.9,M,60.1,M,,0000*4A
$GPGSA,A,3,16,03,13,21,06,29,07,30,05,,,,2.5,1.3,2.1*3D
$GPRMC,140646.000,A,6351.0480,N,01812.8825,W,9.08,81.14,010912,,,A*4B
$GPGGA,140647.000,6351.0482,N,01812.8767,W,1,09,1.3,321.4,M,60.1,M,,0000*4D
$GPGSA,A,3,16,03,13,21,06,29,07,30,05,,,,2.5,1.3,2.1*3D
$GPRMC,140647.000,A,6351.0482,N,01812.8767,W,9.28,84.88,010912,,,A*43
$GPGGA,140648.000,6351.0481,N,01812.8706,W,1,09,1.3,320.6,M,60.1,M,,0000*45
$GPGSA,A,3,16,03,13,21,06,29,07,30,05,,,,2.5,1.3,2.1*3D
$GPRMC,140648.000,A,6351.0481,N,01812.8706,W,9.61,92.16,010912,,,A*45
$GPGGA,140649.000,6351.0477,N,01812.8644,W,1,09,1.3,319.7,M,60.1,M,,0000*41
$GPGSA,A,3,16,03,13,21,06,29,07,30,05,,,,2.5,1.3,2.1*3D
$GPRMC,140649.000,A,6351.0477,N,01812.8644,W,9.98,98.08,010912,,,A*49
$GPGGA,140650.000,6351.0469,N,01812.8584,W,1,09,1.3,318.7,M,60.1,M,,0000*48
$GPGSA,A,3,16,03,13,21,06,29,07,30,05,,,,2.5,1.3,2.1*3D
$GPGSV,3,1,12,16,73,235,35,30,57,154,38,06,52,229,36,21,50,100,36*7C
$GPGSV,3,2,12,03,36,242,31,07,21,321,28,13,20,289,28,05,15,014,28*72
$GPGSV,3,3,12,29,11,071,31,19,08,239,17,23,05,260,,31,02,176,*7B
$GPRMC,140650.000,A,6351.0469,N,01812.8584,W,10.00,105.37,010912,,,A*41
$GPGGA,140651.000,6351.0459,N,01812.8526,W,1,09,1.3,317.8,M,60.1,M,,0000*42
$GPGSA,A,3,16,03,13,21,06,29,07,30,05,,,,2.5,1.3,2.1*3D
$GPRMC,140651.000,A,6351.0459,N,01812.8526,W,9.82,111.51,010912,,,A*7C
$GPGGA,140652.000,6351.0446,N,01812.8471,W,1,09,1.3,316.9,M,60.1,M,,0000*4C
