$GPRMC,170550.000,A,6331.7709,N,01930.7773,W,0.81,178.11,310812,,,A*75
$GPGGA,170551.000,6331.7708,N,01930.7772,W,1,11,0.9,38.0,M,60.3,M,,0000*7F
$GPGSA,A,3,18,08,07,15,01,06,11,19,03,22,28,,2.0,0.9,1.8*34
$GPRMC,170552.000,A,6331.7706,N,01930.7772,W,0.93,180.18,310812,,,A*74
$GPGGA,170553.000,6331.7704,N,01930.7772,W,1,10,0.9,38.4,M,60.3,M,,0000*74
$GPGSA,A,3,18,08,07,01,06,11,19,03,22,28,,,2.1,0.9,1.9*30
$GPRMC,170558.000,A,6331.7697,N,01930.7774,W,0.89,191.60,310812,,,A*75
$GPGGA,170559.000,6331.7694,N,01930.7774,W,1,11,0.9,40.1,M,60.3,M,,0000*7B
$GPGSA,A,3,18,08,07,15,01,06,11,19,03,22,28,,2.0,0.9,1.8*34
$GPRMC,170559.000,A,6331.7694,N,01930.7774,W,1.17,187.81,310812,,,A*79
$GPGGA,170600.000,6331.7692,N,01930.7774,W,1,11,0.9,40.4,M,60.3,M,,0000*77
$GPGSA,A,3,18,08,07,15,01,06,11,19,03,22,28,,2.0,0.9,1.8*34
$GPRMC,170600.000,A,6331.7692,N,01930.7774,W,0.81,174.68,310812,,,A*75
$GPGGA,170601.000,6331.7691,N,01930.7773,W,1,11,0.9,40.6,M,60.3,M,,0000*70
$GPGSA,A,3,18,08,07,15,01,06,11,19,03,22,28,,2.0,0.9,1.8*34
$GPRMC,170602.000,A,6331.7689,N,01930.7771,W,0.90,162.67,310812,,,A*70
$GPGGA,170603.000,6331.7686,N,01930.7768,W,1,11,0.9,41.2,M,60.3,M,,0000*7B
$GPGSA,A,3,18,08,07,15,01,06,11,19,03,22,28,,2.0,0.9,1.8*34
$GPRMC,170603.000,A,6331.7686,N,01930.7768,W,1.08,156.28,310812,,,A*7A
$GPGGA,170604.000,6331.7685,N,01930.7766,W,1,10,1.0,41.3,M,60.3,M,,0000*79
$GPGSA,A,3,18,08,07,15,01,11,19,03,22,28,,,2.1,1.0,1.9*3A
$GPRMC,170607.000,A,6331.7688,N,01930.7774,W,1.04,303.35,310812,,,A*7F
$GPGGA,170608.000,6331.7690,N,01930.7786,W,1,11,0.9,41.1,M,60.3,M,,0000*74
$GPGSA,A,3,18,08,07,15,01,06,11,19,03,22,28,,2.0,0.9,1.8*34
$GPRMC,170608.000,A,6331.7690,N,01930.7786,W,2.00,292.52,310812,,,A*7B
$GPGGA,170609.000,6331.7691,N,01930.7803,W,1,11,0.9,40.9,M,60.3,M,,0000*7F
$GPGSA,A,3,18,08,07,15,01,06,11,19,03,22,28,,2.0,0.9,1.8*34
$GPRMC,170609.000,A,6331.7691,N,01930.7803,W,2.92,276.25,310812,,,A*78
$GPGGA,170610.000,6331.7690,N,01930.7821,W,1,11,0.9,40.7,M,60.3,M,,0000*78
$GPGSA,A,3,18,08,07,15,01,06,11,19,03,22,28,,2.0,0.9,1.8*34
$GPRMC,170610.000,A,6331.7690,N,01930.7821,W,2.95,257.13,310812,,,A*70
$GPGGA,170611.000,6331.7687,N,01930.7836,W,1,11,0.9,40.5,M,60.3,M,,0000*7B
$GPGSA,A,3,18,08,07,15,01,06,11,19,03,22,28,,2.0,0.9,1.8*34
$GPRMC,170611.000,A,6331.7687,N,01930.7836,W,2.71,245.21,310812,,,A*79
$GPGGA,170612.000,6331.7683,N,01930.7848,W,1,11,0.9,40.4,M,60.3,M,,0000*74
$GPGSA,A,3,18,08,07,15,01,06,11,19,03,22,28,,2.0,0.9,1.8*34
$GPGSV,3,1,12,19,77,171,33,03,48,129,30,22,41,098,29,11,39,229,29*76
$GPGSV,3,2,12,06,35,118,28,08,30,286,29,18,28,049,31,01,21,224,31*7D
$GPGSV,3,3,12,28,19,314,28,07,15,247,28,15,14,008,31,26,07,330,*74
$GPRMC,170612.000,A,6331.7683,N,01930.7848,W,2.38,232.67,310812,,,A*78
$GPGGA,170613.000,6331.7678,N,01930.7857,W,1,11,0.9,40.3,M,60.3,M,,0000*78
$GPGSA,A,3,18,08,07,15,01,06,11,19,03,22,28,,2.0,0.9,1.8*34
$GPRMC,170613.000,A,6331.7678,N,01930.7857,W,2.14,219.10,310812,,,A*74
$GPGGA,170614.000,6331.7674,N,01930.7863,W,1,09,1.1,40.3,M,60.3,M,,0000*74
$GPGSA,A,3,18,07,15,01,06,11,19,03,22,,,,2.2,1.1,1.9*3C
$GPRMC,170614.000,A,6331.7674,N,01930.7863,W,1.88,210.45,310812,,,A*77
$GPGGA,170615.000,6331.7669,N,01930.7868,W,1,10,1.0,40.4,M,60.3,M,,0000*7C
$GPGSA,A,3,18,08,07,15,01,06,11,19,03,22,,,2.0,1.0,1.8*36
$GPRMC,170615.000,A,6331.7669,N,01930.7868,W,2.03,195.69,310812,,,A*71
$GPGGA,170616.000,6331.7663,N,01930.7871,W,1,11,0.9,40.4,M,60.3,M,,0000*74
$GPGSA,A,3,18,08,07,15,01,06,11,19,03,22,28,,2.0,0.9,1.8*34
$GPRMC,170616.000,A,6331.7663,N,01930.7871,W,2.42,187.61,310812,,,A*7E
$GPGGA,170617.000,6331.7654,N,01930.7873,W,1,09,1.0,40.5,M,60.3,M,,0000*73
$GPGSA,A,3,18,15,01,06,11,19,03,22,28,,,,2.3,1.0,2.0*3B
$GPGSV,3,1,12,19,77,171,33,03,48,129,31,22,41,098,37,11,39,229,36*76
$GPGSV,3,2,12,06,35,118,34,08,30,286,,18,28,049,28,01,21,224,28*7B
$GPGSV,3,3,12,28,19,314,33,07,15,247,28,15,14,008,27,26,07,330,*79
$GPRMC,170617.000,A,6331.7654,N,01930.7873,W,3.31,183.07,310812,,,A*78
$GPGGA,170618.000,6331.7644,N,01930.7875,W,1,11,0.9,40.5,M,60.3,M,,0000*7A
$GPGSA,A,3,18,08,07,15,01,06,11,19,03,22,28,,2.0,0.9,1.8*34
$GPRMC,170618.000,A,6331.7644,N,01930.7875,W,3.69,183.48,310812,,,A*76
$GPGGA,170619.000,6331.7634,N,01930.7881,W,1,11,0.9,40.6,M,60.3,M,,0000*74
$GPGSA,A,3,18,08,07,15,01,06,11,19,03,22,28,,2.0,0.9,1.8*34
$GPRMC,170619.000,A,6331.7634,N,01930.7881,W,3.72,191.30,310812,,,A*7D
$GPGGA,170620.000,6331.7625,N,01930.7888,W,1,11,0.9,40.7,M,60.3,M,,0000*76
$GPGSA,A,3,18,08,07,15,01,06,11,19,03,22,28,,2.0,0.9,1.8*34
$GPRMC,170620.000,A,6331.7625,N,01930.7888,W,3.76,193.49,310812,,,A*76
$GPGGA,170621.000,6331.7615,N,01930.7894,W,1,11,0.9,40.8,M,60.3,M,,0000*76
$GPGSA,A,3,18,08,07,15,01,06,11,19,03,22,28,,2.0,0.9,1.8*34
$GPRMC,170621.000,A,6331.7615,N,01930.7894,W,3.81,193.39,310812,,,A*76
$GPGGA,170622.000,6331.7606,N,01930.7902,W,1,11,0.9,40.9,M,60.3,M,,0000*78
$GPGSA,A,3,18,08,07,15,01,06,11,19,03,22,28,,2.0,0.9,1.8*34
$GPGSV,3,1,12,19,77,171,33,03,48,129,31,22,41,098,37,11,39,229,36*76
$GPGSV,3,2,12,06,35,118,34,08,30,286,38,18,28,049,27,01,21,224,31*77
$GPGSV,3,3,12,28,19,314,22,07,15,247,34,15,14,008,18,26,07,330,*78
$GPRMC,170622.000,A,6331.7606,N,01930.7902,W,3.65,196.73,310812,,,A*78
$GPGGA,170623.000,6331.7596,N,01930.7910,W,1,11,0.9,41.0,M,60.3,M,,0000*78
$GPGSA,A,3,18,08,07,15,01,06,11,19,03,22,28,,2.0,0.9,1.8*34
$GPRMC,170623.000,A,6331.7596,N,01930.7910,W,3.67,194.69,310812,,,A*7B
$GPGGA,170624.000,6331.7586,N,01930.7916,W,1,11,0.9,41.1,M,60.3,M,,0000*79
$GPGSA,A,3,18,08,07,15,01,06,11,19,03,22,28,,2.0,0.9,1.8*34
$GPRMC,170624.000,A,6331.7586,N,01930.7916,W,4.10,190.31,310812,,,A*75
$GPGGA,170625.000,6331.7573,N,01930.7919,W,1,11,0.9,41.1,M,60.3,M,,0000*7D
$GPGSA,A,3,18,08,07,15,01,06,11,19,03,22,28,,2.0,0.9,1.8*34
$GPRMC,170625.000,A,6331.7573,N,01930.7919,W,4.91,183.31,310812,,,A*7A
$GPGGA,170626.000,6331.7558,N,01930.7917,W,1,11,0.9,41.1,M,60.3,M,,0000*79
$GPGSA,A,3,18,08,07,15,01,06,11,19,03,22,28,,2.0,0.9,1.8*34
$GPRMC,170626.000,A,6331.7558,N,01930.7917,W,5.67,174.86,310812,,,A*72
$GPGGA,170627.000,6331.7542,N,01930.7911,W,1,11,0.9,41.1,M,60.3,M,,0000*75
$GPGSA,A,3,18,08,07,15,01,06,11,19,03,22,28,,2.0,0.9,1.8*34
$GPGSV,3,1,12,19,77,171,33,03,48,129,31,22,41,098,36,11,39,229,26*76
$GPGSV,3,2,12,06,35,118,30,08,30,286,38,18,28,049,31,01,21,224,28*7C
$GPGSV,3,3,12,28,19,314,36,07,15,246,27,15,14,007,30,26,07,330,*7B
$GPRMC,170627.000,A,6331.7542,N,01930.7911,W,5.97,167.88,310812,,,A*7D
$GPGGA,170628.000,6331.7526,N,01930.7901,W,1,10,0.9,41.0,M,60.3,M,,0000*79
$GPGSA,A,3,18,08,07,15,01,06,19,03,22,28,,,2.0,0.9,1.8*34
$GPRMC,170628.000,A,6331.7526,N,01930.7901,W,5.89,162.50,310812,,,A*7E
$GPGGA,170629.000,6331.7511,N,01930.7891,W,1,11,0.9,40.9,M,60.3,M,,0000*7D
$GPGSA,A,3,18,08,07,15,01,06,11,19,03,22,28,,2.0,0.9,1.8*34
$GPRMC,170629.000,A,6331.7511,N,01930.7891,W,5.82,160.92,310812,,,A*74
$GPGGA,170630.000,6331.7497,N,01930.7881,W,1,11,0.9,40.8,M,60.3,M,,0000*7A
$GPGSA,A,3,18,08,07,15,01,06,11,19,03,22,28,,2.0,0.9,1.8*34
$GPRMC,170630.000,A,6331.7497,N,01930.7881,W,5.57,161.70,310812,,,A*77
$GPGGA,170631.000,6331.7482,N,01930.7872,W,1,11,0.9,40.7,M,60.3,M,,0000*7C
$GPGSA,A,3,18,08,07,15,01,06,11,19,03,22,28,,2.0,0.9,1.8*34
$GPRMC,170631.000,A,6331.7482,N,01930.7872,W,5.47,163.41,310812,,,A*7F
$GPGGA,170632.000,6331.7468,N,01930.7864,W,1,11,0.9,40.6,M,60.3,M,,0000*7D
$GPGSA,A,3,18,08,07,15,01,06,11,19,03,22,28,,2.0,0.9,1.8*34
$GPGSV,3,1,12,19,77,171,33,03,48,129,32,22,41,098,28,11,39,229,30*7D
$GPGSV,3,2,12,06,35,118,35,08,30,286,37,18,28,049,38,01,21,224,34*72
$GPGSV,3,3,12,28,19,314,36,07,15,246,21,15,14,007,32,26,07,330,*7F
$GPRMC,170632.000,A,6331.7468,N,01930.7864,W,5.42,164.48,310812,,,A*74
$GPGGA,170633.000,6331.7453,N,01930.7856,W,1,11,0.9,40.4,M,60.3,M,,0000*77
$GPGSA,A,3,18,08,07,15,01,06,11,19,03,22,28,,2.0,0.9,1.8*34
$GPRMC,170633.000,A,6331.7453,N,01930.7856,W,5.44,164.76,310812,,,A*77
$GPGGA,170634.000,6331.7439,N,01930.7847,W,1,11,0.9,40.2,M,60.3,M,,0000*7A
$GPGSA,A,3,18,08,07,15,01,06,11,19,03,22,28,,2.0,0.9,1.8*34
$GPRMC,170634.000,A,6331.7439,N,01930.7847,W,5.45,163.24,310812,,,A*7D
$GPGGA,170635.000,6331.7424,N,01930.7837,W,1,11,0.9,39.9,M,60.3,M,,0000*75
$GPGSA,A,3,18,08,07,15,01,06,11,19,03,22,28,,2.0,0.9,1.8*34
$GPRMC,170635.000,A,6331.7424,N,01930.7837,W,5.43,161.32,310812,,,A*74
$GPGGA,170636.000,6331.7410,N,01930.7827,W,1,11,0.9,39.6,M,60.3,M,,0000*7F
$GPGSA,A,3,18,08,07,15,01,06,11,19,03,22,28,,2.0,0.9,1.8*34
$GPRMC,170636.000,A,6331.7410,N,01930.7827,W,5.41,160.51,310812,,,A*77
$GPGGA,170637.000,6331.7395,N,01930.7816,W,1,11,0.9,39.4,M,60.3,M,,0000*74
$GPGSA,A,3,18,08,07,15,01,06,11,19,03,22,28,,2.0,0.9,1.8*34
$GPGSV,3,1,12,19,77,171,34,03,48,129,33,22,41,098,29,11,39,229,34*7E
$GPGSV,3,2,12,06,35,118,36,08,30,286,36,18,28,049,24,01,21,224,33*7A
$GPGSV,3,3,12,28,19,314,36,07,15,246,34,15,14,007,26,26,07,330,*7E
$GPRMC,170637.000,A,6331.7395,N,01930.7816,W,5.44,160.49,310812,,,A*72
$GPGGA,170638.000,6331.7380,N,01930.7807,W,1,10,0.9,39.2,M,60.3,M,,0000*78
$GPGSA,A,3,08,07,15,01,06,11,19,03,22,28,,,2.0,0.9,1.8*3D
$GPRMC,170638.000,A,6331.7380,N,01930.7807,W,5.70,164.78,310812,,,A*78
$GPGGA,170639.000,6331.7364,N,01930.7801,W,1,11,0.9,39.0,M,60.3,M,,0000*76
$GPGSA,A,3,18,08,07,15,01,06,11,19,03,22,28,,2.0,0.9,1.8*34
$GPRMC,170639.000,A,6331.7364,N,01930.7801,W,5.98,169.87,310812,,,A*7E
$GPGGA,170640.000,6331.7348,N,01930.7797,W,1,11,0.9,38.9,M,60.3,M,,0000*7E
$GPGSA,A,3,18,08,07,15,01,06,11,19,03,22,28,,2.0,0.9,1.8*34
$GPRMC,170640.000,A,6331.7348,N,01930.7797,W,5.65,172.13,310812,,,A*7B
$GPGGA,170641.000,6331.7332,N,01930.7795,W,1,11,0.9,38.7,M,60.3,M,,0000*7E
$GPGSA,A,3,18,08,07,15,01,06,11,19,03,22,28,,2.0,0.9,1.8*34
$GPRMC,170641.000,A,6331.7332,N,01930.7795,W,5.54,175.97,310812,,,A*7C
$GPGGA,170642.000,6331.7317,N,01930.7795,W,1,11,0.9,38.6,M,60.3,M,,0000*7B
$GPGSA,A,3,18,08,07,15,01,06,11,19,03,22,28,,2.0,0.9,1.8*34
$GPGSV,3,1,12,19,77,170,25,03,47,129,32,22,41,098,36,11,39,229,28*72
$GPGSV,3,2,12,06,35,118,28,08,30,285,43,18,28,049,20,01,21,224,28*7A
$GPGSV,3,3,12,28,19,314,35,07,15,246,27,15,14,007,28,26,07,330,*71
$GPRMC,170642.000,A,6331.7317,N,01930.7795,W,5.61,178.27,310812,,,A*78
$GPGGA,170643.000,6331.7300,N,01930.7796,W,1,11,0.9,38.4,M,60.3,M,,0000*7D
$GPGSA,A,3,18,08,07,15,01,06,11,19,03,22,28,,2.0,0.9,1.8*34
$GPRMC,170643.000,A,6331.7300,N,01930.7796,W,6.17,181.59,310812,,,A*71
$GPGGA,170644.000,6331.7282,N,01930.7799,W,1,11,0.9,38.1,M,60.3,M,,0000*7B
$GPGSA,A,3,18,08,07,15,01,06,11,19,03,22,28,,2.0,0.9,1.8*34
$GPRMC,170644.000,A,6331.7282,N,01930.7799,W,6.56,183.60,310812,,,A*7F
$GPGGA,170645.000,6331.7263,N,01930.7803,W,1,11,0.9,37.9,M,60.3,M,,0000*7E
$GPGSA,A,3,18,08,07,15,01,06,11,19,03,22,28,,2.0,0.9,1.8*34
$GPRMC,170645.000,A,6331.7263,N,01930.7803,W,6.78,184.95,310812,,,A*7C
$GPGGA,170646.000,6331.7244,N,01930.7807,W,1,11,0.9,37.7,M,60.3,M,,0000*72
$GPGSA,A,3,18,08,07,15,01,06,11,19,03,22,28,,2.0,0.9,1.8*34
$GPRMC,170646.000,A,6331.7244,N,01930.7807,W,6.91,185.06,310812,,,A*72
$GPGGA,170647.000,6331.7225,N,01930.7811,W,1,11,0.9,37.4,M,60.3,M,,0000*70
$GPGSA,A,3,18,08,07,15,01,06,11,19,03,22,28,,2.0,0.9,1.8*34
$GPGSV,3,1,12,19,77,170,24,03,47,129,34,22,41,098,32,11,39,229,31*79
$GPGSV,3,2,12,06,35,118,28,08,30,285,36,18,28,049,32,01,21,224,16*76
$GPGSV,3,3,12,28,19,314,25,07,14,246,32,15,14,007,29,26,07,330,*74
$GPRMC,170647.000,A,6331.7225,N,01930.7811,W,6.73,185.00,310812,,,A*79
$GPGGA,170648.000,6331.7208,N,01930.7815,W,1,11,0.9,37.1,M,60.3,M,,0000*71
$GPGSA,A,3,18,08,07,15,01,06,11,19,03,22,28,,2.0,0.9,1.8*34
$GPRMC,170648.000,A,6331.7208,N,01930.7815,W,6.37,184.03,310812,,,A*7F
$GPGGA,170649.000,6331.7190,N,01930.7818,W,1,11,0.9,36.9,M,60.3,M,,0000*76
$GPGSA,A,3,18,08,07,15,01,06,11,19,03,22,28,,2.0,0.9,1.8*34
$GPRMC,170649.000,A,6331.7190,N,01930.7818,W,6.21,183.84,310812,,,A*7E
$GPGGA,170650.000,6331.7174,N,01930.7820,W,1,10,1.0,36.5,M,60.3,M,,0000*7A
$GPGSA,A,3,18,08,07,15,01,11,19,03,22,28,,,2.1,1.0,1.9*3A
$GPRMC,170650.000,A,6331.7174,N,01930.7820,W,5.82,182.71,310812,,,A*76
$GPGGA,170651.000,6331.7159,N,01930.7824,W,1,10,1.0,36.2,M,60.3,M,,0000*77
$GPGSA,A,3,18,08,07,15,01,11,19,03,22,28,,,2.1,1.0,1.9*3A
$GPRMC,170651.000,A,6331.7159,N,01930.7824,W,5.29,184.08,310812,,,A*75
$GPGGA,170652.000,6331.7146,N,01930.7831,W,1,11,0.9,35.9,M,60.3,M,,0000*7F
$GPGSA,A,3,18,08,07,15,01,06,11,19,03,22,28,,2.0,0.9,1.8*34
$GPGSV,3,1,12,19,77,170,31,03,47,129,37,22,41,098,34,11,39,229,33*7A
$GPGSV,3,2,12,06,35,118,36,08,30,285,36,18,28,049,31,01,21,224,23*7C
$GPGSV,3,3,12,28,19,314,34,07,14,246,27,15,14,007,25,26,07,330,*7C
$GPRMC,170652.000,A,6331.7146,N,01930.7831,W,5.02,193.07,310812,,,A*7C
$GPGGA,170653.000,6331.7133,N,01930.7842,W,1,11,0.9,35.7,M,60.3,M,,0000*76
$GPGSA,A,3,18,08,07,15,01,06,11,19,03,22,28,,2.0,0.9,1.8*34
$GPRMC,170653.000,A,6331.7133,N,01930.7842,W,4.72,199.55,310812,,,A*70
$GPGGA,170654.000,6331.7122,N,01930.7854,W,1,11,0.9,35.3,M,60.3,M,,0000*72
$GPGSA,A,3,18,08,07,15,01,06,11,19,03,22,28,,2.0,0.9,1.8*34
$GPRMC,170654.000,A,6331.7122,N,01930.7854,W,4.47,205.10,310812,,,A*71
$GPGGA,170655.000,6331.7110,N,01930.7866,W,1,10,0.9,35.0,M,60.3,M,,0000*71
$GPGSA,A,3,18,08,07,15,01,06,11,19,03,28,,,2.0,0.9,1.8*34
$GPRMC,170655.000,A,6331.7110,N,01930.7866,W,4.46,206.42,310812,,,A*75
$GPGGA,170656.000,6331.7098,N,01930.7879,W,1,11,0.9,34.6,M,60.3,M,,0000*7B
$GPGSA,A,3,18,08,07,15,01,06,11,19,03,22,28,,2.0,0.9,1.8*34
$GPRMC,170656.000,A,6331.7098,N,01930.7879,W,4.50,205.38,310812,,,A*70
$GPGGA,170657.000,6331.7086,N,01930.7893,W,1,10,0.9,34.3,M,60.3,M,,0000*75
$GPGSA,A,3,18,08,07,15,01,06,11,19,03,28,,,2.0,0.9,1.8*34
$GPGSV,3,1,12,19,77,170,33,03,47,129,25,22,41,098,,11,39,229,33*7C
$GPGSV,3,2,12,06,35,118,35,08,30,285,32,18,28,049,22,01,21,224,25*7F
$GPGSV,3,3,12,28,19,314,35,07,14,246,26,15,14,007,34,26,07,330,*7C
$GPRMC,170657.000,A,6331.7086,N,01930.7893,W,4.77,209.04,310812,,,A*7C
$GPGGA,170658.000,6331.7072,N,01930.7910,W,1,11,0.9,33.8,M,60.3,M,,0000*76
$GPGSA,A,3,18,08,07,15,01,06,11,19,03,22,28,,2.0,0.9,1.8*34
$GPRMC,170658.000,A,6331.7072,N,01930.7910,W,5.68,209.58,310812,,,A*74
$GPGGA,170659.000,6331.7056,N,01930.7929,W,1,11,0.9,33.5,M,60.3,M,,0000*76
$GPGSA,A,3,18,08,07,15,01,06,11,19,03,22,28,,2.0,0.9,1.8*34
$GPRMC,170659.000,A,6331.7056,N,01930.7929,W,6.50,207.27,310812,,,A*77
$GPGGA,170700.000,6331.7038,N,01930.7948,W,1,11,0.9,33.1,M,60.3,M,,0000*70
$GPGSA,A,3,18,08,07,15,01,06,11,19,03,22,28,,2.0,0.9,1.8*34
$GPRMC,170700.000,A,6331.7038,N,01930.7948,W,7.08,205.30,310812,,,A*7D
$GPGGA,170701.000,6331.7018,N,01930.7962,W,1,10,0.9,32.9,M,60.3,M,,0000*73
$GPGSA,A,3,18,08,07,15,01,06,19,03,22,28,,,2.0,0.9,1.8*34
$GPRMC,170701.000,A,6331.7018,N,01930.7962,W,7.53,196.81,310812,,,A*7B
$GPGGA,170702.000,6331.6996,N,01930.7969,W,1,10,1.0,32.7,M,60.3,M,,0000*73
$GPGSA,A,3,18,08,07,15,01,06,11,03,22,28,,,2.9,1.0,2.7*31
$GPGSV,3,1,12,19,77,170,19,03,47,129,35,22,41,098,32,11,39,229,34*73
$GPGSV,3,2,12,06,35,118,36,08,30,285,33,18,28,049,27,01,21,224,31*7D
$GPGSV,3,3,12,28,19,314,34,07,14,246,30,15,14,007,25,26,07,330,*7A
$GPRMC,170702.000,A,6331.6996,N,01930.7969,W,7.80,188.28,310812,,,A*7F
$GPGGA,170703.000,6331.6975,N,01930.7970,W,1,11,0.9,32.6,M,60.3,M,,0000*7F
$GPGSA,A,3,18,08,07,15,01,06,11,19,03,22,28,,2.0,0.9,1.8*34
$GPRMC,170703.000,A,6331.6975,N,01930.7970,W,7.87,180.01,310812,,,A*7F
$GPGGA,170704.000,6331.6952,N,01930.7968,W,1,10,0.9,32.6,M,60.3,M,,0000*75
$GPGSA,A,3,18,08,07,15,01,06,19,03,22,28,,,2.0,0.9,1.8*34
$GPRMC,170704.000,A,6331.6952,N,01930.7968,W,8.24,177.21,310812,,,A*78
$GPGGA,170705.000,6331.6929,N,01930.7963,W,1,11,0.9,32.6,M,60.3,M,,0000*72
$GPGSA,A,3,18,08,07,15,01,06,11,19,03,22,28,,2.0,0.9,1.8*34
$GPRMC,170705.000,A,6331.6929,N,01930.7963,W,8.21,172.73,310812,,,A*79
$GPGGA,170706.000,6331.6907,N,01930.7957,W,1,11,0.9,32.6,M,60.3,M,,0000*7A
$GPGSA,A,3,18,08,07,15,01,06,11,19,03,22,28,,2.0,0.9,1.8*34
$GPRMC,170706.000,A,6331.6907,N,01930.7957,W,8.07,170.97,310812,,,A*7D
$GPGGA,170707.000,6331.6885,N,01930.7949,W,1,11,0.9,32.5,M,60.3,M,,0000*7C
$GPGSA,A,3,18,08,07,15,01,06,11,19,03,22,28,,2.0,0.9,1.8*34
$GPGSV,3,1,12,19,77,170,20,03,47,129,22,22,41,098,23,11,39,229,29*73
$GPGSV,3,2,12,06,35,118,33,08,30,285,43,18,28,049,27,01,21,224,27*78
$GPGSV,3,3,12,28,19,314,30,07,14,246,27,15,14,007,30,26,07,330,*7C
$GPRMC,170707.000,A,6331.6885,N,01930.7949,W,7.65,169.12,310812,,,A*76
$GPGGA,170708.000,6331.6865,N,01930.7941,W,1,11,0.9,32.4,M,60.3,M,,0000*74
$GPGSA,A,3,18,08,07,15,01,06,11,19,03,22,28,,2.0,0.9,1.8*34
$GPRMC,170708.000,A,6331.6865,N,01930.7941,W,7.50,167.77,310812,,,A*74
$GPGGA,170709.000,6331.6845,N,01930.7930,W,1,11,0.9,32.3,M,60.3,M,,0000*76
$GPGSA,A,3,18,08,07,15,01,06,11,19,03,22,28,,2.0,0.9,1.8*34
$GPRMC,170709.000,A,6331.6845,N,01930.7930,W,7.26,165.37,310812,,,A*76
$GPGGA,170710.000,6331.6827,N,01930.7918,W,1,11,0.9,32.4,M,60.3,M,,0000*77
$GPGSA,A,3,18,08,07,15,01,06,11,19,03,22,28,,2.0,0.9,1.8*34
$GPRMC,170710.000,A,6331.6827,N,01930.7918,W,6.92,161.62,310812,,,A*7A
$GPGGA,170711.000,6331.6810,N,01930.7901,W,1,11,0.9,32.4,M,60.3,M,,0000*7A
$GPGSA,A,3,18,08,07,15,01,06,11,19,03,22,28,,2.0,0.9,1.8*34
$GPRMC,170711.000,A,6331.6810,N,01930.7901,W,6.67,153.65,310812,,,A*7B
$GPGGA,170712.000,6331.6795,N,01930.7881,W,1,11,0.9,32.4,M,60.3,M,,0000*72
$GPGSA,A,3,18,08,07,15,01,06,11,19,03,22,28,,2.0,0.9,1.8*34
$GPGSV,3,1,12,19,77,169,35,03,47,129,33,22,41,098,37,11,40,229,43*78
$GPGSV,3,2,12,06,35,118,30,08,30,285,38,18,28,049,26,01,21,225,35*74
$GPGSV,3,3,12,28,19,314,21,07,14,246,27,15,14,007,32,26,07,330,*7E
$GPRMC,170712.000,A,6331.6795,N,01930.7881,W,6.34,146.48,310812,,,A*7E
$GPGGA,170713.000,6331.6781,N,01930.7859,W,1,11,0.9,32.4,M,60.3,M,,0000*73
$GPGSA,A,3,18,08,07,15,01,06,11,19,03,22,28,,2.0,0.9,1.8*34
$GPRMC,170713.000,A,6331.6781,N,01930.7859,W,6.04,141.98,310812,,,A*76
$GPGGA,170714.000,6331.6767,N,01930.7837,W,1,09,1.1,32.3,M,60.3,M,,0000*73
$GPGSA,A,3,08,07,01,06,11,19,03,22,28,,,,2.3,1.1,2.0*38
$GPRMC,170714.000,A,6331.6767,N,01930.7837,W,6.10,142.18,310812,,,A*7F
$GPGGA,170715.000,6331.6753,N,01930.7817,W,1,11,0.9,32.2,M,60.3,M,,0000*76
$GPGSA,A,3,18,08,07,15,01,06,11,19,03,22,28,,2.0,0.9,1.8*34
$GPRMC,170715.000,A,6331.6753,N,01930.7817,W,5.98,144.84,310812,,,A*7B
$GPGGA,170716.000,6331.6739,N,01930.7797,W,1,11,0.9,32.2,M,60.3,M,,0000*7E
$GPGSA,A,3,18,08,07,15,01,06,11,19,03,22,28,,2.0,0.9,1.8*34
$GPRMC,170716.000,A,6331.6739,N,01930.7797,W,6.12,144.90,310812,,,A*77
$GPGGA,170717.000,6331.6725,N,01930.7773,W,1,11,0.9,32.1,M,60.3,M,,0000*7B
$GPGSA,A,3,18,08,07,15,01,06,11,19,03,22,28,,2.0,0.9,1.8*34
$GPGSV,3,1,12,19,77,169,38,03,47,129,35,22,41,098,41,11,40,229,41*70
$GPGSV,3,2,12,06,35,118,26,08,30,285,32,18,28,049,30,01,22,225,31*79
$GPGSV,3,3,12,28,19,314,30,07,14,246,30,15,14,007,30,26,07,330,*7A
$GPRMC,170717.000,A,6331.6725,N,01930.7773,W,6.15,139.24,310812,,,A*73
$GPGGA,170718.000,6331.6713,N,01930.7748,W,1,11,0.9,32.2,M,60.3,M,,0000*7A
$GPGSA,A,3,18,08,07,15,01,06,11,19,03,22,28,,2.0,0.9,1.8*34
$GPRMC,170718.000,A,6331.6713,N,01930.7748,W,5.88,134.84,310812,,,A*71
$GPGGA,170719.000,6331.6702,N,01930.7720,W,1,09,1.1,32.3,M,60.3,M,,0000*74
$GPGSA,A,3,18,08,07,01,06,11,19,03,22,,,,2.2,1.1,1.9*30
$GPRMC,170719.000,A,6331.6702,N,01930.7720,W,6.24,131.48,310812,,,A*7E
$GPGGA,170720.000,6331.6690,N,01930.7690,W,1,10,1.0,32.3,M,60.3,M,,0000*77
$GPGSA,A,3,18,08,07,15,01,06,11,19,03,22,,,2.0,1.0,1.8*36
$GPRMC,170720.000,A,6331.6690,N,01930.7690,W,6.32,127.61,310812,,,A*7F
$GPGGA,170721.000,6331.6680,N,01930.7659,W,1,10,1.0,32.4,M,60.3,M,,0000*75
$GPGSA,A,3,18,08,07,15,01,06,11,19,03,22,,,2.0,1.0,1.8*36
$GPRMC,170721.000,A,6331.6680,N,01930.7659,W,6.44,125.44,310812,,,A*7E
$GPGGA,170722.000,6331.6668,N,01930.7627,W,1,11,0.9,32.4,M,60.3,M,,0000*70
$GPGSA,A,3,18,08,07,15,01,06,11,19,03,22,28,,2.0,0.9,1.8*34
$GPGSV,3,1,12,19,77,169,40,03,47,129,19,22,41,098,34,11,40,229,37*72
$GPGSV,3,2,12,06,35,118,32,08,30,285,30,18,28,049,29,01,22,225,33*74
$GPGSV,3,3,12,28,19,314,22,07,14,246,34,15,14,007,30,26,07,330,*7D
$GPRMC,170722.000,A,6331.6668,N,01930.7627,W,6.55,126.01,310812,,,A*70
$GPGGA,170723.000,6331.6658,N,01930.7596,W,1,11,0.9,32.5,M,60.3,M,,0000*7A
$GPGSA,A,3,18,08,07,15,01,06,11,19,03,22,28,,2.0,0.9,1.8*34
$GPRMC,170723.000,A,6331.6658,N,01930.7596,W,6.31,125.65,310812,,,A*78
$GPGGA,170724.000,6331.6647,N,01930.7564,W,1,10,0.9,32.5,M,60.3,M,,0000*7F
$GPGSA,A,3,08,07,15,01,06,11,19,03,22,28,,,2.0,0.9,1.8*3D
$GPRMC,170724.000,A,6331.6647,N,01930.7564,W,6.41,125.73,310812,,,A*7C
$GPGGA,170725.000,6331.6636,N,01930.7533,W,1,11,0.9,32.5,M,60.3,M,,0000*7B
$GPGSA,A,3,18,08,07,15,01,06,11,19,03,22,28,,2.0,0.9,1.8*34
$GPRMC,170725.000,A,6331.6636,N,01930.7533,W,6.36,126.41,310812,,,A*7B
$GPGGA,170726.000,6331.6626,N,01930.7501,W,1,11,0.9,32.6,M,60.3,M,,0000*7B
$GPGSA,A,3,18,08,07,15,01,06,11,19,03,22,28,,2.0,0.9,1.8*34
$GPRMC,170726.000,A,6331.6626,N,01930.7501,W,6.49,125.00,310812,,,A*76
$GPGGA,170727.000,6331.6616,N,01930.7468,W,1,11,0.9,32.6,M,60.3,M,,0000*77
$GPGSA,A,3,18,08,07,15,01,06,11,19,03,22,28,,2.0,0.9,1.8*34
$GPGSV,3,1,12,19,77,169,40,03,47,129,24,22,41,098,34,11,40,229,39*72
$GPGSV,3,2,12,06,35,118,31,08,30,285,20,18,28,049,28,01,22,225,34*70
$GPGSV,3,3,12,28,19,314,24,07,14,246,35,15,14,007,33,26,07,330,*79
$GPRMC,170727.000,A,6331.6616,N,01930.7468,W,6.51,124.47,310812,,,A*71
$GPGGA,170728.000,6331.6605,N,01930.7436,W,1,11,0.9,32.6,M,60.3,M,,0000*71
$GPGSA,A,3,18,08,07,15,01,06,11,19,03,22,28,,2.0,0.9,1.8*34
$GPRMC,170728.000,A,6331.6605,N,01930.7436,W,6.44,124.16,310812,,,A*77
$GPGGA,170729.000,6331.6595,N,01930.7404,W,1,11,0.9,32.6,M,60.3,M,,0000*7B
$GPGSA,A,3,18,08,07,15,01,06,11,19,03,22,28,,2.0,0.9,1.8*34
$GPRMC,170729.000,A,6331.6595,N,01930.7404,W,6.41,125.66,310812,,,A*7E
$GPGGA,170730.000,6331.6584,N,01930.7373,W,1,11,0.9,32.5,M,60.3,M,,0000*77
$GPGSA,A,3,18,08,07,15,01,06,11,19,03,22,28,,2.0,0.9,1.8*34
$GPRMC,170730.000,A,6331.6584,N,01930.7373,W,6.42,128.35,310812,,,A*79
$GPGGA,170731.000,6331.6572,N,01930.7343,W,1,11,0.9,32.5,M,60.3,M,,0000*7C
$GPGSA,A,3,18,08,07,15,01,06,11,19,03,22,28,,2.0,0.9,1.8*34
$GPRMC,170731.000,A,6331.6572,N,01930.7343,W,6.41,129.13,310812,,,A*74
$GPGGA,170732.000,6331.6561,N,01930.7312,W,1,11,0.9,32.5,M,60.3,M,,0000*79
$GPGSA,A,3,18,08,07,15,01,06,11,19,03,22,28,,2.0,0.9,1.8*34
$GPGSV,3,1,12,19,77,169,40,03,47,129,24,22,41,098,37,11,40,229,39*71
$GPGSV,3,2,12,06,35,118,34,08,30,285,35,18,28,049,28,01,22,225,29*7D
$GPGSV,3,3,12,28,19,314,31,07,14,246,34,15,14,007,33,26,07,330,*7C
$GPRMC,170732.000,A,6331.6561,N,01930.7312,W,6.31,127.90,310812,,,A*73
$GPGGA,170733.000,6331.6549,N,01930.7283,W,1,11,0.9,32.4,M,60.3,M,,0000*7A
$GPGSA,A,3,18,08,07,15,01,06,11,19,03,22,28,,2.0,0.9,1.8*34
$GPRMC,170733.000,A,6331.6549,N,01930.7283,W,6.23,131.11,310812,,,A*7C
$GPGGA,170734.000,6331.6535,N,01930.7257,W,1,11,0.9,32.3,M,60.3,M,,0000*78
$GPGSA,A,3,18,08,07,15,01,06,11,19,03,22,28,,2.0,0.9,1.8*34
$GPRMC,170734.000,A,6331.6535,N,01930.7257,W,6.28,139.43,310812,,,A*7D
$GPGGA,170735.000,6331.6519,N,01930.7240,W,1,11,0.9,32.2,M,60.3,M,,0000*70
$GPGSA,A,3,18,08,07,15,01,06,11,19,03,22,28,,2.0,0.9,1.8*34
$GPRMC,170735.000,A,6331.6519,N,01930.7240,W,6.22,154.67,310812,,,A*73
$GPGGA,170736.000,6331.6502,N,01930.7233,W,1,10,0.9,32.2,M,60.3,M,,0000*7C
$GPGSA,A,3,18,08,07,01,06,11,19,03,22,28,,,2.1,0.9,1.9*30
$GPRMC,170736.000,A,6331.6502,N,01930.7233,W,6.05,169.73,310812,,,A*70
$GPGGA,170737.000,6331.6482,N,01930.7234,W,1,10,0.9,32.1,M,60.3,M,,0000*70
$GPGSA,A,3,18,08,07,01,06,11,19,03,22,28,,,2.1,0.9,1.9*30
$GPGSV,3,1,12,19,77,169,30,03,47,129,33,22,41,098,30,11,40,229,33*7D
$GPGSV,3,2,12,06,35,118,34,08,30,285,41,18,28,049,31,01,22,225,32*7C
$GPGSV,3,3,12,28,19,314,30,07,14,246,29,15,14,007,,26,07,330,*71
$GPRMC,170737.000,A,6331.6482,N,01930.7234,W,6.72,183.86,310812,,,A*71
$GPGGA,170738.000,6331.6462,N,01930.7240,W,1,10,0.9,32.1,M,60.3,M,,0000*72
$GPGSA,A,3,18,08,07,01,06,11,19,03,22,28,,,2.1,0.9,1.9*30
$GPRMC,170738.000,A,6331.6462,N,01930.7240,W,7.11,187.94,310812,,,A*70
$GPGGA,170739.000,6331.6443,N,01930.7244,W,1,10,0.9,32.0,M,60.3,M,,0000*75
$GPGSA,A,3,18,08,07,01,06,11,19,03,22,28,,,2.1,0.9,1.9*30
$GPRMC,170739.000,A,6331.6443,N,01930.7244,W,6.81,185.62,310812,,,A*75
$GPGGA,170740.000,6331.6423,N,01930.7247,W,1,11,0.9,32.0,M,60.3,M,,0000*7F
$GPGSA,A,3,18,08,07,15,01,06,11,19,03,22,28,,2.0,0.9,1.8*34
$GPRMC,170740.000,A,6331.6423,N,01930.7247,W,6.85,184.58,310812,,,A*72
$GPGGA,170741.000,6331.6401,N,01930.7249,W,1,11,0.9,32.0,M,60.3,M,,0000*70
$GPGSA,A,3,18,08,07,15,01,06,11,19,03,22,28,,2.0,0.9,1.8*34
$GPRMC,170741.000,A,6331.6401,N,01930.7249,W,7.99,183.14,310812,,,A*7E
$GPGGA,170742.000,6331.6374,N,01930.7251,W,1,11,0.9,32.0,M,60.3,M,,0000*7F
$GPGSA,A,3,18,08,07,15,01,06,11,19,03,22,28,,2.0,0.9,1.8*34
$GPGSV,3,1,12,19,77,169,24,03,47,129,36,22,41,098,30,11,40,229,25*7A
$GPGSV,3,2,12,06,35,118,30,08,30,285,37,18,28,049,23,01,22,225,31*79
$GPGSV,3,3,12,28,19,314,38,07,14,246,29,15,14,007,30,26,07,330,*7A
$GPRMC,170742.000,A,6331.6374,N,01930.7251,W,9.55,181.80,310812,,,A*70
$GPGGA,170743.000,6331.6344,N,01930.7251,W,1,11,0.9,32.0,M,60.3,M,,0000*7D
$GPGSA,A,3,18,08,07,15,01,06,11,19,03,22,28,,2.0,0.9,1.8*34
$GPRMC,170743.000,A,6331.6344,N,01930.7251,W,10.86,180.62,310812,,,A*49
$GPGGA,170744.000,6331.6310,N,01930.7252,W,1,11,0.9,31.9,M,60.3,M,,0000*72
$GPGSA,A,3,18,08,07,15,01,06,11,19,03,22,28,,2.0,0.9,1.8*34
$GPRMC,170744.000,A,6331.6310,N,01930.7252,W,12.32,181.09,310812,,,A*4D
$GPGGA,170745.000,6331.6274,N,01930.7255,W,1,11,0.9,31.9,M,60.3,M,,0000*77
$GPGSA,A,3,18,08,07,15,01,06,11,19,03,22,28,,2.0,0.9,1.8*34
$GPRMC,170745.000,A,6331.6274,N,01930.7255,W,13.36,181.74,310812,,,A*47
$GPGGA,170746.000,6331.6235,N,01930.7260,W,1,11,0.9,31.8,M,60.3,M,,0000*76
$GPGSA,A,3,18,08,07,15,01,06,11,19,03,22,28,,2.0,0.9,1.8*34
$GPRMC,170746.000,A,6331.6235,N,01930.7260,W,13.93,183.31,310812,,,A*4B
$GPGGA,170747.000,6331.6196,N,01930.7266,W,1,11,0.9,31.8,M,60.3,M,,0000*7B
$GPGSA,A,3,18,08,07,15,01,06,11,19,03,22,28,,2.0,0.9,1.8*34
$GPGSV,3,1,12,19,77,168,22,03,47,129,36,22,41,097,26,11,40,229,26*76
$GPGSV,3,2,12,06,35,118,33,08,30,285,34,18,28,049,32,01,22,225,22*7B
$GPGSV,3,3,12,28,20,314,31,07,14,246,31,15,14,007,19,26,07,330,22*7B
$GPRMC,170747.000,A,6331.6196,N,01930.7266,W,14.25,184.07,310812,,,A*4E
$GPGGA,170748.000,6331.6158,N,01930.7273,W,1,11,0.9,31.7,M,60.3,M,,0000*7D
$GPGSA,A,3,18,08,07,15,01,06,11,19,03,22,28,,2.0,0.9,1.8*34
$GPRMC,170748.000,A,6331.6158,N,01930.7273,W,13.87,185.27,310812,,,A*4B
$GPGGA,170749.000,6331.6121,N,01930.7284,W,1,11,0.9,31.7,M,60.3,M,,0000*7A
$GPGSA,A,3,18,08,07,15,01,06,11,19,03,22,28,,2.0,0.9,1.8*34
$GPRMC,170749.000,A,6331.6121,N,01930.7284,W,13.44,187.41,310812,,,A*41
$GPGGA,170750.000,6331.6085,N,01930.7297,W,1,11,0.9,31.6,M,60.3,M,,0000*7E
$GPGSA,A,3,18,08,07,15,01,06,11,19,03,22,28,,2.0,0.9,1.8*34
$GPRMC,170750.000,A,6331.6085,N,01930.7297,W,13.35,189.40,310812,,,A*4D
$GPGGA,170751.000,6331.6047,N,01930.7314,W,1,11,0.9,31.6,M,60.3,M,,0000*7B
$GPGSA,A,3,18,08,07,15,01,06,11,19,03,22,28,,2.0,0.9,1.8*34
$GPRMC,170751.000,A,6331.6047,N,01930.7314,W,13.72,191.80,310812,,,A*4E
$GPGGA,170752.000,6331.6008,N,01930.7336,W,1,11,0.9,31.5,M,60.3,M,,0000*70
$GPGSA,A,3,18,08,07,15,01,06,11,19,03,22,28,,2.0,0.9,1.8*34
$GPGSV,3,1,12,19,77,168,25,03,47,129,36,22,41,097,36,11,40,229,30*77
$GPGSV,3,2,12,06,35,118,31,08,30,285,30,18,28,049,31,01,22,225,28*74
$GPGSV,3,3,12,28,20,314,32,07,14,246,31,15,14,007,25,26,07,330,26*73
$GPRMC,170752.000,A,6331.6008,N,01930.7336,W,14.85,193.96,310812,,,A*4C
$GPGGA,170753.000,6331.5967,N,01930.7361,W,1,10,1.0,31.5,M,60.3,M,,0000*79
$GPGSA,A,3,18,08,07,15,01,11,19,03,22,28,,,2.1,1.0,1.9*3A
$GPRMC,170753.000,A,6331.5967,N,01930.7361,W,15.27,195.91,310812,,,A*44
$GPGGA,170754.000,6331.5926,N,01930.7388,W,1,11,0.9,31.5,M,60.3,M,,0000*75
$GPGSA,A,3,18,08,07,15,01,06,11,19,03,22,28,,2.0,0.9,1.8*34
$GPRMC,170754.000,A,6331.5926,N,01930.7388,W,15.54,196.19,310812,,,A*46
$GPGGA,170755.000,6331.5885,N,01930.7413,W,1,10,0.9,31.5,M,60.3,M,,0000*78
$GPGSA,A,3,18,07,15,01,06,11,19,03,22,28,,,2.1,0.9,1.9*3C
$GPRMC,170755.000,A,6331.5885,N,01930.7413,W,15.60,195.75,310812,,,A*44
$GPGGA,170756.000,6331.5843,N,01930.7437,W,1,10,0.9,31.4,M,60.3,M,,0000*76
$GPGSA,A,3,18,07,15,01,06,11,19,03,22,28,,,2.1,0.9,1.9*3C
$GPRMC,170756.000,A,6331.5843,N,01930.7437,W,15.46,194.38,310812,,,A*47
$GPGGA,170757.000,6331.5801,N,01930.7453,W,1,11,0.9,31.3,M,60.3,M,,0000*75
$GPGSA,A,3,18,08,07,15,01,06,11,19,03,22,28,,2.0,0.9,1.8*34
$GPGSV,3,1,12,19,77,168,30,03,47,129,37,22,41,097,31,11,40,229,35*70
$GPGSV,3,2,12,06,35,118,35,08,30,285,28,18,28,049,24,01,22,225,26*73
$GPGSV,3,3,12,28,20,314,33,07,14,246,34,15,14,007,24,26,07,330,24*74
$GPRMC,170757.000,A,6331.5801,N,01930.7453,W,15.62,189.83,310812,,,A*48
$GPGGA,170758.000,6331.5759,N,01930.7458,W,1,11,0.9,31.2,M,60.3,M,,0000*72
$GPGSA,A,3,18,08,07,15,01,06,11,19,03,22,28,,2.0,0.9,1.8*34
$GPRMC,170758.000,A,6331.5759,N,01930.7458,W,15.09,182.55,310812,,,A*43
$GPGGA,170759.000,6331.5720,N,01930.7446,W,1,11,0.9,31.4,M,60.3,M,,0000*74
$GPGSA,A,3,18,08,07,15,01,06,11,19,03,22,28,,2.0,0.9,1.8*34
$GPRMC,170759.000,A,6331.5720,N,01930.7446,W,14.39,171.72,310812,,,A*48
$GPGGA,170800.000,6331.5684,N,01930.7413,W,1,10,0.9,31.7,M,60.3,M,,0000*7A
$GPGSA,A,3,18,08,07,15,01,06,11,19,03,28,,,2.0,0.9,1.8*34
$GPRMC,170800.000,A,6331.5684,N,01930.7413,W,14.34,157.34,310812,,,A*4F
$GPGGA,170801.000,6331.5651,N,01930.7361,W,1,11,0.9,32.1,M,60.3,M,,0000*75
$GPGSA,A,3,18,08,07,15,01,06,11,19,03,22,28,,2.0,0.9,1.8*34
$GPRMC,170801.000,A,6331.5651,N,01930.7361,W,14.65,143.70,310812,,,A*45
$GPGGA,170802.000,6331.5623,N,01930.7294,W,1,11,0.9,32.5,M,60.3,M,,0000*7C
$GPGSA,A,3,18,08,07,15,01,06,11,19,03,22,28,,2.0,0.9,1.8*34
$GPGSV,3,1,12,19,77,168,37,03,47,129,32,22,41,097,36,11,40,229,41*76
$GPGSV,3,2,12,06,35,118,35,08,30,285,34,18,28,049,29,01,22,225,30*74
$GPGSV,3,3,12,28,20,314,26,07,14,246,31,15,14,007,26,26,07,330,24*77
$GPRMC,170802.000,A,6331.5623,N,01930.7294,W,15.15,132.76,310812,,,A*4E
$GPGGA,170803.000,6331.5596,N,01930.7219,W,1,11,0.9,32.9,M,60.3,M,,0000*79
$GPGSA,A,3,18,08,07,15,01,06,11,19,03,22,28,,2.0,0.9,1.8*34
$GPRMC,170803.000,A,6331.5596,N,01930.7219,W,15.77,128.38,310812,,,A*42
$GPGGA,170804.000,6331.5570,N,01930.7139,W,1,11,0.9,33.3,M,60.3,M,,0000*7C
$GPGSA,A,3,18,08,07,15,01,06,11,19,03,22,28,,2.0,0.9,1.8*34
$GPRMC,170804.000,A,6331.5570,N,01930.7139,W,16.11,125.64,310812,,,A*4B
$GPGGA,170805.000,6331.5544,N,01930.7055,W,1,11,0.9,33.8,M,60.3,M,,0000*7A
$GPGSA,A,3,18,08,07,15,01,06,11,19,03,22,28,,2.0,0.9,1.8*34
$GPRMC,170805.000,A,6331.5544,N,01930.7055,W,16.55,123.58,310812,,,A*4F
$GPGGA,170806.000,6331.5517,N,01930.6970,W,1,11,0.9,34.3,M,60.3,M,,0000*7C
$GPGSA,A,3,18,08,07,15,01,06,11,19,03,22,28,,2.0,0.9,1.8*34
$GPRMC,170806.000,A,6331.5517,N,01930.6970,W,17.05,124.65,310812,,,A*48
$GPGGA,170807.000,6331.5489,N,01930.6882,W,1,11,0.9,34.8,M,60.3,M,,0000*7C
$GPGSA,A,3,18,08,07,15,01,06,11,19,03,22,28,,2.0,0.9,1.8*34
$GPGSV,3,1,12,19,77,168,39,03,47,129,31,22,41,097,29,11,40,229,41*75
$GPGSV,3,2,12,06,35,118,25,08,30,285,34,18,28,049,29,01,22,225,31*74
$GPGSV,3,3,12,28,20,314,19,07,14,246,33,15,14,007,27,26,07,330,32*7F
$GPRMC,170807.000,A,6331.5489,N,01930.6882,W,17.57,125.21,310812,,,A*45
$GPGGA,170808.000,6331.5460,N,01930.6792,W,1,11,0.9,35.3,M,60.3,M,,0000*70
$GPGSA,A,3,18,08,07,15,01,06,11,19,03,22,28,,2.0,0.9,1.8*34
$GPRMC,170808.000,A,6331.5460,N,01930.6792,W,17.91,124.75,310812,,,A*49
$GPGGA,170809.000,6331.5432,N,01930.6700,W,1,11,0.9,35.8,M,60.3,M,,0000*76
$GPGSA,A,3,18,08,07,15,01,06,11,19,03,22,28,,2.0,0.9,1.8*34
$GPRMC,170809.000,A,6331.5432,N,01930.6700,W,18.16,124.03,310812,,,A*45
$GPGGA,170810.000,6331.5404,N,01930.6607,W,1,11,0.9,36.4,M,60.3,M,,0000*72
$GPGSA,A,3,18,08,07,15,01,06,11,19,03,22,28,,2.0,0.9,1.8*34
$GPRMC,170810.000,A,6331.5404,N,01930.6607,W,18.18,123.35,310812,,,A*42
$GPGGA,170811.000,6331.5377,N,01930.6513,W,1,11,0.9,36.9,M,60.3,M,,0000*7B
$GPGSA,A,3,18,08,07,15,01,06,11,19,03,22,28,,2.0,0.9,1.8*34
$GPRMC,170811.000,A,6331.5377,N,01930.6513,W,18.01,122.30,310812,,,A*4A
$GPGGA,170812.000,6331.5352,N,01930.6420,W,1,11,0.9,37.4,M,60.3,M,,0000*72
$GPGSA,A,3,18,08,07,15,01,06,11,19,03,22,28,,2.0,0.9,1.8*34
$GPGSV,3,1,12,19,77,167,39,03,47,129,26,22,41,097,37,11,40,229,42*70
$GPGSV,3,2,12,06,34,118,27,08,30,285,25,18,28,049,35,01,22,225,36*7D
$GPGSV,3,3,12,28,20,314,24,07,14,246,34,15,14,007,34,26,06,330,25*73
$GPRMC,170812.000,A,6331.5352,N,01930.6420,W,17.78,120.84,310812,,,A*43
$GPGGA,170813.000,6331.5328,N,01930.6325,W,1,11,0.9,37.9,M,60.3,M,,0000*71
$GPGSA,A,3,18,08,07,15,01,06,11,19,03,22,28,,2.0,0.9,1.8*34
$GPRMC,170813.000,A,6331.5328,N,01930.6325,W,17.63,118.70,310812,,,A*47
$GPGGA,170814.000,6331.5306,N,01930.6228,W,1,11,0.9,38.4,M,60.3,M,,0000*74
$GPGSA,A,3,18,08,07,15,01,06,11,19,03,22,28,,2.0,0.9,1.8*34
$GPRMC,170814.000,A,6331.5306,N,01930.6228,W,17.62,116.47,310812,,,A*4B
$GPGGA,170815.000,6331.5285,N,01930.6128,W,1,11,0.9,38.8,M,60.3,M,,0000*70
$GPGSA,A,3,18,08,07,15,01,06,11,19,03,22,28,,2.0,0.9,1.8*34
$GPRMC,170815.000,A,6331.5285,N,01930.6128,W,17.97,114.91,310812,,,A*40
$GPGGA,170816.000,6331.5263,N,01930.6026,W,1,11,0.9,39.1,M,60.3,M,,0000*7C
$GPGSA,A,3,18,08,07,15,01,06,11,19,03,22,28,,2.0,0.9,1.8*34
$GPRMC,170816.000,A,6331.5263,N,01930.6026,W,18.50,116.01,310812,,,A*4B
$GPGGA,170817.000,6331.5239,N,01930.5925,W,1,11,0.9,39.5,M,60.3,M,,0000*7F
$GPGSA,A,3,18,08,07,15,01,06,11,19,03,22,28,,2.0,0.9,1.8*34
$GPGSV,3,1,12,19,77,167,40,03,47,129,27,22,41,097,36,11,40,229,44*78
$GPGSV,3,2,12,06,34,118,29,08,30,285,29,18,28,048,34,01,22,225,42*7C
$GPGSV,3,3,12,28,20,314,24,07,14,246,34,15,14,007,33,26,06,330,21*70
$GPRMC,170817.000,A,6331.5239,N,01930.5925,W,18.75,118.23,310812,,,A*45
$GPGGA,170818.000,6331.5214,N,01930.5824,W,1,11,0.9,39.8,M,60.3,M,,0000*72
$GPGSA,A,3,18,08,07,15,01,06,11,19,03,22,28,,2.0,0.9,1.8*34
$GPRMC,170818.000,A,6331.5214,N,01930.5824,W,18.79,118.95,310812,,,A*44
$GPGGA,170819.000,6331.5188,N,01930.5723,W,1,11,0.9,40.1,M,60.3,M,,0000*7A
$GPGSA,A,3,18,08,07,15,01,06,11,19,03,22,28,,2.0,0.9,1.8*34
$GPRMC,170819.000,A,6331.5188,N,01930.5723,W,18.88,119.35,310812,,,A*4E
$GPGGA,170820.000,6331.5162,N,01930.5620,W,1,10,1.0,40.4,M,60.3,M,,0000*7A
$GPGSA,A,3,18,08,07,15,01,06,11,19,03,22,,,2.0,1.0,1.8*36
$GPRMC,170820.000,A,6331.5162,N,01930.5620,W,19.26,120.17,310812,,,A*4D
$GPGGA,170821.000,6331.5135,N,01930.5515,W,1,10,1.0,40.7,M,60.3,M,,0000*7F
$GPGSA,A,3,18,08,07,15,01,06,11,19,03,22,,,2.0,1.0,1.8*36
$GPRMC,170821.000,A,6331.5135,N,01930.5515,W,19.89,120.27,310812,,,A*4D
$GPGGA,170822.000,6331.5107,N,01930.5406,W,1,10,1.0,40.9,M,60.3,M,,0000*70
$GPGSA,A,3,18,08,07,15,01,06,11,19,03,22,,,2.0,1.0,1.8*36
$GPGSV,3,1,12,19,77,167,40,03,47,129,27,22,41,097,36,11,40,229,45*79
$GPGSV,3,2,12,06,34,118,29,08,30,285,28,18,28,048,34,01,22,225,41*7E
$GPGSV,3,3,12,28,20,314,,07,14,246,34,15,14,007,34,26,06,330,14*77
$GPRMC,170822.000,A,6331.5107,N,01930.5406,W,20.43,119.55,310812,,,A*4F
$GPGGA,170823.000,6331.5080,N,01930.5294,W,1,10,1.0,41.2,M,60.3,M,,0000*78
$GPGSA,A,3,18,08,07,15,01,06,11,19,03,22,,,2.0,1.0,1.8*36
$GPRMC,170823.000,A,6331.5080,N,01930.5294,W,20.79,119.25,310812,,,A*43
$GPGGA,170824.000,6331.5052,N,01930.5182,W,1,10,1.0,41.4,M,60.3,M,,0000*72
$GPGSA,A,3,18,08,07,15,01,06,11,19,03,22,,,2.0,1.0,1.8*36
$GPRMC,170824.000,A,6331.5052,N,01930.5182,W,20.96,119.32,310812,,,A*48
$GPGGA,170825.000,6331.5024,N,01930.5068,W,1,10,1.0,41.7,M,60.3,M,,0000*74
$GPGSA,A,3,18,08,07,15,01,06,11,19,03,22,,,2.0,1.0,1.8*36
$GPRMC,170825.000,A,6331.5024,N,01930.5068,W,21.27,119.27,310812,,,A*42
$GPGGA,170826.000,6331.4995,N,01930.4953,W,1,11,0.9,41.9,M,60.3,M,,0000*72
$GPGSA,A,3,18,08,07,15,01,06,11,19,03,22,28,,2.0,0.9,1.8*34
$GPRMC,170826.000,A,6331.4995,N,01930.4953,W,21.62,119.42,310812,,,A*41
$GPGGA,170827.000,6331.4966,N,01930.4836,W,1,11,0.9,42.1,M,60.3,M,,0000*76
$GPGSA,A,3,18,08,07,15,01,06,11,19,03,22,28,,2.0,0.9,1.8*34
$GPGSV,3,1,12,19,77,167,41,03,47,129,22,22,41,097,37,11,40,229,44*7D
$GPGSV,3,2,12,06,34,118,30,08,30,285,28,18,28,048,33,01,22,225,42*72
$GPGSV,3,3,12,28,20,314,21,07,14,246,34,15,14,007,35,26,06,330,14*75
$GPRMC,170827.000,A,6331.4966,N,01930.4836,W,21.81,119.13,310812,,,A*47
$GPGGA,170828.000,6331.4936,N,01930.4715,W,1,11,0.9,42.3,M,60.3,M,,0000*70
$GPGSA,A,3,18,08,07,15,01,06,11,19,03,22,28,,2.0,0.9,1.8*34
$GPRMC,170828.000,A,6331.4936,N,01930.4715,W,22.63,119.20,310812,,,A*4C
$GPGGA,170829.000,6331.4905,N,01930.4591,W,1,10,1.0,42.5,M,60.3,M,,0000*70
$GPGSA,A,3,18,08,07,15,01,06,11,19,03,22,,,2.0,1.0,1.8*36
$GPRMC,170829.000,A,6331.4905,N,01930.4591,W,23.18,119.65,310812,,,A*4F
$GPGGA,170830.000,6331.4874,N,01930.4468,W,1,10,1.0,42.7,M,60.3,M,,0000*7A
$GPGSA,A,3,18,08,07,15,01,06,11,19,03,22,,,2.0,1.0,1.8*36
$GPRMC,170830.000,A,6331.4874,N,01930.4468,W,23.06,119.85,310812,,,A*46
$GPGGA,170831.000,6331.4842,N,01930.4341,W,1,10,1.0,42.9,M,60.3,M,,0000*7C
$GPGSA,A,3,18,08,07,15,01,06,11,19,03,22,,,2.0,1.0,1.8*36
$GPRMC,170831.000,A,6331.4842,N,01930.4341,W,23.95,119.84,310812,,,A*45
$GPGGA,170832.000,6331.4808,N,01930.4208,W,1,10,1.0,43.1,M,60.3,M,,0000*74
$GPGSA,A,3,18,08,07,15,01,06,11,19,03,22,,,2.0,1.0,1.8*36
$GPGSV,3,1,12,19,77,167,40,03,47,129,26,22,41,097,36,11,40,229,45*78
$GPGSV,3,2,12,06,34,118,25,08,30,285,29,18,28,048,32,01,22,225,41*75
$GPGSV,3,3,12,28,20,314,,07,14,246,34,15,14,007,35,26,06,330,23*72
$GPRMC,170832.000,A,6331.4808,N,01930.4208,W,25.02,119.99,310812,,,A*40
$GPGGA,170833.000,6331.4773,N,01930.4071,W,1,10,1.0,43.3,M,60.3,M,,0000*78
$GPGSA,A,3,18,08,07,15,01,06,11,19,03,22,,,2.0,1.0,1.8*36
$GPRMC,170833.000,A,6331.4773,N,01930.4071,W,25.73,119.85,310812,,,A*45
$GPGGA,170834.000,6331.4738,N,01930.3933,W,1,10,1.0,43.6,M,60.3,M,,0000*7D
$GPGSA,A,3,18,08,07,15,01,06,11,19,03,22,,,2.0,1.0,1.8*36
$GPRMC,170834.000,A,6331.4738,N,01930.3933,W,25.82,119.89,310812,,,A*47
$GPGGA,170835.000,6331.4703,N,01930.3798,W,1,10,1.0,43.8,M,60.3,M,,0000*75
$GPGSA,A,3,18,08,07,15,01,06,11,19,03,22,,,2.0,1.0,1.8*36
$GPRMC,170835.000,A,6331.4703,N,01930.3798,W,25.59,120.25,310812,,,A*4B
$GPGGA,170836.000,6331.4668,N,01930.3664,W,1,10,1.0,44.0,M,60.3,M,,0000*77
$GPGSA,A,3,18,08,07,15,01,06,11,19,03,22,,,2.0,1.0,1.8*36
$GPRMC,170836.000,A,6331.4668,N,01930.3664,W,25.12,120.28,310812,,,A*44
$GPGGA,170837.000,6331.4636,N,01930.3535,W,1,10,1.0,44.1,M,60.3,M,,0000*7B
$GPGSA,A,3,18,08,07,15,01,06,11,19,03,22,,,2.0,1.0,1.8*36
$GPGSV,3,1,12,19,77,167,40,03,47,129,28,22,41,097,35,11,40,229,44*74
$GPGSV,3,2,12,06,34,118,24,08,30,285,29,18,28,048,32,01,22,225,40*75
$GPGSV,3,3,12,28,20,314,,07,14,246,34,15,14,007,35,26,06,330,15*77
$GPRMC,170837.000,A,6331.4636,N,01930.3535,W,24.15,119.93,310812,,,A*45
$GPGGA,170838.000,6331.4605,N,01930.3410,W,1,10,1.0,44.3,M,60.3,M,,0000*70
$GPGSA,A,3,18,08,07,15,01,06,11,19,03,22,,,2.0,1.0,1.8*36
$GPRMC,170838.000,A,6331.4605,N,01930.3410,W,23.31,119.17,310812,,,A*41
$GPGGA,170839.000,6331.4576,N,01930.3289,W,1,10,1.0,44.4,M,60.3,M,,0000*77
$GPGSA,A,3,18,08,07,15,01,06,11,19,03,22,,,2.0,1.0,1.8*36
$GPRMC,170839.000,A,6331.4576,N,01930.3289,W,22.21,117.92,310812,,,A*42
$GPGGA,170840.000,6331.4549,N,01930.3172,W,1,10,1.0,44.6,M,60.3,M,,0000*70
$GPGSA,A,3,18,08,07,15,01,06,11,19,03,22,,,2.0,1.0,1.8*36
$GPRMC,170840.000,A,6331.4549,N,01930.3172,W,21.19,117.69,310812,,,A*4B
$GPGGA,170841.000,6331.4523,N,01930.3061,W,1,11,0.9,44.7,M,60.3,M,,0000*76
$GPGSA,A,3,18,08,07,15,01,06,11,19,03,22,28,,2.0,0.9,1.8*34
$GPRMC,170841.000,A,6331.4523,N,01930.3061,W,20.31,117.78,310812,,,A*4E
$GPGGA,170842.000,6331.4497,N,01930.2954,W,1,11,0.9,44.8,M,60.3,M,,0000*7A
$GPGSA,A,3,18,08,07,15,01,06,11,19,03,22,28,,2.0,0.9,1.8*34
$GPGSV,3,1,12,19,77,166,40,03,46,129,26,22,41,097,35,11,40,229,44*7A
$GPGSV,3,2,12,06,34,118,31,08,30,284,29,18,27,048,29,01,22,225,40*75
$GPGSV,3,3,12,28,20,314,19,07,14,246,27,15,14,007,32,26,06,330,19*76
$GPRMC,170842.000,A,6331.4497,N,01930.2954,W,19.50,118.14,310812,,,A*45
$GPGGA,170843.000,6331.4472,N,01930.2852,W,1,11,0.9,44.8,M,60.3,M,,0000*77
$GPGSA,A,3,18,08,07,15,01,06,11,19,03,22,28,,2.0,0.9,1.8*34
$GPRMC,170843.000,A,6331.4472,N,01930.2852,W,18.74,118.97,310812,,,A*44
$GPGGA,170844.000,6331.4448,N,01930.2758,W,1,11,0.9,44.9,M,60.3,M,,0000*7D
$GPGSA,A,3,18,08,07,15,01,06,11,19,03,22,28,,2.0,0.9,1.8*34
$GPRMC,170844.000,A,6331.4448,N,01930.2758,W,17.41,120.29,310812,,,A*48
$GPGGA,170845.000,6331.4427,N,01930.2678,W,1,11,0.9,45.0,M,60.3,M,,0000*7E
$GPGSA,A,3,18,08,07,15,01,06,11,19,03,22,28,,2.0,0.9,1.8*34
$GPRMC,170845.000,A,6331.4427,N,01930.2678,W,15.08,121.27,310812,,,A*43
$GPGGA,170846.000,6331.4408,N,01930.2617,W,1,11,0.9,45.0,M,60.3,M,,0000*79
$GPGSA,A,3,18,08,07,15,01,06,11,19,03,22,28,,2.0,0.9,1.8*34
$GPRMC,170846.000,A,6331.4408,N,01930.2617,W,11.71,124.15,310812,,,A*4A
$GPGGA,170847.000,6331.4394,N,01930.2579,W,1,11,0.9,45.1,M,60.3,M,,0000*70
$GPGSA,A,3,18,08,07,15,01,06,11,19,03,22,28,,2.0,0.9,1.8*34
$GPGSV,3,1,12,19,77,166,29,03,46,129,30,22,41,097,35,11,40,229,34*75
$GPGSV,3,2,12,06,34,118,25,08,30,284,30,18,27,048,35,01,22,225,33*71
$GPGSV,3,3,12,28,20,314,26,07,14,246,34,15,14,006,32,26,06,330,25*76
$GPRMC,170847.000,A,6331.4394,N,01930.2579,W,8.01,131.52,310812,,,A*7A
$GPGGA,170848.000,6331.4385,N,01930.2556,W,1,11,0.9,45.2,M,60.3,M,,0000*71
$GPGSA,A,3,18,08,07,15,01,06,11,19,03,22,28,,2.0,0.9,1.8*34
$GPRMC,170848.000,A,6331.4385,N,01930.2556,W,4.74,133.08,310812,,,A*7B
$GPGGA,170849.000,6331.4379,N,01930.2541,W,1,10,0.9,45.3,M,60.3,M,,0000*75
$GPGSA,A,3,18,08,07,15,01,06,11,19,22,28,,,2.0,0.9,1.8*37
$GPRMC,170849.000,A,6331.4379,N,01930.2541,W,2.96,133.33,310812,,,A*7D
$GPGGA,170850.000,6331.4375,N,01930.2531,W,1,11,0.9,45.3,M,60.3,M,,0000*77
$GPGSA,A,3,18,08,07,15,01,06,11,19,03,22,28,,2.0,0.9,1.8*34
$GPRMC,170850.000,A,6331.4375,N,01930.2531,W,1.90,134.43,310812,,,A*7B
$GPGGA,170851.000,6331.4372,N,01930.2525,W,1,11,0.9,45.4,M,60.3,M,,0000*73
$GPGSA,A,3,18,08,07,15,01,06,11,19,03,22,28,,2.0,0.9,1.8*34
$GPRMC,170851.000,A,6331.4372,N,01930.2525,W,1.29,138.93,310812,,,A*7B
$GPGGA,170852.000,6331.4370,N,01930.2520,W,1,11,0.9,45.4,M,60.3,M,,0000*77
$GPGSA,A,3,18,08,07,15,01,06,11,19,03,22,28,,2.0,0.9,1.8*34
$GPGSV,3,1,12,19,77,166,25,03,46,129,35,22,41,097,39,11,40,229,37*73
$GPGSV,3,2,12,06,34,118,32,08,30,284,27,18,27,048,33,01,22,225,26*73
$GPGSV,3,3,12,28,20,314,33,07,14,246,34,15,14,006,32,26,06,330,23*74
$GPRMC,170855.000,A,6331.4366,N,01930.2512,W,1.21,135.17,310812,,,A*77
$GPGGA,170856.000,6331.4361,N,01930.2501,W,1,11,0.9,46.4,M,60.3,M,,0000*73
$GPGSA,A,3,18,08,07,15,01,06,11,19,03,22,28,,2.0,0.9,1.8*34
$GPRMC,170856.000,A,6331.4361,N,01930.2501,W,2.69,138.22,310812,,,A*75
$GPGGA,170857.000,6331.4350,N,01930.2488,W,1,11,0.9,46.9,M,60.3,M,,0000*7D
$GPGSA,A,3,18,08,07,15,01,06,11,19,03,22,28,,2.0,0.9,1.8*34
$GPGSV,3,1,12,19,77,166,37,03,46,129,35,22,41,097,39,11,40,229,37*70
$GPGSV,3,2,12,06,34,118,27,08,30,284,39,18,27,048,34,01,22,225,33*7B
$GPGSV,3,3,12,28,20,314,25,07,14,246,27,15,14,006,32,26,06,330,20*72
$GPRMC,170857.000,A,6331.4350,N,01930.2488,W,4.26,152.03,310812,,,A*74
$GPGGA,170858.000,6331.4335,N,01930.2486,W,1,11,0.9,47.2,M,60.3,M,,0000*75
$GPGSA,A,3,18,08,07,15,01,06,11,19,03,22,28,,2.0,0.9,1.8*34
$GPRMC,170858.000,A,6331.4335,N,01930.2486,W,5.60,176.96,310812,,,A*7F
$GPGGA,170859.000,6331.4317,N,01930.2498,W,1,11,0.9,47.4,M,60.3,M,,0000*7D
$GPGSA,A,3,18,08,07,15,01,06,11,19,03,22,28,,2.0,0.9,1.8*34
$GPRMC,170859.000,A,6331.4317,N,01930.2498,W,6.87,197.95,310812,,,A*77
$GPGGA,170900.000,6331.4297,N,01930.2518,W,1,11,0.9,47.5,M,60.3,M,,0000*71
$GPGSA,A,3,18,08,07,15,01,06,11,19,03,22,28,,2.0,0.9,1.8*34
$GPRMC,170900.000,A,6331.4297,N,01930.2518,W,7.82,206.33,310812,,,A*79
$GPGGA,170901.000,6331.4272,N,01930.2545,W,1,11,0.9,47.6,M,60.3,M,,0000*70
$GPGSA,A,3,18,08,07,15,01,06,11,19,03,22,28,,2.0,0.9,1.8*34
$GPRMC,170901.000,A,6331.4272,N,01930.2545,W,9.99,207.01,310812,,,A*7F
$GPGGA,170902.000,6331.4242,N,01930.2577,W,1,11,0.9,47.6,M,60.3,M,,0000*71
$GPGSA,A,3,18,08,07,15,01,06,11,19,03,22,28,,2.0,0.9,1.8*34
$GPGSV,3,1,12,19,77,166,36,03,46,129,30,22,41,097,22,11,40,229,31*78
$GPGSV,3,2,12,06,34,118,33,08,30,284,36,18,27,048,30,01,22,225,30*76
$GPGSV,3,3,12,28,20,314,36,07,14,246,27,15,14,006,26,26,06,330,22*77
$GPRMC,170902.000,A,6331.4242,N,01930.2577,W,12.21,206.75,310812,,,A*45
$GPGGA,170903.000,6331.4208,N,01930.2615,W,1,11,0.9,47.6,M,60.3,M,,0000*79
$GPGSA,A,3,18,08,07,15,01,06,11,19,03,22,28,,2.0,0.9,1.8*34
$GPRMC,170903.000,A,6331.4208,N,01930.2615,W,13.84,207.52,310812,,,A*47
$GPGGA,170904.000,6331.4172,N,01930.2656,W,1,11,0.9,47.5,M,60.3,M,,0000*74
$GPGSA,A,3,18,08,07,15,01,06,11,19,03,22,28,,2.0,0.9,1.8*34
$GPRMC,170904.000,A,6331.4172,N,01930.2656,W,14.72,207.79,310812,,,A*4E
$GPGGA,170905.000,6331.4136,N,01930.2697,W,1,11,0.9,47.4,M,60.3,M,,0000*79
$GPGSA,A,3,18,08,07,15,01,06,11,19,03,22,28,,2.0,0.9,1.8*34
$GPRMC,170905.000,A,6331.4136,N,01930.2697,W,14.68,207.86,310812,,,A*49
$GPGGA,170906.000,6331.4098,N,01930.2742,W,1,11,0.9,47.3,M,60.3,M,,0000*71
$GPGSA,A,3,18,08,07,15,01,06,11,19,03,22,28,,2.0,0.9,1.8*34
$GPRMC,170906.000,A,6331.4098,N,01930.2742,W,15.75,208.42,310812,,,A*4C
$GPGGA,170907.000,6331.4057,N,01930.2791,W,1,11,0.9,47.2,M,60.3,M,,0000*7C
$GPGSA,A,3,18,08,07,15,01,06,11,19,03,22,28,,2.0,0.9,1.8*34
$GPGSV,3,1,12,19,77,166,36,03,46,129,29,22,41,097,33,11,40,229,31*70
$GPGSV,3,2,12,06,34,118,35,08,30,284,37,18,27,048,25,01,22,225,30*75
$GPGSV,3,3,12,28,20,314,36,07,14,246,33,15,14,006,32,26,06,330,26*73
$GPRMC,170907.000,A,6331.4057,N,01930.2791,W,16.78,208.71,310812,,,A*4E
$GPGGA,170908.000,6331.4015,N,01930.2843,W,1,11,0.9,47.0,M,60.3,M,,0000*77
$GPGSA,A,3,18,08,07,15,01,06,11,19,03,22,28,,2.0,0.9,1.8*34
$GPRMC,170908.000,A,6331.4015,N,01930.2843,W,17.81,209.37,310812,,,A*43
$GPGGA,170909.000,6331.3970,N,01930.2898,W,1,11,0.9,46.8,M,60.3,M,,0000*74
$GPGSA,A,3,18,08,07,15,01,06,11,19,03,22,28,,2.0,0.9,1.8*34
$GPRMC,170909.000,A,6331.3970,N,01930.2898,W,18.66,209.09,310812,,,A*42
$GPGGA,170910.000,6331.3923,N,01930.2955,W,1,11,0.9,46.7,M,60.3,M,,0000*75
$GPGSA,A,3,18,08,07,15,01,06,11,19,03,22,28,,2.0,0.9,1.8*34
$GPRMC,170910.000,A,6331.3923,N,01930.2955,W,19.25,209.19,310812,,,A*4B
$GPGGA,170911.000,6331.3876,N,01930.3014,W,1,11,0.9,46.5,M,60.3,M,,0000*7A
$GPGSA,A,3,18,08,07,15,01,06,11,19,03,22,28,,2.0,0.9,1.8*34
$GPRMC,170911.000,A,6331.3876,N,01930.3014,W,19.66,209.24,310812,,,A*4F
$GPGGA,170912.000,6331.3827,N,01930.3073,W,1,11,0.9,46.3,M,60.3,M,,0000*7A
$GPGSA,A,3,18,08,07,15,01,06,11,19,03,22,28,,2.0,0.9,1.8*34
$GPGSV,3,1,12,19,77,165,36,03,46,129,25,22,41,097,35,11,41,229,32*7B
$GPGSV,3,2,12,06,34,118,30,08,30,284,37,18,27,048,23,01,22,225,26*71
$GPGSV,3,3,12,28,20,314,37,15,14,006,29,07,14,246,32,26,06,330,28*77
$GPRMC,170912.000,A,6331.3827,N,01930.3073,W,20.12,208.94,310812,,,A*4A
$GPGGA,170913.000,6331.3778,N,01930.3134,W,1,11,0.9,46.1,M,60.3,M,,0000*7E
$GPGSA,A,3,18,08,07,15,01,06,11,19,03,22,28,,2.0,0.9,1.8*34
$GPRMC,170913.000,A,6331.3778,N,01930.3134,W,20.36,208.79,310812,,,A*49
$GPGGA,170914.000,6331.3727,N,01930.3196,W,1,11,0.9,46.0,M,60.3,M,,0000*7A
$GPGSA,A,3,18,08,07,15,01,06,11,19,03,22,28,,2.0,0.9,1.8*34
$GPRMC,170914.000,A,6331.3727,N,01930.3196,W,20.77,208.97,310812,,,A*49
$GPGGA,170915.000,6331.3676,N,01930.3258,W,1,11,0.9,45.9,M,60.3,M,,0000*75
$GPGSA,A,3,18,08,07,15,01,06,11,19,03,22,28,,2.0,0.9,1.8*34
$GPRMC,170915.000,A,6331.3676,N,01930.3258,W,21.10,208.66,310812,,,A*42
$GPGGA,170916.000,6331.3624,N,01930.3321,W,1,11,0.9,45.8,M,60.3,M,,0000*7F
$GPGSA,A,3,18,08,07,15,01,06,11,19,03,22,28,,2.0,0.9,1.8*34
$GPRMC,170916.000,A,6331.3624,N,01930.3321,W,21.24,208.43,310812,,,A*49
$GPGGA,170917.000,6331.3572,N,01930.3385,W,1,11,0.9,45.7,M,60.3,M,,0000*7F
$GPGSA,A,3,18,08,07,15,01,06,11,19,03,22,28,,2.0,0.9,1.8*34
$GPGSV,3,1,12,19,77,165,36,03,46,129,30,22,41,096,35,11,41,229,31*7D
$GPGSV,3,2,12,06,34,118,30,08,30,284,37,18,27,048,24,01,22,225,26*76
$GPGSV,3,3,12,28,20,314,39,15,14,006,25,07,14,246,33,26,06,329,28*7C
$GPRMC,170917.000,A,6331.3572,N,01930.3385,W,21.34,208.56,310812,,,A*43
$GPGGA,170918.000,6331.3519,N,01930.3450,W,1,11,0.9,45.6,M,60.3,M,,0000*73
$GPGSA,A,3,18,08,07,15,01,06,11,19,03,22,28,,2.0,0.9,1.8*34
$GPRMC,170918.000,A,6331.3519,N,01930.3450,W,21.66,208.73,310812,,,A*4E
$GPGGA,170919.000,6331.3465,N,01930.3517,W,1,11,0.9,45.5,M,60.3,M,,0000*79
$GPGSA,A,3,18,08,07,15,01,06,11,19,03,22,28,,2.0,0.9,1.8*34
$GPRMC,170919.000,A,6331.3465,N,01930.3517,W,22.10,209.11,310812,,,A*40
$GPGGA,170920.000,6331.3410,N,01930.3584,W,1,11,0.9,45.4,M,60.3,M,,0000*7A
$GPGSA,A,3,18,08,07,15,01,06,11,19,03,22,28,,2.0,0.9,1.8*34
$GPRMC,170920.000,A,6331.3410,N,01930.3584,W,22.38,208.69,310812,,,A*46
$GPGGA,170921.000,6331.3354,N,01930.3652,W,1,11,0.9,45.3,M,60.3,M,,0000*73
$GPGSA,A,3,18,08,07,15,01,06,11,19,03,22,28,,2.0,0.9,1.8*34
$GPRMC,170921.000,A,6331.3354,N,01930.3652,W,22.92,208.25,310812,,,A*40
$GPGGA,170922.000,6331.3296,N,01930.3724,W,1,11,0.9,45.2,M,60.3,M,,0000*7E
$GPGSA,A,3,18,08,07,15,01,06,11,19,03,22,28,,2.0,0.9,1.8*34
$GPGSV,3,1,12,19,77,165,35,03,46,129,27,22,41,096,35,11,41,229,32*7B
$GPGSV,3,2,12,06,34,118,31,08,30,284,38,18,27,048,19,01,22,225,26*76
$GPGSV,3,3,12,28,20,314,39,15,14,006,29,07,14,246,32,26,06,329,33*7B
$GPRMC,170922.000,A,6331.3296,N,01930.3724,W,23.70,208.76,310812,,,A*47
$GPGGA,170923.000,6331.3238,N,01930.3797,W,1,11,0.9,45.1,M,60.3,M,,0000*70
$GPGSA,A,3,18,08,07,15,01,06,11,19,03,22,28,,2.0,0.9,1.8*34
$GPRMC,170923.000,A,6331.3238,N,01930.3797,W,23.93,209.12,310812,,,A*44
$GPGGA,170924.000,6331.3180,N,01930.3869,W,1,11,0.9,45.1,M,60.3,M,,0000*79
$GPGSA,A,3,18,08,07,15,01,06,11,19,03,22,28,,2.0,0.9,1.8*34
$GPRMC,170924.000,A,6331.3180,N,01930.3869,W,23.79,209.18,310812,,,A*43
$GPGGA,170925.000,6331.3121,N,01930.3943,W,1,11,0.9,45.0,M,60.3,M,,0000*7B
$GPGSA,A,3,18,08,07,15,01,06,11,19,03,22,28,,2.0,0.9,1.8*34
$GPRMC,170925.000,A,6331.3121,N,01930.3943,W,24.38,209.01,310812,,,A*4A
$GPGGA,170926.000,6331.3059,N,01930.4021,W,1,11,0.9,44.9,M,60.3,M,,0000*74
$GPGSA,A,3,18,08,07,15,01,06,11,19,03,22,28,,2.0,0.9,1.8*34
$GPRMC,170926.000,A,6331.3059,N,01930.4021,W,25.48,209.24,310812,,,A*4C
$GPGGA,170927.000,6331.2995,N,01930.4101,W,1,11,0.9,44.8,M,60.3,M,,0000*7F
$GPGSA,A,3,18,08,07,15,01,06,11,19,03,22,28,,2.0,0.9,1.8*34
$GPGSV,3,1,12,19,77,165,36,03,46,129,28,22,41,096,33,11,41,229,31*72
$GPGSV,3,2,12,06,34,118,31,08,30,284,37,18,27,048,21,01,22,225,30*75
$GPGSV,3,3,12,28,20,314,38,15,14,006,30,07,14,246,28,26,06,329,34*7E
$GPRMC,170927.000,A,6331.2995,N,01930.4101,W,26.23,209.00,310812,,,A*4E
$GPGGA,170928.000,6331.2929,N,01930.4180,W,1,11,0.9,44.7,M,60.3,M,,0000*71
$GPGSA,A,3,18,08,07,15,01,06,11,19,03,22,28,,2.0,0.9,1.8*34
$GPRMC,170928.000,A,6331.2929,N,01930.4180,W,26.56,208.12,310812,,,A*4F
$GPGGA,170929.000,6331.2864,N,01930.4257,W,1,11,0.9,44.6,M,60.3,M,,0000*70
$GPGSA,A,3,18,08,07,15,01,06,11,19,03,22,28,,2.0,0.9,1.8*34
$GPRMC,170929.000,A,6331.2864,N,01930.4257,W,26.46,207.71,310812,,,A*44
$GPGGA,170930.000,6331.2800,N,01930.4334,W,1,11,0.9,44.5,M,60.3,M,,0000*7D
$GPGSA,A,3,18,08,07,15,01,06,11,19,03,22,28,,2.0,0.9,1.8*34
$GPRMC,170930.000,A,6331.2800,N,01930.4334,W,26.10,207.89,310812,,,A*4E
$GPGGA,170931.000,6331.2736,N,01930.4411,W,1,11,0.9,44.3,M,60.3,M,,0000*70
$GPGSA,A,3,18,08,07,15,01,06,11,19,03,22,28,,2.0,0.9,1.8*34
$GPRMC,170931.000,A,6331.2736,N,01930.4411,W,25.89,208.20,310812,,,A*4A
$GPGGA,170932.000,6331.2673,N,01930.4488,W,1,11,0.9,44.2,M,60.3,M,,0000*72
$GPGSA,A,3,18,08,07,15,01,06,11,19,03,22,28,,2.0,0.9,1.8*34
$GPGSV,3,1,12,19,77,165,37,03,46,129,28,22,41,096,31,11,41,229,31*71
$GPGSV,3,2,12,06,34,118,32,08,30,284,37,18,27,048,21,01,22,225,30*76
$GPGSV,3,3,12,28,20,314,38,15,14,006,29,07,14,246,29,26,06,329,33*70
$GPRMC,170932.000,A,6331.2673,N,01930.4488,W,25.73,208.76,310812,,,A*4F
$GPGGA,170933.000,6331.2610,N,01930.4566,W,1,11,0.9,44.0,M,60.3,M,,0000*75
$GPGSA,A,3,18,08,07,15,01,06,11,19,03,22,28,,2.0,0.9,1.8*34
$GPRMC,170933.000,A,6331.2610,N,01930.4566,W,25.41,208.91,310812,,,A*42
$GPGGA,170934.000,6331.2549,N,01930.4642,W,1,11,0.9,43.9,M,60.3,M,,0000*76
$GPGSA,A,3,18,08,07,15,01,06,11,19,03,22,28,,2.0,0.9,1.8*34
$GPRMC,170934.000,A,6331.2549,N,01930.4642,W,25.08,208.85,310812,,,A*47
$GPGGA,170935.000,6331.2488,N,01930.4716,W,1,11,0.9,43.7,M,60.3,M,,0000*75
$GPGSA,A,3,18,08,07,15,01,06,11,19,03,22,28,,2.0,0.9,1.8*34
$GPRMC,170935.000,A,6331.2488,N,01930.4716,W,24.56,208.67,310812,,,A*4C
$GPGGA,170936.000,6331.2429,N,01930.4788,W,1,11,0.9,43.5,M,60.3,M,,0000*78
$GPGSA,A,3,18,08,07,15,01,06,11,19,03,22,28,,2.0,0.9,1.8*34
$GPRMC,170936.000,A,6331.2429,N,01930.4788,W,24.12,208.66,310812,,,A*42
$GPGGA,170937.000,6331.2371,N,01930.4860,W,1,11,0.9,43.4,M,60.3,M,,0000*7B
$GPGSA,A,3,18,08,07,15,01,06,11,19,03,22,28,,2.0,0.9,1.8*34
$GPGSV,3,1,12,19,77,165,37,03,46,129,29,22,41,096,34,11,41,229,31*75
$GPGSV,3,2,12,06,34,118,32,08,30,284,36,18,27,048,17,01,23,225,27*75
$GPGSV,3,3,12,28,20,314,38,15,14,006,31,07,13,246,30,26,06,329,33*76
$GPRMC,170937.000,A,6331.2371,N,01930.4860,W,23.70,208.76,310812,,,A*42
$GPGGA,170938.000,6331.2314,N,01930.4931,W,1,11,0.9,43.2,M,60.3,M,,0000*74
$GPGSA,A,3,18,08,07,15,01,06,11,19,03,22,28,,2.0,0.9,1.8*34
$GPRMC,170938.000,A,6331.2314,N,01930.4931,W,23.26,208.91,310812,,,A*41
$GPGGA,170939.000,6331.2257,N,01930.5000,W,1,11,0.9,43.0,M,60.3,M,,0000*7B
$GPGSA,A,3,18,08,07,15,01,06,11,19,03,22,28,,2.0,0.9,1.8*34
$GPRMC,170939.000,A,6331.2257,N,01930.5000,W,22.86,208.69,310812,,,A*40
$GPGGA,170940.000,6331.2203,N,01930.5065,W,1,11,0.9,42.8,M,60.3,M,,0000*7E
$GPGSA,A,3,18,08,07,15,01,06,11,19,03,22,28,,2.0,0.9,1.8*34
$GPRMC,170940.000,A,6331.2203,N,01930.5065,W,21.81,208.07,310812,,,A*40
$GPGGA,170941.000,6331.2154,N,01930.5123,W,1,11,0.9,42.7,M,60.3,M,,0000*72
$GPGSA,A,3,18,08,07,15,01,06,11,19,03,22,28,,2.0,0.9,1.8*34
$GPRMC,170941.000,A,6331.2154,N,01930.5123,W,19.81,207.83,310812,,,A*4B
$GPGGA,170942.000,6331.2112,N,01930.5174,W,1,11,0.9,42.6,M,60.3,M,,0000*70
$GPGSA,A,3,18,08,07,15,01,06,11,19,03,22,28,,2.0,0.9,1.8*34
$GPGSV,3,1,12,19,77,164,36,03,46,129,34,22,41,096,28,11,41,229,31*74
$GPGSV,3,2,12,06,34,118,32,08,30,284,36,18,27,048,25,01,23,225,28*7B
$GPGSV,3,3,12,28,20,314,38,15,14,006,31,07,13,246,30,26,06,329,28*7C
$GPRMC,170942.000,A,6331.2112,N,01930.5174,W,16.83,207.90,310812,,,A*47
$GPGGA,170943.000,6331.2078,N,01930.5217,W,1,11,0.9,42.5,M,60.3,M,,0000*79
$GPGSA,A,3,18,08,07,15,01,06,11,19,03,22,28,,2.0,0.9,1.8*34
$GPRMC,170943.000,A,6331.2078,N,01930.5217,W,13.43,209.70,310812,,,A*44
$GPGGA,170944.000,6331.2053,N,01930.5249,W,1,11,0.9,42.5,M,60.3,M,,0000*7C
$GPGSA,A,3,18,08,07,15,01,06,11,19,03,22,28,,2.0,0.9,1.8*34
$GPRMC,170944.000,A,6331.2053,N,01930.5249,W,9.96,209.79,310812,,,A*7B
$GPGGA,170945.000,6331.2035,N,01930.5269,W,1,11,0.9,42.4,M,60.3,M,,0000*7E
$GPGSA,A,3,18,08,07,15,01,06,11,19,03,22,28,,2.0,0.9,1.8*34
$GPRMC,170945.000,A,6331.2035,N,01930.5269,W,6.72,205.26,310812,,,A*7B
$GPGGA,170946.000,6331.2024,N,01930.5278,W,1,11,0.9,42.4,M,60.3,M,,0000*7D
$GPGSA,A,3,18,08,07,15,01,06,11,19,03,22,28,,2.0,0.9,1.8*34
$GPRMC,170946.000,A,6331.2024,N,01930.5278,W,3.68,198.69,310812,,,A*7A
$GPGGA,170947.000,6331.2022,N,01930.5280,W,1,11,0.9,42.4,M,60.3,M,,0000*7D
$GPGSA,A,3,18,08,07,15,01,06,11,19,03,22,28,,2.0,0.9,1.8*34
$GPGSV,3,1,12,19,76,164,35,03,46,129,29,22,41,096,34,11,41,229,28*7F
$GPGSV,3,2,12,06,34,118,32,08,30,284,29,18,27,048,26,01,23,225,34*7B
$GPGSV,3,3,12,28,20,314,38,15,14,006,19,07,13,246,26,26,06,329,28*71
$GPRMC,171002.000,A,6331.2021,N,01930.5290,W,1.47,190.86,310812,,,A*77
$GPGGA,171003.000,6331.2011,N,01930.5285,W,1,11,0.9,45.6,M,60.3,M,,0000*75
$GPGSA,A,3,18,08,07,15,01,06,11,19,03,22,28,,2.0,0.9,1.8*34
$GPRMC,171003.000,A,6331.2011,N,01930.5285,W,4.30,168.42,310812,,,A*7B
$GPGGA,171004.000,6331.1998,N,01930.5265,W,1,11,0.9,45.7,M,60.3,M,,0000*76
$GPGSA,A,3,18,08,07,15,01,06,11,19,03,22,28,,2.0,0.9,1.8*34
$GPRMC,171004.000,A,6331.1998,N,01930.5265,W,6.10,147.27,310812,,,A*77
$GPGGA,171005.000,6331.1986,N,01930.5233,W,1,11,0.9,45.7,M,60.3,M,,0000*7B
$GPGSA,A,3,18,08,07,15,01,06,11,19,03,22,28,,2.0,0.9,1.8*34
$GPRMC,171005.000,A,6331.1986,N,01930.5233,W,7.12,131.19,310812,,,A*75
$GPGGA,171006.000,6331.1979,N,01930.5193,W,1,11,0.9,45.7,M,60.3,M,,0000*71
$GPGSA,A,3,18,08,07,15,01,06,11,19,03,22,28,,2.0,0.9,1.8*34
$GPRMC,171006.000,A,6331.1979,N,01930.5193,W,7.04,112.37,310812,,,A*75
$GPGGA,171007.000,6331.1974,N,01930.5145,W,1,11,0.9,45.7,M,60.3,M,,0000*76
$GPGSA,A,3,18,08,07,15,01,06,11,19,03,22,28,,2.0,0.9,1.8*34
$GPGSV,3,1,12,19,76,164,34,03,46,129,25,22,41,096,32,11,41,229,43*79
$GPGSV,3,2,12,06,34,118,25,08,30,284,34,18,27,048,25,01,23,225,32*74
$GPGSV,3,3,12,28,20,314,30,15,14,006,35,07,13,246,31,26,06,329,25*7C
$GPRMC,171007.000,A,6331.1974,N,01930.5145,W,8.05,105.31,310812,,,A*7C
$GPGGA,171008.000,6331.1968,N,01930.5086,W,1,11,0.9,45.6,M,60.3,M,,0000*7B
$GPGSA,A,3,18,08,07,15,01,06,11,19,03,22,28,,2.0,0.9,1.8*34
$GPRMC,171008.000,A,6331.1968,N,01930.5086,W,9.83,103.11,310812,,,A*7B
$GPGGA,171009.000,6331.1962,N,01930.5017,W,1,11,0.9,45.6,M,60.3,M,,0000*78
$GPGSA,A,3,18,08,07,15,01,06,11,19,03,22,28,,2.0,0.9,1.8*34
$GPRMC,171009.000,A,6331.1962,N,01930.5017,W,11.59,102.68,310812,,,A*49
$GPGGA,171010.000,6331.1954,N,01930.4938,W,1,11,0.9,45.6,M,60.3,M,,0000*70
$GPGSA,A,3,18,08,07,15,01,06,11,19,03,22,28,,2.0,0.9,1.8*34
$GPRMC,171010.000,A,6331.1954,N,01930.4938,W,13.06,102.90,310812,,,A*4E
$GPGGA,171011.000,6331.1947,N,01930.4853,W,1,11,0.9,45.6,M,60.3,M,,0000*7F
$GPGSA,A,3,18,08,07,15,01,06,11,19,03,22,28,,2.0,0.9,1.8*34
$GPRMC,171011.000,A,6331.1947,N,01930.4853,W,14.17,102.35,310812,,,A*49
$GPGGA,171012.000,6331.1938,N,01930.4759,W,1,11,0.9,45.6,M,60.3,M,,0000*71
$GPGSA,A,3,18,08,07,15,01,06,11,19,03,22,28,,2.0,0.9,1.8*34
$GPGSV,3,1,12,19,76,164,35,03,46,129,32,22,41,096,33,11,41,229,42*7E
$GPGSV,3,2,12,06,34,118,27,08,30,284,35,18,27,048,29,01,23,225,29*71
$GPGSV,3,3,12,28,20,314,29,15,14,006,24,07,13,246,31,26,06,329,29*78
$GPRMC,171012.000,A,6331.1938,N,01930.4759,W,15.54,102.73,310812,,,A*43
$GPGGA,171013.000,6331.1928,N,01930.4656,W,1,11,0.9,45.6,M,60.3,M,,0000*7F
$GPGSA,A,3,18,08,07,15,01,06,11,19,03,22,28,,2.0,0.9,1.8*34
$GPRMC,171013.000,A,6331.1928,N,01930.4656,W,17.04,102.50,310812,,,A*4B
$GPGGA,171014.000,6331.1918,N,01930.4549,W,1,11,0.9,45.6,M,60.3,M,,0000*76
$GPGSA,A,3,18,08,07,15,01,06,11,19,03,22,28,,2.0,0.9,1.8*34
$GPRMC,171014.000,A,6331.1918,N,01930.4549,W,17.77,102.60,310812,,,A*45
$GPGGA,171015.000,6331.1908,N,01930.4443,W,1,11,0.9,45.7,M,60.3,M,,0000*7C
$GPGSA,A,3,18,08,07,15,01,06,11,19,03,22,28,,2.0,0.9,1.8*34
$GPRMC,171015.000,A,6331.1908,N,01930.4443,W,17.62,102.56,310812,,,A*4F
$GPGGA,171016.000,6331.1897,N,01930.4331,W,1,11,0.9,45.7,M,60.3,M,,0000*7A
$GPGSA,A,3,18,08,07,15,01,06,11,19,03,22,28,,2.0,0.9,1.8*34
$GPRMC,171016.000,A,6331.1897,N,01930.4331,W,18.52,102.35,310812,,,A*40
$GPGGA,171017.000,6331.1886,N,01930.4212,W,1,11,0.9,45.8,M,60.3,M,,0000*74
$GPGSA,A,3,18,08,07,15,01,06,11,19,03,22,28,,2.0,0.9,1.8*34
$GPGSV,3,1,12,19,76,163,36,03,46,129,36,22,41,096,33,11,41,229,41*7D
$GPGSV,3,2,12,06,34,118,28,08,30,284,34,18,27,048,29,01,23,225,26*70
$GPGSV,3,3,12,28,20,314,29,15,14,006,23,07,13,246,31,26,06,329,28*7E
$GPRMC,171017.000,A,6331.1886,N,01930.4212,W,19.68,102.52,310812,,,A*48
$GPGGA,171018.000,6331.1874,N,01930.4086,W,1,11,0.9,45.9,M,60.3,M,,0000*78
$GPGSA,A,3,18,08,07,15,01,06,11,19,03,22,28,,2.0,0.9,1.8*34
