$GPRMC,071505.628,A,5229.6257,N,01319.4282,E,1.01,291.67,140912,,,A*6C
$GPGGA,071506.628,,,,,0,00,,,M,0.0,M,,0000*5F
$GPGSA,A,1,,,,,,,,,,,,,,,*1E
$GPRMC,071509.628,A,5229.6257,N,01319.4277,E,0.98,287.77,140912,,,A*6D
$GPGGA,071510.628,,,,,0,00,,,M,0.0,M,,0000*58
$GPGSA,A,1,,,,,,,,,,,,,,,*1E
$GPGSV,3,1,10,14,28,312,35,25,20,251,36,22,08,284,33,09,74,127,*7D
$GPGSV,3,2,10,27,63,127,24,12,59,251,29,17,29,049,22,15,19,184,22*78
$GPGSV,3,3,10,04,13,099,24,02,01,134,*7D
$GPRMC,071515.628,A,5229.6257,N,01319.4278,E,0.99,289.10,140912,,,A*61
$GPGGA,071516.628,,,,,0,00,,,M,0.0,M,,0000*5E
$GPGSA,A,1,,,,,,,,,,,,,,,*1E
$GPRMC,071521.628,A,5229.6258,N,01319.4256,E,1.01,291.67,140912,,,A*6C
$GPGGA,071522.628,,,,,0,00,,,M,0.0,M,,0000*59
$GPGSA,A,1,,,,,,,,,,,,,,,*1E
$GPRMC,071714.628,A,5229.6343,N,01319.3994,E,1.10,140.90,140912,,,A*66
$GPGGA,071715.628,5229.6344,N,01319.3996,E,1,03,4.1,77.4,M,44.8,M,,0000*69
$GPGSA,A,2,14,25,12,,,,,,,,,,4.2,4.1,1.0*30
$GPGSV,3,1,10,12,59,251,18,14,28,312,32,25,20,251,37,22,08,283,35*74
$GPGSV,3,2,10,09,74,128,17,27,63,127,,17,29,049,27,15,19,184,18*77
$GPGSV,3,3,10,04,13,099,19,02,01,134,*73
$GPRMC,071717.628,A,5229.6352,N,01319.3959,E,1.49,291.75,140912,,,A*6C
$GPGGA,071718.628,5229.6356,N,01319.3936,E,1,03,4.0,77.2,M,44.8,M,,0000*6A
$GPGSA,A,2,14,25,12,,,,,,,,,,4.2,4.0,1.0*31
$GPRMC,071718.628,A,5229.6356,N,01319.3936,E,2.28,289.13,140912,,,A*63
$GPGGA,071719.628,5229.6361,N,01319.3910,E,1,03,4.0,77.1,M,44.8,M,,0000*68
$GPGSA,A,2,14,25,12,,,,,,,,,,4.2,4.0,1.0*31
$GPRMC,071719.628,A,5229.6361,N,01319.3910,E,3.05,287.72,140912,,,A*65
$GPGGA,071720.628,5229.6372,N,01319.3852,E,1,03,4.0,76.8,M,44.8,M,,0000*6F
$GPGSA,A,2,14,25,12,,,,,,,,,,4.2,4.0,1.0*31
$GPGSV,3,1,10,12,59,251,16,14,28,312,33,25,20,251,37,22,08,283,35*7B
$GPGSV,3,2,10,09,74,128,22,27,63,127,,17,29,049,29,15,19,184,19*7E
$GPGSV,3,3,10,04,13,099,21,02,01,134,*78
$GPRMC,071720.628,A,5229.6372,N,01319.3852,E,4.73,287.00,140912,,,A*69
$GPGGA,071721.628,5229.6384,N,01319.3780,E,1,03,4.0,76.3,M,44.8,M,,0000*6C
$GPGSA,A,2,14,25,12,,,,,,,,,,4.2,4.0,1.0*31
$GPRMC,071721.628,A,5229.6384,N,01319.3780,E,6.66,286.84,140912,,,A*6A
$GPGGA,071722.628,5229.6397,N,01319.3709,E,1,03,4.0,76.0,M,44.8,M,,0000*6F
$GPGSA,A,2,14,25,12,,,,,,,,,,4.2,4.0,1.0*31
$GPRMC,071722.628,A,5229.6397,N,01319.3709,E,8.30,286.60,140912,,,A*6D
$GPGGA,071723.628,5229.6406,N,01319.3651,E,1,03,4.0,75.8,M,44.8,M,,0000*66
$GPGSA,A,2,14,25,12,,,,,,,,,,4.2,4.0,1.0*31
$GPRMC,071723.628,A,5229.6406,N,01319.3651,E,9.10,286.37,140912,,,A*6E
$GPGGA,071724.628,5229.6413,N,01319.3610,E,1,03,4.0,75.9,M,44.8,M,,0000*61
$GPGSA,A,2,14,25,12,,,,,,,,,,4.2,4.0,1.0*31
$GPRMC,071724.628,A,5229.6413,N,01319.3610,E,9.00,286.00,140912,,,A*6D
$GPGGA,071725.628,5229.6417,N,01319.3586,E,1,03,4.0,76.1,M,44.8,M,,0000*63
$GPGSA,A,2,14,25,12,,,,,,,,,,4.2,4.0,1.0*31
$GPGSV,3,1,10,12,59,251,14,14,28,312,34,25,20,251,37,22,08,283,35*7E
$GPGSV,3,2,10,09,74,128,22,27,63,127,,17,29,049,30,15,19,184,20*7C
$GPGSV,3,3,10,04,13,099,22,02,01,134,*7B
$GPRMC,071725.628,A,5229.6417,N,01319.3586,E,8.50,285.82,140912,,,A*69
$GPGGA,071726.628,5229.6423,N,01319.3549,E,0,00,,75.9,M,44.8,M,,0000*47
$GPGSA,A,1,,,,,,,,,,,,,,,*1E
$GPRMC,071732.628,A,5229.6426,N,01319.3610,E,2.69,289.87,140912,,,A*68
$GPGGA,071733.628,5229.6349,N,01319.4335,E,1,03,2.1,12.6,M,44.8,M,,0000*63
$GPGSA,A,2,14,17,25,,,,,,,,,,2.3,2.1,1.0*34
$GPRMC,071924.000,A,5229.6281,N,01319.4661,E,1.34,332.34,140912,,,A*65
$GPGGA,071925.000,5229.6284,N,01319.4658,E,1,04,1.9,22.1,M,44.8,M,,0000*60
$GPGSA,A,3,14,17,25,12,,,,,,,,,3.4,1.9,2.7*3F
$GPGSV,3,1,10,09,72,129,20,27,61,128,23,12,61,252,31,14,29,311,23*79
$GPGSV,3,2,10,17,28,048,28,25,21,252,36,15,17,184,,04,14,098,22*78
$GPGSV,3,3,10,22,07,282,36,02,03,133,*72
$GPRMC,071925.000,A,5229.6284,N,01319.4658,E,1.43,332.36,140912,,,A*69
$GPGGA,071926.000,5229.6286,N,01319.4656,E,1,04,1.9,22.7,M,44.8,M,,0000*69
$GPGSA,A,3,14,17,25,12,,,,,,,,,3.4,1.9,2.7*3F
$GPRMC,071933.000,A,5229.6227,N,01319.4707,E,5.88,149.79,140912,,,A*6A
$GPGGA,071934.000,5229.6219,N,01319.4715,E,1,04,2.0,24.8,M,44.8,M,,0000*69
$GPGSA,A,3,14,17,25,12,,,,,,,,,3.4,2.0,2.7*35
$GPRMC,071934.000,A,5229.6219,N,01319.4715,E,3.88,149.63,140912,,,A*6E
$GPGGA,071935.000,5229.6220,N,01319.4713,E,1,04,2.0,25.0,M,44.8,M,,0000*6D
$GPGSA,A,3,14,17,25,12,,,,,,,,,3.4,2.0,2.7*35
$GPGSV,3,1,10,09,72,129,23,27,61,128,23,12,61,252,31,14,29,311,26*7F
$GPGSV,3,2,10,17,28,048,30,25,21,252,35,15,17,184,,04,14,098,23*73
$GPGSV,3,3,10,22,07,282,35,02,03,133,*71
$GPRMC,071936.000,A,5229.6227,N,01319.4705,E,1.13,332.72,140912,,,A*6E
$GPGGA,071937.000,5229.6234,N,01319.4698,E,1,04,2.0,25.5,M,44.8,M,,0000*6D
$GPGSA,A,3,14,17,25,12,,,,,,,,,3.4,2.0,2.7*35
$GPRMC,071937.000,A,5229.6234,N,01319.4698,E,1.04,333.31,140912,,,A*68
$GPGGA,071938.000,5229.6240,N,01319.4691,E,1,04,2.0,25.8,M,44.8,M,,0000*65
$GPGSA,A,3,14,17,25,12,,,,,,,,,3.4,2.0,2.7*35
$GPRMC,072037.000,A,5229.6239,N,01319.4663,E,1.25,332.77,140912,,,A*6B
$GPGGA,072038.000,5229.6244,N,01319.4658,E,1,04,2.0,55.4,M,44.8,M,,0000*65
$GPGSA,A,3,14,17,25,12,,,,,,,,,3.4,2.0,2.7*35
$GPRMC,072038.000,A,5229.6244,N,01319.4658,E,1.22,332.81,140912,,,A*68
$GPGGA,072039.000,5229.6249,N,01319.4652,E,1,04,2.0,54.8,M,44.8,M,,0000*6E
$GPGSA,A,3,14,17,25,12,,,,,,,,,3.4,2.0,2.7*35
$GPRMC,072039.000,A,5229.6249,N,01319.4652,E,1.13,333.94,140912,,,A*69
$GPGGA,072040.000,5229.6255,N,01319.4646,E,1,04,2.0,54.2,M,44.8,M,,0000*62
$GPGSA,A,3,14,17,25,12,,,,,,,,,3.4,2.0,2.7*35
$GPGSV,3,1,10,09,71,129,25,12,61,253,30,27,61,128,26,14,29,311,25*7C
$GPGSV,3,2,10,17,27,048,29,25,22,252,32,15,17,184,19,04,14,097,22*76
$GPGSV,3,3,10,22,07,282,35,02,03,133,19*79
$GPRMC,072040.000,A,5229.6255,N,01319.4646,E,0.92,335.03,140912,,,A*6F
$GPGGA,072041.000,5229.6259,N,01319.4641,E,1,04,2.0,53.7,M,44.8,M,,0000*6A
$GPGSA,A,3,14,17,25,12,,,,,,,,,3.4,2.0,2.7*35
$GPRMC,072114.000,A,5229.6273,N,01319.4675,E,0.82,89.62,140912,,,A*59
$GPGGA,072115.000,5229.6272,N,01319.4678,E,1,04,2.0,34.6,M,44.8,M,,0000*69
$GPGSA,A,3,14,17,25,12,,,,,,,,,3.4,2.0,2.7*35
$GPGSV,3,1,10,09,71,129,27,12,62,253,30,27,60,128,26,14,30,311,32*72
$GPGSV,3,2,10,17,27,048,23,25,22,252,31,15,17,184,13,04,15,097,24*72
$GPGSV,3,3,10,22,07,281,33,02,03,133,19*7C
$GPRMC,072118.000,A,5229.6267,N,01319.4690,E,0.86,105.99,140912,,,A*6E
$GPGGA,072119.000,5229.6264,N,01319.4695,E,1,04,2.0,31.8,M,44.8,M,,0000*6A
$GPGSA,A,3,14,17,25,12,,,,,,,,,3.4,2.0,2.7*35
$GPRMC,072155.000,A,5229.6232,N,01319.4672,E,0.95,335.66,140912,,,A*68
$GPGGA,072156.000,5229.6237,N,01319.4668,E,0,03,,33.3,M,44.8,M,,0000*46
$GPGSA,A,1,17,25,12,,,,,,,,,,,,*1C
$GPRMC,072157.000,A,5229.6247,N,01319.4659,E,3.56,331.61,140912,,,A*6E
$GPGGA,072158.000,5229.6256,N,01319.4650,E,1,04,2.0,34.6,M,44.8,M,,0000*6C
$GPGSA,A,3,14,17,25,12,,,,,,,,,3.4,2.0,2.7*35
$GPRMC,072158.000,A,5229.6256,N,01319.4650,E,3.70,331.47,140912,,,A*68
$GPGGA,072159.000,5229.6265,N,01319.4642,E,0,03,,35.2,M,44.8,M,,0000*41
$GPGSA,A,1,17,25,12,,,,,,,,,,,,*1C
$GPRMC,072200.000,A,5229.6270,N,01319.4637,E,2.38,332.31,140912,,,A*6C
$GPGGA,072201.000,5229.6271,N,01319.4636,E,1,04,2.0,36.2,M,44.8,M,,0000*60
$GPGSA,A,3,14,17,25,12,,,,,,,,,3.4,2.0,2.7*35
$GPRMC,072201.000,A,5229.6271,N,01319.4636,E,0.89,338.96,140912,,,A*62
$GPGGA,072202.000,5229.6270,N,01319.4638,E,1,04,2.0,36.7,M,44.8,M,,0000*69
$GPGSA,A,3,14,17,25,12,,,,,,,,,3.4,2.0,2.7*35
$GPRMC,072203.000,A,5229.6272,N,01319.4636,E,1.11,336.24,140912,,,A*64
$GPGGA,072204.000,5229.6274,N,01319.4634,E,1,04,2.0,37.7,M,44.8,M,,0000*66
$GPGSA,A,3,14,17,25,12,,,,,,,,,3.4,2.0,2.7*35
$GPRMC,072204.000,A,5229.6274,N,01319.4634,E,1.00,336.52,140912,,,A*66
$GPGGA,072205.000,5229.6274,N,01319.4634,E,1,04,2.0,38.2,M,44.8,M,,0000*6D
$GPGSA,A,3,14,17,25,12,,,,,,,,,3.4,2.0,2.7*35
$GPGSV,3,1,10,09,71,129,26,12,62,253,31,27,60,128,22,14,30,310,19*7E
$GPGSV,3,2,10,17,27,048,27,25,22,252,26,15,16,184,13,04,15,097,18*7E
$GPGSV,3,3,10,22,06,281,32,02,03,133,18*7D
$GPRMC,072208.000,A,5229.6264,N,01319.4641,E,1.14,155.47,140912,,,A*6F
$GPGGA,072209.000,5229.6259,N,01319.4646,E,1,04,2.0,38.5,M,44.8,M,,0000*6C
$GPGSA,A,3,14,17,25,12,,,,,,,,,3.4,2.0,2.7*35
$GPRMC,072209.000,A,5229.6259,N,01319.4646,E,1.47,142.57,140912,,,A*66
$GPGGA,072210.000,5229.6256,N,01319.4648,E,1,04,2.0,38.4,M,44.8,M,,0000*64
$GPGSA,A,3,14,17,25,12,,,,,,,,,3.4,2.0,2.7*35
$GPGSV,3,1,10,09,71,129,26,12,62,253,31,27,60,129,22,14,30,310,19*7F
$GPGSV,3,2,10,17,27,048,26,25,22,252,25,15,16,184,14,04,15,097,18*7B
$GPGSV,3,3,10,22,06,281,32,02,04,133,19*7B
$GPRMC,072212.000,A,5229.6262,N,01319.4637,E,3.07,326.81,140912,,,A*6F
$GPGGA,072213.000,5229.6267,N,01319.4630,E,1,04,2.0,37.0,M,44.8,M,,0000*61
$GPGSA,A,3,14,17,25,12,,,,,,,,,3.4,2.0,2.7*35
$GPRMC,072213.000,A,5229.6267,N,01319.4630,E,2.68,329.14,140912,,,A*67
$GPGGA,072214.000,5229.6268,N,01319.4626,E,1,04,2.0,36.3,M,44.8,M,,0000*6C
$GPGSA,A,3,14,17,25,12,,,,,,,,,3.4,2.0,2.7*35
$GPRMC,072214.000,A,5229.6268,N,01319.4626,E,1.22,326.40,140912,,,A*6B
$GPGGA,072215.000,5229.6267,N,01319.4625,E,1,04,2.0,35.6,M,44.8,M,,0000*67
$GPGSA,A,3,14,17,25,12,,,,,,,,,3.4,2.0,2.7*35
$GPGSV,3,1,10,09,71,129,26,12,62,253,31,27,60,129,22,14,30,310,19*7F
$GPGSV,3,2,10,17,27,048,26,25,22,253,25,15,16,184,16,04,15,097,19*79
$GPGSV,3,3,10,22,06,281,32,02,04,133,19*7B
$GPRMC,072216.000,A,5229.6266,N,01319.4622,E,0.87,327.27,140912,,,A*6D
$GPGGA,072217.000,5229.6265,N,01319.4620,E,1,04,2.0,33.7,M,44.8,M,,0000*65
$GPGSA,A,3,14,17,25,12,,,,,,,,,3.4,2.0,2.7*35
$GPRMC,072217.000,A,5229.6265,N,01319.4620,E,1.04,327.53,140912,,,A*64
$GPGGA,072218.000,5229.6261,N,01319.4621,E,1,04,2.0,32.9,M,44.8,M,,0000*60
$GPGSA,A,3,14,17,25,12,,,,,,,,,3.4,2.0,2.7*35
$GPRMC,072224.000,A,5229.6237,N,01319.4637,E,0.91,142.59,140912,,,A*63
$GPGGA,072225.000,5229.6233,N,01319.4640,E,1,04,2.0,29.2,M,44.8,M,,0000*6F
$GPGSA,A,3,14,17,25,12,,,,,,,,,3.4,2.0,2.7*35
$GPGSV,3,1,10,09,71,129,27,12,62,253,32,27,60,129,22,14,30,310,23*74
$GPGSV,3,2,10,17,27,048,27,25,22,253,30,15,16,184,17,04,15,097,19*7D
$GPGSV,3,3,10,22,06,281,32,02,04,133,19*7B
$GPRMC,072227.000,A,5229.6224,N,01319.4648,E,1.08,145.28,140912,,,A*6A
$GPGGA,072228.000,5229.6221,N,01319.4650,E,1,04,2.0,28.7,M,44.8,M,,0000*64
$GPGSA,A,3,14,17,25,12,,,,,,,,,3.4,2.0,2.7*35
$GPRMC,072233.000,A,5229.6216,N,01319.4656,E,1.24,145.94,140912,,,A*68
$GPGGA,072234.000,5229.6213,N,01319.4658,E,1,04,2.0,30.0,M,44.8,M,,0000*6E
$GPGSA,A,3,14,17,25,12,,,,,,,,,3.4,2.0,2.7*35
$GPRMC,072234.000,A,5229.6213,N,01319.4658,E,1.00,144.83,140912,,,A*65
$GPGGA,072235.000,5229.6214,N,01319.4658,E,1,04,2.0,30.4,M,44.8,M,,0000*6C
$GPGSA,A,3,14,17,25,12,,,,,,,,,3.4,2.0,2.7*35
$GPGSV,3,1,10,09,71,129,29,12,62,253,31,27,60,129,23,14,30,310,24*7F
$GPGSV,3,2,10,17,27,048,29,25,22,253,31,15,16,184,18,04,15,097,19*7D
$GPGSV,3,3,10,22,06,281,31,02,04,133,14*75
$GPRMC,072237.000,A,5229.6214,N,01319.4658,E,1.17,143.99,140912,,,A*6B
$GPGGA,072238.000,5229.6211,N,01319.4661,E,1,04,2.0,31.8,M,44.8,M,,0000*63
$GPGSA,A,3,14,17,25,12,,,,,,,,,3.4,2.0,2.7*35
$GPRMC,072238.000,A,5229.6211,N,01319.4661,E,1.10,144.73,140912,,,A*6F
$GPGGA,072239.000,5229.6208,N,01319.4665,E,1,04,2.0,32.3,M,44.8,M,,0000*66
$GPGSA,A,3,14,17,25,12,,,,,,,,,3.4,2.0,2.7*35
$GPRMC,072239.000,A,5229.6208,N,01319.4665,E,1.60,146.21,140912,,,A*60
$GPGGA,072240.000,5229.6208,N,01319.4665,E,1,04,2.0,32.8,M,44.8,M,,0000*63
$GPGSA,A,3,14,17,25,12,,,,,,,,,3.4,2.0,2.7*35
$GPGSV,3,1,10,09,71,129,29,12,62,253,31,27,60,129,25,14,30,310,24*79
$GPGSV,3,2,10,17,27,048,29,25,22,253,32,15,16,184,18,04,15,097,19*7E
$GPGSV,3,3,10,22,06,281,31,02,04,133,14*75
$GPRMC,072338.000,A,5229.6186,N,01319.4660,E,0.82,345.47,140912,,,A*6C
$GPGGA,072339.000,5229.6189,N,01319.4657,E,1,04,2.6,32.8,M,44.8,M,,0000*61
$GPGSA,A,3,17,25,12,27,,,,,,,,,3.9,2.6,2.9*30
$GPRMC,072339.000,A,5229.6189,N,01319.4657,E,0.94,336.12,140912,,,A*65
$GPGGA,072340.000,5229.6191,N,01319.4653,E,1,04,2.6,33.3,M,44.8,M,,0000*68
$GPGSA,A,3,17,25,12,27,,,,,,,,,3.9,2.6,2.9*30
$GPGSV,3,1,10,09,70,130,25,12,63,254,30,27,60,129,28,14,30,310,15*74
$GPGSV,3,2,10,17,27,047,22,25,23,253,30,15,16,184,,04,15,096,26*7D
$GPGSV,3,3,10,22,06,281,31,02,04,133,*70
$GPRMC,072340.000,A,5229.6191,N,01319.4653,E,0.95,338.54,140912,,,A*6B
$GPGGA,072341.000,5229.6195,N,01319.4648,E,1,05,1.6,34.0,M,44.8,M,,0000*61
$GPGSA,A,3,14,17,25,12,27,,,,,,,,3.1,1.6,2.7*30
$GPRMC,072341.000,A,5229.6195,N,01319.4648,E,1.55,336.66,140912,,,A*66
$GPGGA,072342.000,5229.6198,N,01319.4646,E,1,04,2.6,34.6,M,44.8,M,,0000*65
$GPGSA,A,3,17,25,12,27,,,,,,,,,3.9,2.6,2.9*30
$GPRMC,072342.000,A,5229.6198,N,01319.4646,E,1.12,358.74,140912,,,A*6E
$GPGGA,072343.000,5229.6198,N,01319.4643,E,1,04,2.6,35.3,M,44.8,M,,0000*65
$GPGSA,A,3,17,25,12,27,,,,,,,,,3.9,2.6,2.9*30
$GPRMC,072349.000,A,5229.6208,N,01319.4630,E,1.55,2.72,140912,,,A*67
$GPGGA,072350.000,5229.6213,N,01319.4630,E,1,05,1.6,38.6,M,44.8,M,,0000*69
$GPGSA,A,3,14,17,25,12,27,,,,,,,,3.1,1.6,2.7*30
$GPGSV,3,1,10,09,70,130,24,12,63,254,31,27,59,129,29,14,30,310,21*78
$GPGSV,3,2,10,17,26,047,14,25,23,253,26,15,16,184,,04,15,096,21*79
$GPGSV,3,3,10,22,06,280,30,02,04,132,*71
$GPRMC,072350.000,A,5229.6213,N,01319.4630,E,1.56,15.93,140912,,,A*5F
$GPGGA,072351.000,5229.6218,N,01319.4630,E,1,05,1.6,38.7,M,44.8,M,,0000*62
$GPGSA,A,3,14,17,25,12,27,,,,,,,,3.1,1.6,2.7*30
$GPRMC,072351.000,A,5229.6218,N,01319.4630,E,1.39,18.56,140912,,,A*58
$GPGGA,072352.000,5229.6222,N,01319.4630,E,1,05,1.6,38.7,M,44.8,M,,0000*68
$GPGSA,A,3,14,17,25,12,27,,,,,,,,3.1,1.6,2.7*30
$GPRMC,072352.000,A,5229.6222,N,01319.4630,E,0.95,20.71,140912,,,A*5B
$GPGGA,072353.000,5229.6224,N,01319.4630,E,1,05,1.6,38.6,M,44.8,M,,0000*6E
$GPGSA,A,3,14,17,25,12,27,,,,,,,,3.1,1.6,2.7*30
$GPRMC,072506.000,A,5229.6211,N,01319.4643,E,1.30,4.18,140912,,,A*6F
$GPGGA,072507.000,5229.6215,N,01319.4643,E,1,06,1.6,50.1,M,44.8,M,,0000*65
$GPGSA,A,3,14,17,25,12,27,09,,,,,,,3.0,1.6,2.5*3A
$GPRMC,072507.000,A,5229.6215,N,01319.4643,E,1.83,6.66,140912,,,A*69
$GPGGA,072508.000,5229.6220,N,01319.4643,E,1,06,1.6,50.3,M,44.8,M,,0000*6E
$GPGSA,A,3,14,17,25,12,27,09,,,,,,,3.0,1.6,2.5*3A
$GPRMC,072508.000,A,5229.6220,N,01319.4643,E,2.05,7.94,140912,,,A*61
$GPGGA,072509.000,5229.6223,N,01319.4643,E,1,06,1.6,50.4,M,44.8,M,,0000*6B
$GPGSA,A,3,14,17,25,12,27,09,,,,,,,3.0,1.6,2.5*3A
$GPRMC,072509.000,A,5229.6223,N,01319.4643,E,1.16,14.02,140912,,,A*5F
$GPGGA,072510.000,5229.6224,N,01319.4642,E,1,06,1.6,50.5,M,44.8,M,,0000*64
$GPGSA,A,3,14,17,25,12,27,09,,,,,,,3.0,1.6,2.5*3A
$GPGSV,3,1,10,09,69,130,25,12,63,254,28,27,59,129,32,14,31,309,21*7A
$GPGSV,3,2,10,17,26,047,18,25,23,253,34,04,16,096,21,15,15,183,13*73
$GPGSV,3,3,10,22,06,280,28,02,04,132,*78
$GPRMC,072512.000,A,5229.6219,N,01319.4640,E,0.83,171.09,140912,,,A*6B
$GPGGA,072513.000,5229.6218,N,01319.4638,E,1,06,1.6,50.7,M,44.8,M,,0000*67
$GPGSA,A,3,14,17,25,12,27,09,,,,,,,3.0,1.6,2.5*3A
$GPRMC,072517.000,A,5229.6218,N,01319.4635,E,0.92,171.11,140912,,,A*64
$GPGGA,072518.000,5229.6214,N,01319.4633,E,1,06,1.6,51.0,M,44.8,M,,0000*6D
$GPGSA,A,3,14,17,25,12,27,09,,,,,,,3.0,1.6,2.5*3A
$GPRMC,072518.000,A,5229.6214,N,01319.4633,E,1.23,185.61,140912,,,A*66
$GPGGA,072519.000,5229.6212,N,01319.4629,E,1,06,1.6,51.1,M,44.8,M,,0000*60
$GPGSA,A,3,14,17,25,12,27,09,,,,,,,3.0,1.6,2.5*3A
$GPRMC,072519.000,A,5229.6212,N,01319.4629,E,0.99,201.57,140912,,,A*60
$GPGGA,072520.000,5229.6209,N,01319.4626,E,1,06,1.6,51.3,M,44.8,M,,0000*6D
$GPGSA,A,3,14,17,25,12,27,09,,,,,,,3.0,1.6,2.5*3A
$GPGSV,3,1,10,09,69,130,26,12,63,254,27,27,59,129,32,14,31,309,21*76
$GPGSV,3,2,10,17,26,047,17,25,23,253,34,04,16,096,23,15,15,183,*7C
$GPGSV,3,3,10,22,06,280,28,02,04,132,*78
$GPRMC,072520.000,A,5229.6209,N,01319.4626,E,0.98,198.88,140912,,,A*6F
$GPGGA,072521.000,5229.6207,N,01319.4623,E,1,06,1.6,51.6,M,44.8,M,,0000*62
$GPGSA,A,3,14,17,25,12,27,09,,,,,,,3.0,1.6,2.5*3A
$GPRMC,072526.000,A,5229.6216,N,01319.4616,E,0.82,344.22,140912,,,A*6C
$GPGGA,072527.000,5229.6220,N,01319.4613,E,1,06,1.6,53.4,M,44.8,M,,0000*62
$GPGSA,A,3,14,17,25,12,27,09,,,,,,,3.0,1.6,2.5*3A
$GPRMC,072527.000,A,5229.6220,N,01319.4613,E,1.13,349.75,140912,,,A*6B
$GPGGA,072528.000,5229.6224,N,01319.4611,E,1,06,1.6,53.8,M,44.8,M,,0000*67
$GPGSA,A,3,14,17,25,12,27,09,,,,,,,3.0,1.6,2.5*3A
$GPRMC,072528.000,A,5229.6224,N,01319.4611,E,0.97,353.15,140912,,,A*62
$GPGGA,072529.000,5229.6227,N,01319.4609,E,1,06,1.6,54.0,M,44.8,M,,0000*63
$GPGSA,A,3,14,17,25,12,27,09,,,,,,,3.0,1.6,2.5*3A
$GPRMC,072637.000,A,5229.6198,N,01319.4548,E,0.81,27.83,140912,,,A*5C
$GPGGA,072638.000,5229.6199,N,01319.4546,E,1,06,1.6,56.6,M,44.8,M,,0000*6A
$GPGSA,A,3,14,17,25,12,27,09,,,,,,,3.0,1.6,2.5*3A
$GPRMC,072648.000,A,5229.6209,N,01319.4513,E,0.81,252.24,140912,,,A*6C
$GPGGA,072649.000,5229.6210,N,01319.4507,E,1,06,1.6,67.8,M,44.8,M,,0000*67
$GPGSA,A,3,14,17,25,12,27,09,,,,,,,3.0,1.6,2.5*3A
$GPRMC,072649.000,A,5229.6210,N,01319.4507,E,1.01,245.68,140912,,,A*67
$GPGGA,072650.000,5229.6211,N,01319.4502,E,1,04,2.3,70.0,M,44.8,M,,0000*61
$GPGSA,A,3,14,25,12,27,,,,,,,,,4.3,2.3,3.6*35
$GPGSV,3,1,10,09,69,130,18,12,63,254,20,27,59,129,31,14,31,309,27*79
$GPGSV,3,2,10,17,26,047,17,25,23,253,34,04,16,096,16,15,15,183,*7A
$GPGSV,3,3,10,22,06,280,31,02,04,132,22*70
$GPRMC,072650.000,A,5229.6211,N,01319.4502,E,0.81,251.19,140912,,,A*61
$GPGGA,072651.000,5229.6214,N,01319.4498,E,1,05,1.6,72.0,M,44.8,M,,0000*62
$GPGSA,A,3,14,17,25,12,27,,,,,,,,3.1,1.6,2.7*30
$GPRMC,072656.000,A,5229.6236,N,01319.4495,E,0.95,358.28,140912,,,A*62
$GPGGA,072657.000,5229.6240,N,01319.4495,E,1,06,1.6,80.4,M,44.8,M,,0000*62
$GPGSA,A,3,14,17,25,12,27,09,,,,,,,3.0,1.6,2.5*3A
$GPRMC,072714.000,A,5229.6262,N,01319.4568,E,0.83,154.80,140912,,,A*6C
$GPGGA,072715.000,5229.6259,N,01319.4574,E,1,06,1.6,60.5,M,44.8,M,,0000*6C
$GPGSA,A,3,14,17,25,12,27,09,,,,,,,3.0,1.6,2.5*3A
$GPGSV,3,1,10,09,68,131,16,12,64,255,28,27,58,130,31,14,31,308,29*7F
$GPGSV,3,2,10,17,25,047,24,25,24,254,27,04,16,095,18,15,14,183,*77
$GPGSV,3,3,10,02,05,132,21,22,05,279,31*77
$GPRMC,072715.000,A,5229.6259,N,01319.4574,E,0.94,159.57,140912,,,A*69
$GPGGA,072716.000,5229.6256,N,01319.4580,E,1,06,1.6,58.0,M,44.8,M,,0000*65
$GPGSA,A,3,14,17,25,12,27,09,,,,,,,3.0,1.6,2.5*3A
$GPRMC,072716.000,A,5229.6256,N,01319.4580,E,0.98,161.41,140912,,,A*6E
$GPGGA,072717.000,5229.6253,N,01319.4585,E,1,06,1.6,55.3,M,44.8,M,,0000*6A
$GPGSA,A,3,14,17,25,12,27,09,,,,,,,3.0,1.6,2.5*3A
$GPRMC,072717.000,A,5229.6253,N,01319.4585,E,1.00,164.57,140912,,,A*6D
$GPGGA,072718.000,5229.6249,N,01319.4590,E,1,06,1.6,52.5,M,44.8,M,,0000*6B
$GPGSA,A,3,14,17,25,12,27,09,,,,,,,3.0,1.6,2.5*3A
$GPRMC,072718.000,A,5229.6249,N,01319.4590,E,1.13,168.44,140912,,,A*61
$GPGGA,072719.000,5229.6245,N,01319.4594,E,1,06,1.6,49.6,M,44.8,M,,0000*6B
$GPGSA,A,3,14,17,25,12,27,09,,,,,,,3.0,1.6,2.5*3A
$GPRMC,072719.000,A,5229.6245,N,01319.4594,E,1.19,168.66,140912,,,A*62
$GPGGA,072720.000,5229.6241,N,01319.4599,E,1,06,1.6,46.7,M,44.8,M,,0000*66
$GPGSA,A,3,14,17,25,12,27,09,,,,,,,3.0,1.6,2.5*3A
$GPGSV,3,1,10,09,68,131,17,12,64,255,29,27,58,130,31,14,31,308,30*77
$GPGSV,3,2,10,17,25,047,26,25,24,254,26,04,16,095,18,15,14,183,*74
$GPGSV,3,3,10,02,05,132,21,22,05,279,31*77
$GPRMC,072720.000,A,5229.6241,N,01319.4599,E,1.25,170.79,140912,,,A*69
$GPGGA,072721.000,5229.6237,N,01319.4603,E,1,06,1.6,43.7,M,44.8,M,,0000*63
$GPGSA,A,3,14,17,25,12,27,09,,,,,,,3.0,1.6,2.5*3A
$GPRMC,072721.000,A,5229.6237,N,01319.4603,E,1.29,172.02,140912,,,A*6B
$GPGGA,072722.000,5229.6232,N,01319.4607,E,1,06,1.6,40.7,M,44.8,M,,0000*62
$GPGSA,A,3,14,17,25,12,27,09,,,,,,,3.0,1.6,2.5*3A
$GPRMC,072722.000,A,5229.6232,N,01319.4607,E,1.31,171.97,140912,,,A*6F
$GPGGA,072723.000,5229.6228,N,01319.4611,E,1,06,1.6,37.8,M,44.8,M,,0000*60
$GPGSA,A,3,14,17,25,12,27,09,,,,,,,3.0,1.6,2.5*3A
$GPRMC,072723.000,A,5229.6228,N,01319.4611,E,1.22,177.00,140912,,,A*68
$GPGGA,072724.000,5229.6223,N,01319.4615,E,1,06,1.6,34.8,M,44.8,M,,0000*6B
$GPGSA,A,3,14,17,25,12,27,09,,,,,,,3.0,1.6,2.5*3A
$GPRMC,072724.000,A,5229.6223,N,01319.4615,E,1.23,175.28,140912,,,A*69
$GPGGA,072725.000,5229.6218,N,01319.4619,E,1,06,1.6,31.9,M,44.8,M,,0000*6A
$GPGSA,A,3,14,17,25,12,27,09,,,,,,,3.0,1.6,2.5*3A
$GPGSV,3,1,10,09,68,131,16,12,64,255,30,27,58,130,32,14,31,308,24*78
$GPGSV,3,2,10,17,25,047,27,25,24,254,27,04,16,095,18,15,14,183,*74
$GPGSV,3,3,10,02,05,132,21,22,05,279,31*77
$GPRMC,072725.000,A,5229.6218,N,01319.4619,E,1.24,175.67,140912,,,A*60
$GPGGA,072726.000,5229.6213,N,01319.4624,E,1,05,1.6,29.1,M,44.8,M,,0000*6E
$GPGSA,A,3,14,17,25,12,27,,,,,,,,3.1,1.6,2.7*30
$GPRMC,072726.000,A,5229.6213,N,01319.4624,E,1.17,156.50,140912,,,A*63
$GPGGA,072727.000,5229.6209,N,01319.4630,E,1,06,1.6,26.5,M,44.8,M,,0000*69
$GPGSA,A,3,14,17,25,12,27,09,,,,,,,3.0,1.6,2.5*3A
$GPRMC,072727.000,A,5229.6209,N,01319.4630,E,1.06,152.35,140912,,,A*6B
$GPGGA,072728.000,5229.6205,N,01319.4636,E,1,06,1.6,24.1,M,44.8,M,,0000*6A
$GPGSA,A,3,14,17,25,12,27,09,,,,,,,3.0,1.6,2.5*3A
$GPRMC,072728.000,A,5229.6205,N,01319.4636,E,0.89,147.49,140912,,,A*67
$GPGGA,072729.000,5229.6202,N,01319.4641,E,1,06,1.6,22.0,M,44.8,M,,0000*6B
$GPGSA,A,3,14,17,25,12,27,09,,,,,,,3.0,1.6,2.5*3A
$GPRMC,072733.000,A,5229.6196,N,01319.4664,E,0.90,65.12,140912,,,A*54
$GPGGA,072734.000,5229.6195,N,01319.4669,E,1,06,1.6,14.1,M,44.8,M,,0000*64
$GPGSA,A,3,14,17,25,12,27,09,,,,,,,3.0,1.6,2.5*3A
$GPRMC,073305.000,A,5229.6164,N,01319.4730,E,0.84,181.07,140912,,,A*63
$GPGGA,073306.000,5229.6163,N,01319.4730,E,1,06,1.6,21.0,M,44.8,M,,0000*63
$GPGSA,A,3,14,17,25,12,27,09,,,,,,,3.1,1.6,2.6*38
$GPRMC,073306.000,A,5229.6163,N,01319.4730,E,1.05,183.28,140912,,,A*60
$GPGGA,073307.000,5229.6164,N,01319.4731,E,1,06,1.6,20.7,M,44.8,M,,0000*62
$GPGSA,A,3,14,17,25,12,27,09,,,,,,,3.1,1.6,2.6*38
$GPRMC,073311.000,A,5229.6181,N,01319.4732,E,0.99,350.10,140912,,,A*6B
$GPGGA,073312.000,5229.6186,N,01319.4732,E,1,05,2.2,19.1,M,44.8,M,,0000*61
$GPGSA,A,3,17,25,12,27,09,,,,,,,,3.6,2.2,2.8*33
$GPRMC,073312.000,A,5229.6186,N,01319.4732,E,0.90,352.73,140912,,,A*61
$GPGGA,073313.000,5229.6190,N,01319.4731,E,1,05,2.2,18.4,M,44.8,M,,0000*60
$GPGSA,A,3,17,25,12,27,09,,,,,,,,3.6,2.2,2.8*33
$GPRMC,073320.000,A,5229.6214,N,01319.4734,E,0.82,81.15,140912,,,A*50
$GPGGA,073321.000,5229.6214,N,01319.4734,E,1,07,1.3,16.6,M,44.8,M,,0000*67
$GPGSA,A,3,14,17,25,12,27,04,09,,,,,,2.3,1.3,1.9*36
$GPRMC,073324.000,A,5229.6211,N,01319.4727,E,1.46,218.74,140912,,,A*6F
$GPGGA,073325.000,5229.6211,N,01319.4723,E,1,07,1.3,19.7,M,44.8,M,,0000*6E
$GPGSA,A,3,14,17,25,12,27,04,09,,,,,,2.3,1.3,1.9*36
$GPGSV,3,1,11,12,67,258,18,09,65,132,24,27,55,131,19,14,33,306,27*78
$GPGSV,3,2,11,25,27,255,24,17,23,046,19,04,18,093,18,15,12,183,15*74
$GPGSV,3,3,11,02,07,130,,22,04,277,29,32,00,359,*4D
$GPRMC,073328.000,A,5229.6219,N,01319.4720,E,1.30,4.85,140912,,,A*6C
$GPGGA,073329.000,5229.6223,N,01319.4718,E,1,07,1.3,24.0,M,44.8,M,,0000*62
$GPGSA,A,3,14,17,25,12,27,04,09,,,,,,2.3,1.3,1.9*36
$GPRMC,073329.000,A,5229.6223,N,01319.4718,E,1.18,352.07,140912,,,A*6F
$GPGGA,073330.000,5229.6229,N,01319.4717,E,1,07,1.3,25.3,M,44.8,M,,0000*6D
$GPGSA,A,3,14,17,25,12,27,04,09,,,,,,2.3,1.3,1.9*36
$GPGSV,3,1,11,12,67,258,18,09,65,132,16,27,55,131,18,14,33,306,19*75
$GPGSV,3,2,11,25,27,255,23,17,23,046,19,04,18,093,18,15,12,183,*77
$GPGSV,3,3,11,02,07,130,,22,04,277,29,32,00,359,*4D
$GPRMC,073330.000,A,5229.6229,N,01319.4717,E,1.50,2.70,140912,,,A*68
$GPGGA,073331.000,5229.6232,N,01319.4718,E,1,06,1.6,26.6,M,44.8,M,,0000*6B
$GPGSA,A,3,14,17,25,12,27,09,,,,,,,3.1,1.6,2.6*38
$GPRMC,073333.000,A,5229.6238,N,01319.4712,E,0.93,340.19,140912,,,A*6A
$GPGGA,073334.000,5229.6240,N,01319.4707,E,1,06,1.6,32.2,M,44.8,M,,0000*64
$GPGSA,A,3,14,17,25,12,27,09,,,,,,,3.1,1.6,2.6*38
$GPRMC,073335.000,A,5229.6244,N,01319.4706,E,0.83,31.50,140912,,,A*5B
$GPGGA,073336.000,5229.6246,N,01319.4705,E,1,06,1.6,36.8,M,44.8,M,,0000*6C
$GPGSA,A,3,14,17,25,12,27,09,,,,,,,3.1,1.6,2.6*38
$GPRMC,073338.000,A,5229.6251,N,01319.4699,E,1.42,347.67,140912,,,A*6F
$GPGGA,073339.000,5229.6252,N,01319.4698,E,1,06,1.6,41.5,M,44.8,M,,0000*6E
$GPGSA,A,3,14,17,25,12,27,09,,,,,,,3.1,1.6,2.6*38
$GPRMC,073341.000,A,5229.6256,N,01319.4698,E,2.15,29.78,140912,,,A*53
$GPGGA,073342.000,5229.6260,N,01319.4701,E,1,07,1.3,45.6,M,44.8,M,,0000*61
$GPGSA,A,3,14,17,25,12,27,04,09,,,,,,2.3,1.3,1.9*36
$GPRMC,073342.000,A,5229.6260,N,01319.4701,E,1.82,41.36,140912,,,A*5D
$GPGGA,073343.000,5229.6264,N,01319.4703,E,1,03,2.5,46.8,M,44.8,M,,0000*6A
$GPGSA,A,2,14,17,25,,,,,,,,,,2.7,2.5,1.0*34
$GPRMC,073343.000,A,5229.6264,N,01319.4703,E,2.10,22.86,140912,,,A*5C
$GPGGA,073344.000,5229.6271,N,01319.4704,E,1,06,1.4,48.2,M,44.8,M,,0000*6D
$GPGSA,A,3,14,17,25,12,04,09,,,,,,,2.4,1.4,1.9*33
$GPRMC,073344.000,A,5229.6271,N,01319.4704,E,2.75,15.07,140912,,,A*56
$GPGGA,073345.000,5229.6279,N,01319.4705,E,1,04,2.3,49.6,M,44.8,M,,0000*66
$GPGSA,A,3,14,17,25,12,,,,,,,,,3.6,2.3,2.7*34
$GPGSV,3,1,11,12,67,258,27,09,65,132,17,27,55,131,,14,33,306,19*71
$GPGSV,3,2,11,25,27,255,16,17,23,046,23,04,18,093,14,15,12,183,*74
$GPGSV,3,3,11,02,07,130,,22,04,277,19,32,00,359,*4E
$GPRMC,073345.000,A,5229.6279,N,01319.4705,E,2.97,16.71,140912,,,A*50
$GPGGA,073346.000,5229.6283,N,01319.4703,E,1,04,1.7,51.0,M,44.8,M,,0000*6E
$GPGSA,A,3,14,17,12,09,,,,,,,,,2.0,1.7,1.0*3E
$GPRMC,073346.000,A,5229.6283,N,01319.4703,E,1.73,2.67,140912,,,A*6B
$GPGGA,073347.000,5229.6285,N,01319.4698,E,1,05,1.5,52.2,M,44.8,M,,0000*68
$GPGSA,A,3,14,17,25,12,04,,,,,,,,2.9,1.5,2.5*39
$GPRMC,073347.000,A,5229.6285,N,01319.4698,E,1.33,352.30,140912,,,A*6F
$GPGGA,073348.000,5229.6285,N,01319.4694,E,1,05,1.5,53.4,M,44.8,M,,0000*6C
$GPGSA,A,3,14,17,25,12,04,,,,,,,,2.9,1.5,2.5*39
$GPRMC,073358.000,A,5229.6264,N,01319.4659,E,0.98,11.88,140912,,,A*54
$GPGGA,073359.000,5229.6265,N,01319.4658,E,1,07,1.3,61.0,M,44.8,M,,0000*63
$GPGSA,A,3,14,17,25,12,27,04,09,,,,,,2.3,1.3,1.9*36
$GPRMC,073359.000,A,5229.6265,N,01319.4658,E,1.26,356.81,140912,,,A*68
$GPGGA,073400.000,5229.6264,N,01319.4657,E,1,06,1.4,61.8,M,44.8,M,,0000*68
$GPGSA,A,3,14,17,25,12,27,04,,,,,,,2.5,1.4,2.1*35
$GPGSV,3,1,11,12,67,258,27,09,65,132,18,27,55,131,19,14,33,306,18*77
$GPGSV,3,2,11,25,27,255,21,17,23,046,17,04,18,093,13,15,12,183,*70
$GPGSV,3,3,11,02,07,130,,22,04,277,18,32,00,359,*4F
$GPRMC,073402.000,A,5229.6267,N,01319.4656,E,1.66,11.93,140912,,,A*5A
$GPGGA,073403.000,5229.6270,N,01319.4653,E,1,07,1.3,64.8,M,44.8,M,,0000*69
$GPGSA,A,3,14,17,25,12,27,04,09,,,,,,2.3,1.3,1.9*36
$GPRMC,073403.000,A,5229.6270,N,01319.4653,E,0.97,342.29,140912,,,A*63
$GPGGA,073404.000,5229.6273,N,01319.4650,E,1,07,1.3,65.7,M,44.8,M,,0000*60
$GPGSA,A,3,14,17,25,12,27,04,09,,,,,,2.3,1.3,1.9*36
$GPRMC,073404.000,A,5229.6273,N,01319.4650,E,1.19,340.85,140912,,,A*67
$GPGGA,073405.000,5229.6275,N,01319.4646,E,1,05,1.9,66.8,M,44.8,M,,0000*64
$GPGSA,A,3,14,25,12,04,09,,,,,,,,2.7,1.9,1.9*3B
$GPGSV,3,1,11,12,67,258,26,09,65,132,19,27,55,131,18,14,33,306,18*76
$GPGSV,3,2,11,25,27,255,21,17,23,046,17,04,18,093,13,15,12,183,*70
$GPGSV,3,3,11,02,07,130,,22,04,277,10,32,00,359,*47
$GPRMC,073406.000,A,5229.6276,N,01319.4641,E,0.84,296.81,140912,,,A*6B
$GPGGA,073407.000,5229.6278,N,01319.4638,E,1,05,4.1,69.0,M,44.8,M,,0000*68
$GPGSA,A,3,25,12,27,04,09,,,,,,,,4.5,4.1,2.0*38
$GPRMC,073409.000,A,5229.6281,N,01319.4633,E,1.56,324.47,140912,,,A*65
$GPGGA,073410.000,5229.6286,N,01319.4629,E,0,00,,73.1,M,44.8,M,,0000*4A
$GPGSA,A,1,,,,,,,,,,,,,,,*1E
$GPGSV,3,1,11,12,67,258,21,09,65,132,18,27,55,131,17,14,33,306,14*73
$GPGSV,3,2,11,25,27,255,21,17,23,046,18,04,18,093,,15,12,183,*7D
$GPGSV,3,3,11,02,07,130,,22,04,277,,32,00,359,*46
$GPRMC,073412.000,A,5229.6296,N,01319.4624,E,1.93,344.69,140912,,,A*6C
$GPGGA,073413.000,5229.6300,N,01319.4624,E,1,04,6.4,76.1,M,44.8,M,,0000*67
$GPGSA,A,3,25,12,27,09,,,,,,,,,6.4,6.4,1.0*3B
$GPRMC,073413.000,A,5229.6300,N,01319.4624,E,1.68,342.22,140912,,,A*6E
$GPGGA,073414.000,5229.6299,N,01319.4625,E,1,06,1.6,77.2,M,44.8,M,,0000*65
$GPGSA,A,3,14,17,25,12,27,09,,,,,,,3.1,1.6,2.6*38
$GPRMC,073417.000,A,5229.6291,N,01319.4630,E,1.39,11.01,140912,,,A*56
$GPGGA,073418.000,5229.6291,N,01319.4633,E,1,06,1.6,81.0,M,44.8,M,,0000*6D
$GPGSA,A,3,14,17,25,12,27,09,,,,,,,3.1,1.6,2.6*38
$GPRMC,073418.000,A,5229.6291,N,01319.4633,E,1.98,10.04,140912,,,A*55
$GPGGA,073419.000,5229.6294,N,01319.4635,E,1,06,1.6,81.4,M,44.8,M,,0000*6B
$GPGSA,A,3,14,17,25,12,27,09,,,,,,,3.1,1.6,2.6*38
$GPRMC,073419.000,A,5229.6294,N,01319.4635,E,2.91,5.63,140912,,,A*68
$GPGGA,073420.000,5229.6297,N,01319.4632,E,1,05,1.6,81.9,M,44.8,M,,0000*6B
$GPGSA,A,3,14,17,25,12,27,,,,,,,,3.2,1.6,2.7*33
$GPGSV,3,1,11,12,67,258,23,09,65,132,18,27,55,131,17,14,33,306,14*71
$GPGSV,3,2,11,25,27,255,20,17,23,046,19,04,18,093,,15,12,183,*7D
$GPGSV,3,3,11,02,07,130,,22,04,277,15,32,00,359,*42
$GPRMC,073420.000,A,5229.6297,N,01319.4632,E,3.01,341.21,140912,,,A*6B
$GPGGA,073421.000,5229.6300,N,01319.4629,E,1,05,1.6,82.8,M,44.8,M,,0000*6D
$GPGSA,A,3,14,17,25,12,27,,,,,,,,3.2,1.6,2.7*33
$GPRMC,073421.000,A,5229.6300,N,01319.4629,E,2.41,340.24,140912,,,A*6E
$GPGGA,073422.000,5229.6300,N,01319.4620,E,1,06,1.6,83.8,M,44.8,M,,0000*65
$GPGSA,A,3,14,17,25,12,27,09,,,,,,,3.1,1.6,2.6*38
$GPRMC,073422.000,A,5229.6300,N,01319.4620,E,2.26,300.36,140912,,,A*62
$GPGGA,073423.000,5229.6298,N,01319.4610,E,1,05,2.1,84.5,M,44.8,M,,0000*6A
$GPGSA,A,3,17,25,12,27,09,,,,,,,,3.5,2.1,2.8*33
$GPRMC,073423.000,A,5229.6298,N,01319.4610,E,2.26,279.81,140912,,,A*63
$GPGGA,073424.000,5229.6296,N,01319.4603,E,1,04,2.2,85.2,M,44.8,M,,0000*65
$GPGSA,A,3,17,25,12,27,,,,,,,,,3.6,2.2,2.9*3B
$GPRMC,073424.000,A,5229.6296,N,01319.4603,E,1.83,293.09,140912,,,A*60
$GPGGA,073425.000,5229.6295,N,01319.4602,E,1,05,2.1,85.7,M,44.8,M,,0000*61
$GPGSA,A,3,17,25,12,27,09,,,,,,,,3.5,2.1,2.8*33
$GPGSV,3,1,11,12,67,258,23,09,65,132,17,27,55,131,17,14,33,306,13*79
$GPGSV,3,2,11,25,27,255,16,17,23,046,17,04,18,093,,15,12,183,*76
$GPGSV,3,3,11,02,07,130,,22,04,277,16,32,00,359,*41
$GPRMC,073425.000,A,5229.6295,N,01319.4602,E,0.85,330.98,140912,,,A*64
$GPGGA,073426.000,5229.6293,N,01319.4605,E,1,04,2.2,86.3,M,44.8,M,,0000*66
$GPGSA,A,3,17,25,12,27,,,,,,,,,3.6,2.2,2.9*3B
$GPRMC,073426.000,A,5229.6293,N,01319.4605,E,0.83,35.86,140912,,,A*59
$GPGGA,073427.000,5229.6291,N,01319.4609,E,1,03,6.4,87.1,M,44.8,M,,0000*6F
$GPGSA,A,2,25,12,27,,,,,,,,,,6.5,6.4,1.0*32
$GPRMC,073427.000,A,5229.6291,N,01319.4609,E,0.96,49.26,140912,,,A*53
$GPGGA,073428.000,5229.6290,N,01319.4615,E,1,03,6.4,87.9,M,44.8,M,,0000*64
$GPGSA,A,2,25,12,27,,,,,,,,,,6.5,6.4,1.0*32
$GPRMC,073428.000,A,5229.6290,N,01319.4615,E,1.28,59.26,140912,,,A*55
$GPGGA,073429.000,5229.6293,N,01319.4622,E,1,04,6.3,88.6,M,44.8,M,,0000*62
$GPGSA,A,3,25,12,27,09,,,,,,,,,6.4,6.3,1.0*3C
$GPRMC,073429.000,A,5229.6293,N,01319.4622,E,2.31,42.27,140912,,,A*53
$GPGGA,073430.000,5229.6301,N,01319.4630,E,1,04,6.3,89.4,M,44.8,M,,0000*60
$GPGSA,A,3,25,12,27,09,,,,,,,,,6.4,6.3,1.0*3C
$GPGSV,3,1,11,12,67,258,23,09,65,132,16,27,55,131,18,14,33,306,*75
$GPGSV,3,2,11,25,27,255,13,17,23,046,,04,18,093,,15,12,183,*75
$GPGSV,3,3,11,02,07,130,,22,04,277,16,32,00,359,*41
$GPRMC,073430.000,A,5229.6301,N,01319.4630,E,3.79,25.26,140912,,,A*5F
$GPGGA,073431.000,5229.6311,N,01319.4642,E,1,03,7.5,90.2,M,44.8,M,,0000*6B
$GPGSA,A,2,25,12,09,,,,,,,,,,7.6,7.5,1.0*3C
$GPRMC,073431.000,A,5229.6311,N,01319.4642,E,4.65,32.26,140912,,,A*56
$GPGGA,073432.000,5229.6325,N,01319.4655,E,0,03,,90.9,M,44.8,M,,0000*4F
$GPGSA,A,1,12,27,09,,,,,,,,,,,,*11
$GPRMC,073436.000,A,5229.6424,N,01319.4683,E,8.80,9.42,140912,,,A*60
$GPGGA,073437.000,5229.6453,N,01319.4690,E,1,03,2.5,95.2,M,44.8,M,,0000*63
$GPGSA,A,2,17,12,09,,,,,,,,,,2.7,2.5,1.0*3C
$GPRMC,073437.000,A,5229.6453,N,01319.4690,E,8.88,11.73,140912,,,A*50
$GPGGA,073438.000,5229.6483,N,01319.4698,E,1,04,2.0,95.9,M,44.8,M,,0000*60
$GPGSA,A,3,17,12,27,09,,,,,,,,,2.2,2.0,1.0*38
$GPRMC,073438.000,A,5229.6483,N,01319.4698,E,9.03,14.26,140912,,,A*5D
$GPGGA,073439.000,5229.6515,N,01319.4703,E,0,03,,96.8,M,44.8,M,,0000*44
$GPGSA,A,1,12,27,09,,,,,,,,,,,,*11
$GPRMC,073440.000,A,5229.6541,N,01319.4706,E,7.63,8.82,140912,,,A*60
$GPGGA,073441.000,5229.6563,N,01319.4706,E,1,04,4.8,98.7,M,44.8,M,,0000*6A
$GPGSA,A,3,14,12,27,09,,,,,,,,,4.9,4.8,1.0*38
$GPRMC,073441.000,A,5229.6563,N,01319.4706,E,6.70,2.37,140912,,,A*66
$GPGGA,073442.000,5229.6584,N,01319.4705,E,0,00,,99.8,M,44.8,M,,0000*4A
$GPGSA,A,1,,,,,,,,,,,,,,,*1E
$GPRMC,073443.000,A,5229.6600,N,01319.4702,E,4.94,356.99,140912,,,A*68
$GPGGA,073444.000,5229.6610,N,01319.4698,E,1,04,4.8,101.9,M,44.8,M,,0000*51
$GPGSA,A,3,14,12,27,09,,,,,,,,,4.9,4.8,1.0*38
$GPRMC,073444.000,A,5229.6610,N,01319.4698,E,3.35,351.45,140912,,,A*66
$GPGGA,073445.000,5229.6612,N,01319.4700,E,1,04,4.8,103.0,M,44.8,M,,0000*59
$GPGSA,A,3,14,12,27,09,,,,,,,,,4.9,4.8,1.0*38
$GPGSV,3,1,11,12,67,258,24,09,65,132,23,27,55,131,17,14,33,306,27*7E
$GPGSV,3,2,11,25,27,255,16,17,23,046,16,04,18,093,,15,12,183,*77
$GPGSV,3,3,11,02,07,130,,22,04,277,18,32,00,359,*4F
$GPRMC,073445.000,A,5229.6612,N,01319.4700,E,1.85,28.05,140912,,,A*55
$GPGGA,073446.000,5229.6610,N,01319.4709,E,1,04,4.8,104.0,M,44.8,M,,0000*56
$GPGSA,A,3,14,12,27,09,,,,,,,,,4.9,4.8,1.0*38
$GPRMC,073446.000,A,5229.6610,N,01319.4709,E,2.02,87.31,140912,,,A*53
$GPGGA,073447.000,5229.6606,N,01319.4719,E,1,04,4.8,104.9,M,44.8,M,,0000*58
$GPGSA,A,3,14,12,27,09,,,,,,,,,4.9,4.8,1.0*38
$GPRMC,073447.000,A,5229.6606,N,01319.4719,E,2.14,102.71,140912,,,A*6B
$GPGGA,073448.000,5229.6600,N,01319.4727,E,1,04,4.8,105.7,M,44.8,M,,0000*53
$GPGSA,A,3,14,12,27,09,,,,,,,,,4.9,4.8,1.0*38
$GPRMC,073448.000,A,5229.6600,N,01319.4727,E,1.84,110.67,140912,,,A*61
$GPGGA,073449.000,5229.6597,N,01319.4736,E,0,03,,106.3,M,44.8,M,,0000*7C
$GPGSA,A,1,12,27,09,,,,,,,,,,,,*11
$GPRMC,073450.000,A,5229.6595,N,01319.4745,E,1.87,75.57,140912,,,A*51
$GPGGA,073451.000,5229.6592,N,01319.4753,E,1,03,7.4,106.9,M,44.8,M,,0000*55
$GPGSA,A,2,25,12,09,,,,,,,,,,7.5,7.4,1.0*3E
$GPRMC,073451.000,A,5229.6592,N,01319.4753,E,2.05,76.36,140912,,,A*5D
$GPGGA,073452.000,5229.6586,N,01319.4766,E,1,04,6.3,106.6,M,44.8,M,,0000*5B
$GPGSA,A,3,25,12,27,09,,,,,,,,,6.4,6.3,1.0*3C
$GPRMC,073452.000,A,5229.6586,N,01319.4766,E,2.81,100.46,140912,,,A*66
$GPGGA,073453.000,5229.6580,N,01319.4779,E,0,03,,106.4,M,44.8,M,,0000*7D
$GPGSA,A,1,25,27,09,,,,,,,,,,,,*15
$GPRMC,073456.000,A,5229.6559,N,01319.4829,E,4.07,116.42,140912,,,A*6F
$GPGGA,073457.000,5229.6559,N,01319.4836,E,1,03,2.5,105.2,M,44.8,M,,0000*54
$GPGSA,A,2,17,12,09,,,,,,,,,,2.7,2.5,1.0*3C
$GPRMC,073457.000,A,5229.6559,N,01319.4836,E,2.18,59.96,140912,,,A*5B
$GPGGA,073458.000,5229.6561,N,01319.4840,E,1,04,1.7,105.0,M,44.8,M,,0000*55
$GPGSA,A,3,17,14,12,09,,,,,,,,,2.0,1.7,1.0*3E
$GPRMC,073458.000,A,5229.6561,N,01319.4840,E,2.23,42.19,140912,,,A*5B
$GPGGA,073459.000,5229.6561,N,01319.4842,E,1,04,1.7,105.2,M,44.8,M,,0000*54
$GPGSA,A,3,17,14,12,09,,,,,,,,,2.0,1.7,1.0*3E
$GPRMC,073459.000,A,5229.6561,N,01319.4842,E,2.00,37.30,140912,,,A*50
$GPGGA,073500.000,5229.6564,N,01319.4838,E,1,03,2.5,105.4,M,44.8,M,,0000*51
$GPGSA,A,2,17,14,12,,,,,,,,,,2.7,2.5,1.0*30
$GPGSV,3,1,11,12,67,258,19,09,65,132,17,27,55,131,,14,33,306,19*7C
$GPGSV,3,2,11,25,27,255,13,17,23,046,20,04,18,093,,15,12,183,*77
$GPGSV,3,3,11,02,07,130,,22,04,277,,32,00,359,*46
$GPRMC,073500.000,A,5229.6564,N,01319.4838,E,2.35,357.71,140912,,,A*63
$GPGGA,073501.000,5229.6565,N,01319.4823,E,1,04,1.7,105.9,M,44.8,M,,0000*50
$GPGSA,A,3,17,14,12,09,,,,,,,,,2.0,1.7,1.0*3E
$GPRMC,073501.000,A,5229.6565,N,01319.4823,E,2.70,319.53,140912,,,A*62
$GPGGA,073502.000,5229.6566,N,01319.4815,E,1,03,2.5,106.4,M,44.8,M,,0000*5D
$GPGSA,A,2,17,14,12,,,,,,,,,,2.7,2.5,1.0*30
$GPRMC,073502.000,A,5229.6566,N,01319.4815,E,1.87,345.40,140912,,,A*67
$GPGGA,073503.000,5229.6567,N,01319.4809,E,1,04,1.7,107.1,M,44.8,M,,0000*52
$GPGSA,A,3,17,14,12,09,,,,,,,,,2.0,1.7,1.0*3E
$GPRMC,073503.000,A,5229.6567,N,01319.4809,E,1.14,10.32,140912,,,A*56
$GPGGA,073504.000,5229.6567,N,01319.4804,E,0,00,,107.7,M,44.8,M,,0000*73
$GPGSA,A,1,,,,,,,,,,,,,,,*1E
$GPRMC,073506.000,A,5229.6567,N,01319.4798,E,0.91,68.37,140912,,,A*52
$GPGGA,073507.000,5229.6564,N,01319.4796,E,1,03,2.5,109.5,M,44.8,M,,0000*50
$GPGSA,A,2,17,12,09,,,,,,,,,,2.7,2.5,1.0*3C
$GPRMC,073510.000,A,5229.6556,N,01319.4781,E,0.96,344.53,140912,,,A*67
$GPGGA,073511.000,5229.6555,N,01319.4774,E,1,03,2.5,111.6,M,44.8,M,,0000*53
$GPGSA,A,2,17,14,12,,,,,,,,,,2.7,2.5,1.0*30
$GPRMC,073512.000,A,5229.6553,N,01319.4767,E,0.89,338.27,140912,,,A*6E
$GPGGA,073513.000,5229.6551,N,01319.4759,E,1,03,2.5,111.7,M,44.8,M,,0000*5B
$GPGSA,A,2,17,14,12,,,,,,,,,,2.7,2.5,1.0*30
$GPRMC,073515.000,A,5229.6543,N,01319.4757,E,1.07,95.62,140912,,,A*59
$GPGGA,073516.000,5229.6538,N,01319.4756,E,1,04,1.7,111.4,M,44.8,M,,0000*5B
$GPGSA,A,3,17,14,12,09,,,,,,,,,2.0,1.7,1.0*3E
$GPRMC,073517.000,A,5229.6533,N,01319.4745,E,1.54,235.41,140912,,,A*60
$GPGGA,073518.000,5229.6528,N,01319.4736,E,1,03,2.5,111.3,M,44.8,M,,0000*53
$GPGSA,A,2,17,12,09,,,,,,,,,,2.7,2.5,1.0*3C
$GPRMC,073518.000,A,5229.6528,N,01319.4736,E,1.32,234.48,140912,,,A*69
$GPGGA,073519.000,5229.6521,N,01319.4728,E,1,04,1.7,111.2,M,44.8,M,,0000*53
$GPGSA,A,3,17,14,12,09,,,,,,,,,2.0,1.7,1.0*3E
$GPRMC,073519.000,A,5229.6521,N,01319.4728,E,1.35,211.74,140912,,,A*61
$GPGGA,073520.000,5229.6512,N,01319.4725,E,1,04,1.7,111.0,M,44.8,M,,0000*56
$GPGSA,A,3,17,14,12,09,,,,,,,,,2.0,1.7,1.0*3E
$GPGSV,3,1,11,12,67,258,22,09,65,132,14,27,55,131,,14,33,306,18*76
$GPGSV,3,2,11,25,27,255,,17,23,046,20,04,18,093,,15,12,183,*75
$GPGSV,3,3,11,02,07,130,,22,04,277,,32,00,359,*46
$GPRMC,073520.000,A,5229.6512,N,01319.4725,E,1.95,170.17,140912,,,A*6D
$GPGGA,073521.000,5229.6501,N,01319.4727,E,1,04,1.7,110.8,M,44.8,M,,0000*5E
$GPGSA,A,3,17,14,12,09,,,,,,,,,2.0,1.7,1.0*3E
$GPRMC,073521.000,A,5229.6501,N,01319.4727,E,3.06,150.32,140912,,,A*61
$GPGGA,073522.000,5229.6488,N,01319.4733,E,1,04,1.7,110.5,M,44.8,M,,0000*55
$GPGSA,A,3,17,14,12,09,,,,,,,,,2.0,1.7,1.0*3E
$GPRMC,073522.000,A,5229.6488,N,01319.4733,E,3.90,144.37,140912,,,A*68
$GPGGA,073523.000,5229.6475,N,01319.4737,E,1,04,1.7,110.2,M,44.8,M,,0000*55
$GPGSA,A,3,17,14,12,09,,,,,,,,,2.0,1.7,1.0*3E
$GPRMC,073523.000,A,5229.6475,N,01319.4737,E,3.79,153.09,140912,,,A*63
$GPGGA,073524.000,5229.6468,N,01319.4740,E,1,03,2.5,109.8,M,44.8,M,,0000*5A
$GPGSA,A,2,17,14,12,,,,,,,,,,2.7,2.5,1.0*30
$GPRMC,073524.000,A,5229.6468,N,01319.4740,E,2.44,136.12,140912,,,A*6E
$GPGGA,073525.000,5229.6464,N,01319.4738,E,1,03,2.5,109.4,M,44.8,M,,0000*54
$GPGSA,A,2,17,14,12,,,,,,,,,,2.7,2.5,1.0*30
$GPGSV,3,1,11,12,67,258,23,09,65,132,,27,55,131,,14,33,306,19*73
$GPGSV,3,2,11,25,27,255,,17,23,046,20,04,18,093,,15,12,183,*75
$GPGSV,3,3,11,02,07,130,,22,04,277,,32,00,359,*46
$GPRMC,073526.000,A,5229.6460,N,01319.4740,E,1.49,117.92,140912,,,A*61
$GPGGA,073527.000,5229.6456,N,01319.4733,E,1,03,2.5,108.6,M,44.8,M,,0000*5F
$GPGSA,A,2,17,14,12,,,,,,,,,,2.7,2.5,1.0*30
$GPRMC,073528.000,A,5229.6455,N,01319.4720,E,2.10,267.88,140912,,,A*6F
$GPGGA,073529.000,5229.6454,N,01319.4711,E,1,03,2.5,107.9,M,44.8,M,,0000*53
$GPGSA,A,2,17,14,12,,,,,,,,,,2.7,2.5,1.0*30
$GPRMC,073529.000,A,5229.6454,N,01319.4711,E,1.24,284.02,140912,,,A*66
$GPGGA,073530.000,5229.6451,N,01319.4703,E,1,03,2.5,107.6,M,44.8,M,,0000*52
$GPGSA,A,2,17,14,12,,,,,,,,,,2.7,2.5,1.0*30
$GPGSV,3,1,11,12,67,258,23,09,65,132,,27,55,131,,14,33,306,19*73
$GPGSV,3,2,11,25,27,255,,17,23,046,19,04,18,093,,15,12,183,*7F
$GPGSV,3,3,11,02,07,130,,22,04,277,,32,00,359,*46
$GPRMC,073530.000,A,5229.6451,N,01319.4703,E,0.90,247.95,140912,,,A*67
$GPGGA,073531.000,5229.6451,N,01319.4700,E,1,03,2.5,107.3,M,44.8,M,,0000*55
$GPGSA,A,2,17,14,12,,,,,,,,,,2.7,2.5,1.0*30
$GPRMC,073532.000,A,5229.6454,N,01319.4695,E,1.25,352.17,140912,,,A*6E
$GPGGA,073533.000,5229.6455,N,01319.4690,E,1,03,2.5,106.7,M,44.8,M,,0000*5E
$GPGSA,A,2,17,14,12,,,,,,,,,,2.7,2.5,1.0*30
$GPRMC,073537.000,A,5229.6436,N,01319.4685,E,3.60,147.76,140912,,,A*6C
$GPGGA,073538.000,5229.6419,N,01319.4692,E,1,03,2.5,105.8,M,44.8,M,,0000*53
$GPGSA,A,2,17,14,12,,,,,,,,,,2.7,2.5,1.0*30
$GPRMC,073538.000,A,5229.6419,N,01319.4692,E,4.63,159.90,140912,,,A*6B
$GPGGA,073539.000,5229.6403,N,01319.4704,E,1,03,2.5,105.7,M,44.8,M,,0000*58
$GPGSA,A,2,17,14,12,,,,,,,,,,2.7,2.5,1.0*30
$GPRMC,073539.000,A,5229.6403,N,01319.4704,E,4.83,148.99,140912,,,A*68
$GPGGA,073540.000,5229.6388,N,01319.4718,E,1,05,4.0,105.2,M,44.8,M,,0000*5F
$GPGSA,A,3,27,17,14,12,09,,,,,,,,8.4,4.0,7.4*35
$GPGSV,3,1,11,12,67,258,21,09,65,132,13,27,55,131,16,14,33,306,18*75
$GPGSV,3,2,11,25,27,255,,17,23,046,18,04,18,093,,15,12,183,*7E
$GPGSV,3,3,11,02,07,130,,22,04,277,,32,00,359,*46
$GPRMC,073540.000,A,5229.6388,N,01319.4718,E,4.02,135.03,140912,,,A*6F
$GPGGA,073541.000,5229.6371,N,01319.4729,E,1,04,1.7,104.5,M,44.8,M,,0000*5F
$GPGSA,A,3,17,14,12,09,,,,,,,,,2.0,1.7,1.0*3E
$GPRMC,073541.000,A,5229.6371,N,01319.4729,E,4.08,145.99,140912,,,A*64
$GPGGA,073542.000,5229.6355,N,01319.4742,E,1,04,2.0,103.6,M,44.8,M,,0000*57
$GPGSA,A,3,27,17,12,09,,,,,,,,,2.2,2.0,1.0*38
$GPRMC,073542.000,A,5229.6355,N,01319.4742,E,3.76,133.96,140912,,,A*6C
$GPGGA,073543.000,5229.6341,N,01319.4754,E,1,04,2.0,102.7,M,44.8,M,,0000*54
$GPGSA,A,3,27,17,12,09,,,,,,,,,2.2,2.0,1.0*38
$GPRMC,073543.000,A,5229.6341,N,01319.4754,E,3.26,128.52,140912,,,A*68
$GPGGA,073544.000,5229.6333,N,01319.4763,E,1,03,2.1,102.0,M,44.8,M,,0000*53
$GPGSA,A,2,27,17,12,,,,,,,,,,2.3,2.1,1.0*30
$GPRMC,073544.000,A,5229.6333,N,01319.4763,E,1.99,104.52,140912,,,A*66
$GPGGA,073545.000,5229.6334,N,01319.4769,E,1,03,2.1,101.7,M,44.8,M,,0000*5B
$GPGSA,A,2,27,17,12,,,,,,,,,,2.3,2.1,1.0*30
$GPGSV,3,1,11,12,68,259,20,09,64,133,14,27,54,132,17,14,34,305,16*74
$GPGSV,3,2,11,25,28,256,,17,22,045,18,04,18,092,,15,10,183,*73
$GPGSV,3,3,11,02,08,130,,22,03,277,,32,01,358,*4E
$GPRMC,073545.000,A,5229.6334,N,01319.4769,E,2.33,34.72,140912,,,A*59
$GPGGA,073546.000,5229.6336,N,01319.4776,E,1,03,2.5,101.4,M,44.8,M,,0000*53
$GPGSA,A,2,17,14,12,,,,,,,,,,2.7,2.5,1.0*30
$GPRMC,073546.000,A,5229.6336,N,01319.4776,E,2.89,33.69,140912,,,A*5A
$GPGGA,073547.000,5229.6339,N,01319.4781,E,1,03,2.6,101.2,M,44.8,M,,0000*50
$GPGSA,A,2,17,14,12,,,,,,,,,,2.7,2.6,1.0*33
$GPRMC,073547.000,A,5229.6339,N,01319.4781,E,2.57,19.36,140912,,,A*5D
$GPGGA,073548.000,5229.6343,N,01319.4783,E,1,04,4.1,101.2,M,44.8,M,,0000*56
$GPGSA,A,3,27,17,14,12,,,,,,,,,8.8,4.1,7.8*3D
$GPRMC,073548.000,A,5229.6343,N,01319.4783,E,2.31,14.70,140912,,,A*52
$GPGGA,073549.000,5229.6347,N,01319.4784,E,1,03,2.6,101.1,M,44.8,M,,0000*51
$GPGSA,A,2,17,14,12,,,,,,,,,,2.7,2.6,1.0*33
$GPRMC,073549.000,A,5229.6347,N,01319.4784,E,1.88,7.64,140912,,,A*66
$GPGGA,073550.000,5229.6353,N,01319.4782,E,1,03,2.1,101.0,M,44.8,M,,0000*5C
$GPGSA,A,2,27,17,12,,,,,,,,,,2.3,2.1,1.0*30
$GPGSV,3,1,11,12,68,259,20,09,64,133,14,27,54,132,17,14,34,305,17*75
$GPGSV,3,2,11,25,28,256,,17,22,045,17,04,18,092,,15,10,183,*7C
$GPGSV,3,3,11,02,08,130,,22,03,277,,32,01,358,*4E
$GPRMC,073550.000,A,5229.6353,N,01319.4782,E,2.04,355.91,140912,,,A*64
$GPGGA,073551.000,5229.6354,N,01319.4780,E,1,04,2.0,100.7,M,44.8,M,,0000*58
$GPGSA,A,3,27,17,12,09,,,,,,,,,2.2,2.0,1.0*38
$GPRMC,073551.000,A,5229.6354,N,01319.4780,E,0.99,355.39,140912,,,A*64
$GPGGA,073552.000,5229.6354,N,01319.4777,E,1,05,3.9,100.1,M,44.8,M,,0000*5C
$GPGSA,A,3,27,17,14,12,09,,,,,,,,8.3,3.9,7.3*3B
$GPRMC,073554.000,A,5229.6355,N,01319.4764,E,1.59,313.82,140912,,,A*65
$GPGGA,073555.000,5229.6358,N,01319.4758,E,1,04,4.0,98.5,M,44.8,M,,0000*61
$GPGSA,A,3,27,17,14,12,,,,,,,,,8.7,4.0,7.8*33
$GPGSV,3,1,11,12,68,259,19,09,64,133,12,27,54,132,17,14,34,305,24*79
$GPGSV,3,2,11,25,28,256,,17,22,045,18,04,18,092,,15,10,183,*73
$GPGSV,3,3,11,02,08,130,,22,03,277,,32,01,358,*4E
$GPRMC,073555.000,A,5229.6358,N,01319.4758,E,1.61,336.72,140912,,,A*65
$GPGGA,073556.000,5229.6361,N,01319.4752,E,1,04,4.0,97.9,M,44.8,M,,0000*61
$GPGSA,A,3,27,17,14,12,,,,,,,,,8.7,4.0,7.8*33
$GPRMC,073556.000,A,5229.6361,N,01319.4752,E,1.40,344.79,140912,,,A*6B
$GPGGA,073557.000,5229.6360,N,01319.4749,E,1,04,4.0,97.3,M,44.8,M,,0000*61
$GPGSA,A,3,27,17,14,12,,,,,,,,,8.7,4.0,7.7*3C
$GPRMC,073558.000,A,5229.6356,N,01319.4743,E,1.01,210.80,140912,,,A*62
$GPGGA,073559.000,5229.6349,N,01319.4734,E,1,04,4.0,95.8,M,44.8,M,,0000*67
$GPGSA,A,3,27,17,14,12,,,,,,,,,8.7,4.0,7.7*3C
$GPRMC,073559.000,A,5229.6349,N,01319.4734,E,2.03,221.59,140912,,,A*6A
$GPGGA,073600.000,5229.6344,N,01319.4727,E,1,03,2.6,94.9,M,44.8,M,,0000*60
$GPGSA,A,2,17,14,12,,,,,,,,,,2.7,2.6,1.0*33
$GPGSV,3,1,11,12,68,259,19,09,64,133,,27,54,132,17,14,34,305,24*7A
$GPGSV,3,2,11,25,28,256,,17,22,045,19,04,18,092,,15,10,183,*72
$GPGSV,3,3,11,02,08,130,,22,03,277,,32,01,358,*4E
$GPRMC,073600.000,A,5229.6344,N,01319.4727,E,1.40,229.71,140912,,,A*6C
$GPGGA,073601.000,5229.6338,N,01319.4724,E,1,04,4.0,94.0,M,44.8,M,,0000*67
$GPGSA,A,3,27,17,14,12,,,,,,,,,8.7,4.0,7.7*3C
$GPRMC,073601.000,A,5229.6338,N,01319.4724,E,1.50,193.21,140912,,,A*63
$GPGGA,073602.000,5229.6333,N,01319.4723,E,1,03,2.6,92.9,M,44.8,M,,0000*60
$GPGSA,A,2,17,14,12,,,,,,,,,,2.7,2.6,1.0*33
$GPRMC,073602.000,A,5229.6333,N,01319.4723,E,1.25,170.09,140912,,,A*69
$GPGGA,073603.000,5229.6328,N,01319.4721,E,1,03,2.6,91.8,M,44.8,M,,0000*6B
$GPGSA,A,2,17,14,12,,,,,,,,,,2.7,2.6,1.0*33
$GPRMC,073603.000,A,5229.6328,N,01319.4721,E,1.02,180.50,140912,,,A*66
$GPGGA,073604.000,5229.6324,N,01319.4717,E,1,04,4.0,90.7,M,44.8,M,,0000*6C
$GPGSA,A,3,27,17,14,12,,,,,,,,,8.7,4.0,7.7*3C
$GPRMC,073604.000,A,5229.6324,N,01319.4717,E,1.14,208.51,140912,,,A*6D
$GPGGA,073605.000,5229.6320,N,01319.4712,E,1,04,4.0,89.6,M,44.8,M,,0000*65
$GPGSA,A,3,27,17,14,12,,,,,,,,,8.7,4.0,7.7*3C
$GPGSV,3,1,11,12,68,259,19,09,64,133,,27,54,132,17,14,34,305,24*7A
$GPGSV,3,2,11,25,28,256,,17,22,045,20,04,18,092,,15,10,183,*78
$GPGSV,3,3,11,02,08,130,,22,03,277,,32,01,358,*4E
$GPRMC,073605.000,A,5229.6320,N,01319.4712,E,1.09,218.77,140912,,,A*64
$GPGGA,073606.000,5229.6318,N,01319.4708,E,1,03,2.6,88.8,M,44.8,M,,0000*6E
$GPGSA,A,2,17,14,12,,,,,,,,,,2.7,2.6,1.0*33
$GPRMC,073607.000,A,5229.6319,N,01319.4703,E,0.83,327.64,140912,,,A*60
$GPGGA,073608.000,5229.6319,N,01319.4700,E,1,03,2.6,86.8,M,44.8,M,,0000*67
$GPGSA,A,2,17,14,12,,,,,,,,,,2.7,2.6,1.0*33
$GPRMC,073609.000,A,5229.6322,N,01319.4695,E,1.41,352.25,140912,,,A*60
$GPGGA,073610.000,5229.6324,N,01319.4692,E,1,03,2.6,84.9,M,44.8,M,,0000*69
$GPGSA,A,2,17,14,12,,,,,,,,,,2.7,2.6,1.0*33
$GPGSV,3,1,11,12,68,259,19,09,64,133,15,27,54,132,17,14,34,305,24*7E
$GPGSV,3,2,11,25,28,256,,17,22,045,20,04,18,092,,15,10,183,*78
$GPGSV,3,3,11,02,08,130,,22,03,277,,32,01,358,*4E
$GPRMC,073610.000,A,5229.6324,N,01319.4692,E,1.18,357.31,140912,,,A*65
$GPGGA,073611.000,5229.6326,N,01319.4687,E,1,03,2.6,84.1,M,44.8,M,,0000*66
$GPGSA,A,2,17,14,12,,,,,,,,,,2.7,2.6,1.0*33
$GPRMC,073611.000,A,5229.6326,N,01319.4687,E,1.14,333.74,140912,,,A*6D
$GPGGA,073612.000,5229.6330,N,01319.4683,E,1,03,2.6,83.2,M,44.8,M,,0000*62
$GPGSA,A,2,17,14,12,,,,,,,,,,2.7,2.6,1.0*33
$GPRMC,073612.000,A,5229.6330,N,01319.4683,E,2.02,352.80,140912,,,A*65
$GPGGA,073613.000,5229.6334,N,01319.4682,E,1,05,3.9,82.1,M,44.8,M,,0000*6C
$GPGSA,A,3,27,17,14,09,12,,,,,,,,8.2,3.9,7.2*3B
$GPRMC,073613.000,A,5229.6334,N,01319.4682,E,2.01,6.05,140912,,,A*6D
$GPGGA,073614.000,5229.6335,N,01319.4683,E,1,05,3.9,81.0,M,44.8,M,,0000*69
$GPGSA,A,3,27,17,14,09,12,,,,,,,,8.2,3.9,7.2*3B
$GPRMC,073614.000,A,5229.6335,N,01319.4683,E,1.09,19.58,140912,,,A*57
$GPGGA,073615.000,5229.6337,N,01319.4684,E,1,04,4.0,79.9,M,44.8,M,,0000*6C
$GPGSA,A,3,27,17,14,12,,,,,,,,,8.6,4.0,7.6*3C
$GPGSV,3,1,11,12,68,259,19,09,64,133,15,27,54,132,18,14,34,305,23*76
$GPGSV,3,2,11,25,28,256,,17,22,045,20,04,18,092,,15,10,183,*78
$GPGSV,3,3,11,02,08,130,,22,03,277,,32,01,358,*4E
$GPRMC,073615.000,A,5229.6337,N,01319.4684,E,1.58,20.30,140912,,,A*53
$GPGGA,073616.000,5229.6337,N,01319.4686,E,1,04,4.0,78.9,M,44.8,M,,0000*6C
$GPGSA,A,3,27,17,14,12,,,,,,,,,8.6,4.0,7.6*3C
$GPRMC,073616.000,A,5229.6337,N,01319.4686,E,0.95,50.26,140912,,,A*52
$GPGGA,073617.000,5229.6334,N,01319.4687,E,1,03,2.6,77.9,M,44.8,M,,0000*67
$GPGSA,A,2,17,14,12,,,,,,,,,,2.8,2.6,1.0*3C
$GPRMC,073618.000,A,5229.6327,N,01319.4689,E,1.61,150.12,140912,,,A*6E
$GPGGA,073619.000,5229.6323,N,01319.4693,E,1,04,4.0,75.9,M,44.8,M,,0000*6F
$GPGSA,A,3,27,17,14,12,,,,,,,,,8.6,4.0,7.6*3C
$GPRMC,073619.000,A,5229.6323,N,01319.4693,E,1.69,127.86,140912,,,A*65
$GPGGA,073620.000,5229.6323,N,01319.4694,E,1,04,1.6,74.9,M,44.8,M,,0000*60
$GPGSA,A,3,27,17,14,09,,,,,,,,,1.9,1.6,1.0*33
$GPGSV,3,1,11,12,68,259,19,09,64,133,16,27,54,132,19,14,34,305,23*74
$GPGSV,3,2,11,25,28,256,,17,22,045,21,04,18,092,,15,10,183,*79
$GPGSV,3,3,11,02,08,130,,22,03,277,,32,01,358,*4E
$GPRMC,073620.000,A,5229.6323,N,01319.4694,E,0.99,57.18,140912,,,A*57
$GPGGA,073621.000,5229.6325,N,01319.4691,E,1,03,1.8,74.0,M,44.8,M,,0000*62
$GPGSA,A,2,17,14,09,,,,,,,,,,2.1,1.8,1.0*32
$GPRMC,073621.000,A,5229.6325,N,01319.4691,E,1.13,0.37,140912,,,A*69
$GPGGA,073622.000,5229.6325,N,01319.4688,E,1,04,1.6,73.4,M,44.8,M,,0000*63
$GPGSA,A,3,27,17,14,09,,,,,,,,,1.9,1.6,1.0*33
$GPRMC,073623.000,A,5229.6319,N,01319.4688,E,1.84,158.67,140912,,,A*6B
$GPGGA,073624.000,5229.6314,N,01319.4689,E,1,05,3.9,72.0,M,44.8,M,,0000*6F
$GPGSA,A,3,27,17,14,09,12,,,,,,,,8.1,3.9,7.2*38
$GPRMC,073624.000,A,5229.6314,N,01319.4689,E,1.64,159.19,140912,,,A*66
$GPGGA,073625.000,5229.6311,N,01319.4687,E,1,03,1.7,71.4,M,44.8,M,,0000*68
$GPGSA,A,2,27,17,14,,,,,,,,,,2.0,1.7,1.0*30
$GPGSV,3,1,11,12,68,259,19,09,64,133,16,27,54,132,19,14,34,305,22*75
$GPGSV,3,2,11,25,28,256,,17,22,045,21,04,18,092,,15,10,183,*79
$GPGSV,3,3,11,02,08,130,,22,03,277,,32,01,358,*4E
$GPRMC,073625.000,A,5229.6311,N,01319.4687,E,1.07,180.56,140912,,,A*66
$GPGGA,073626.000,5229.6309,N,01319.4682,E,1,05,3.9,70.6,M,44.8,M,,0000*6E
$GPGSA,A,3,27,17,14,09,12,,,,,,,,8.1,3.9,7.2*38
$GPRMC,073629.000,A,5229.6298,N,01319.4673,E,1.72,183.05,140912,,,A*66
$GPGGA,073630.000,5229.6294,N,01319.4667,E,1,05,3.9,66.3,M,44.8,M,,0000*65
$GPGSA,A,3,27,17,14,09,12,,,,,,,,8.1,3.9,7.1*3B
$GPGSV,3,1,11,12,68,259,19,09,64,133,17,27,54,132,19,14,34,305,22*74
$GPGSV,3,2,11,25,28,256,,17,22,045,21,04,18,092,,15,10,183,*79
$GPGSV,3,3,11,02,08,130,,22,03,277,,32,01,358,*4E
$GPRMC,073630.000,A,5229.6294,N,01319.4667,E,1.21,202.13,140912,,,A*6C
$GPGGA,073631.000,5229.6287,N,01319.4658,E,1,04,3.9,65.0,M,44.8,M,,0000*6B
$GPGSA,A,3,27,17,14,12,,,,,,,,,8.5,3.9,7.5*32
$GPRMC,073631.000,A,5229.6287,N,01319.4658,E,2.02,214.32,140912,,,A*65
$GPGGA,073632.000,5229.6281,N,01319.4646,E,1,05,3.8,63.3,M,44.8,M,,0000*64
$GPGSA,A,3,27,17,14,09,12,,,,,,,,8.1,3.8,7.1*3A
$GPRMC,073632.000,A,5229.6281,N,01319.4646,E,2.03,230.60,140912,,,A*6F
$GPGGA,073633.000,5229.6276,N,01319.4641,E,1,04,1.7,61.8,M,44.8,M,,0000*6F
$GPGSA,A,3,17,14,09,12,,,,,,,,,2.0,1.7,1.0*3E
$GPRMC,073633.000,A,5229.6276,N,01319.4641,E,1.11,188.54,140912,,,A*66
$GPGGA,073634.000,5229.6274,N,01319.4641,E,1,05,3.8,60.4,M,44.8,M,,0000*6B
$GPGSA,A,3,27,17,14,09,12,,,,,,,,8.1,3.8,7.1*3A
$GPRMC,073635.000,A,5229.6276,N,01319.4637,E,1.16,351.86,140912,,,A*6F
$GPGGA,073636.000,5229.6279,N,01319.4635,E,1,05,3.8,57.8,M,44.8,M,,0000*6F
$GPGSA,A,3,27,17,14,09,12,,,,,,,,8.1,3.8,7.1*3A
$GPRMC,073636.000,A,5229.6279,N,01319.4635,E,1.34,358.75,140912,,,A*64
$GPGGA,073637.000,5229.6275,N,01319.4635,E,1,05,3.8,56.6,M,44.8,M,,0000*6D
$GPGSA,A,3,27,17,14,09,12,,,,,,,,8.1,3.8,7.1*3A
$GPRMC,073637.000,A,5229.6275,N,01319.4635,E,0.98,167.87,140912,,,A*6D
$GPGGA,073638.000,5229.6270,N,01319.4640,E,1,04,3.9,55.7,M,44.8,M,,0000*67
$GPGSA,A,3,27,17,14,12,,,,,,,,,8.5,3.9,7.5*32
$GPRMC,073638.000,A,5229.6270,N,01319.4640,E,1.96,143.93,140912,,,A*69
$GPGGA,073639.000,5229.6262,N,01319.4645,E,1,05,3.8,55.0,M,44.8,M,,0000*67
$GPGSA,A,3,27,17,14,09,12,,,,,,,,8.1,3.8,7.1*3A
$GPRMC,073639.000,A,5229.6262,N,01319.4645,E,2.79,156.71,140912,,,A*64
$GPGGA,073640.000,5229.6252,N,01319.4651,E,1,05,3.8,54.7,M,44.8,M,,0000*69
$GPGSA,A,3,27,17,14,09,12,,,,,,,,8.1,3.8,7.1*3A
$GPGSV,3,1,11,12,68,259,20,09,64,133,17,27,54,132,18,14,34,305,20*7D
$GPGSV,3,2,11,25,28,256,,17,22,045,21,04,18,092,,15,10,183,*79
$GPGSV,3,3,11,02,08,130,,22,03,277,,32,01,358,*4E
$GPRMC,073640.000,A,5229.6252,N,01319.4651,E,3.57,162.83,140912,,,A*6B
$GPGGA,073641.000,5229.6244,N,01319.4655,E,1,05,3.8,54.2,M,44.8,M,,0000*6E
$GPGSA,A,3,27,17,14,09,12,,,,,,,,8.1,3.8,7.1*3A
$GPRMC,073641.000,A,5229.6244,N,01319.4655,E,2.42,162.46,140912,,,A*65
$GPGGA,073642.000,5229.6239,N,01319.4659,E,1,05,3.8,54.2,M,44.8,M,,0000*6B
$GPGSA,A,3,27,17,14,09,12,,,,,,,,8.1,3.8,7.1*3A
$GPRMC,073642.000,A,5229.6239,N,01319.4659,E,1.81,155.74,140912,,,A*69
$GPGGA,073643.000,5229.6236,N,01319.4664,E,1,05,3.8,54.6,M,44.8,M,,0000*6F
$GPGSA,A,3,27,17,14,09,12,,,,,,,,8.0,3.8,7.1*3B
$GPRMC,073643.000,A,5229.6236,N,01319.4664,E,1.50,137.51,140912,,,A*66
$GPGGA,073644.000,5229.6232,N,01319.4666,E,1,05,3.8,54.6,M,44.8,M,,0000*6E
$GPGSA,A,3,27,17,14,09,12,,,,,,,,8.0,3.8,7.1*3B
$GPRMC,073644.000,A,5229.6232,N,01319.4666,E,1.38,162.82,140912,,,A*67
$GPGGA,073645.000,5229.6224,N,01319.4668,E,1,06,1.6,54.1,M,44.8,M,,0000*6E
$GPGSA,A,3,27,17,14,09,12,25,,,,,,,3.1,1.6,2.6*38
$GPGSV,3,1,11,12,68,259,21,09,64,133,16,27,54,132,17,14,34,305,20*72
$GPGSV,3,2,11,25,28,256,14,17,22,045,21,04,18,092,,15,10,183,*7C
$GPGSV,3,3,11,02,08,130,,22,03,277,,32,01,358,*4E
$GPRMC,073645.000,A,5229.6224,N,01319.4668,E,2.14,168.39,140912,,,A*68
$GPGGA,073646.000,5229.6214,N,01319.4670,E,1,06,1.6,52.8,M,44.8,M,,0000*68
$GPGSA,A,3,27,17,14,09,12,25,,,,,,,3.1,1.6,2.6*38
$GPRMC,073646.000,A,5229.6214,N,01319.4670,E,2.71,163.60,140912,,,A*65
$GPGGA,073647.000,5229.6208,N,01319.4669,E,1,06,1.6,51.3,M,44.8,M,,0000*64
$GPGSA,A,3,27,17,14,09,12,25,,,,,,,3.1,1.6,2.6*38
$GPRMC,073647.000,A,5229.6208,N,01319.4669,E,0.93,162.89,140912,,,A*69
$GPGGA,073648.000,5229.6204,N,01319.4669,E,1,06,1.6,49.5,M,44.8,M,,0000*68
$GPGSA,A,3,27,17,14,09,12,25,,,,,,,3.1,1.6,2.6*38
$GPRMC,073649.000,A,5229.6199,N,01319.4670,E,0.98,135.87,140912,,,A*63
$GPGGA,073650.000,5229.6198,N,01319.4668,E,1,05,3.8,46.2,M,44.8,M,,0000*61
$GPGSA,A,3,27,17,14,09,12,,,,,,,,8.0,3.8,7.1*3B
$GPGSV,3,1,11,12,68,259,21,09,64,133,15,27,54,132,16,14,34,305,20*70
$GPGSV,3,2,11,25,28,256,,17,22,045,21,04,18,092,,15,10,183,*79
$GPGSV,3,3,11,02,08,130,,22,03,277,,32,01,358,*4E
$GPRMC,073653.000,A,5229.6189,N,01319.4665,E,1.07,184.73,140912,,,A*6B
$GPGGA,073654.000,5229.6187,N,01319.4666,E,1,04,3.9,42.4,M,44.8,M,,0000*67
$GPGSA,A,3,27,17,14,12,,,,,,,,,8.4,3.9,7.4*32
$GPRMC,073656.000,A,5229.6188,N,01319.4663,E,1.14,9.91,140912,,,A*63
$GPGGA,073657.000,5229.6190,N,01319.4659,E,1,04,1.7,41.3,M,44.8,M,,0000*66
$GPGSA,A,3,17,14,09,12,,,,,,,,,2.0,1.7,1.0*3E
$GPRMC,073657.000,A,5229.6190,N,01319.4659,E,0.85,318.17,140912,,,A*66
$GPGGA,073658.000,5229.6189,N,01319.4661,E,1,04,3.9,40.8,M,44.8,M,,0000*6C
$GPGSA,A,3,27,17,14,12,,,,,,,,,8.3,3.9,7.4*35
$GPRMC,073701.000,A,5229.6183,N,01319.4661,E,1.82,153.63,140912,,,A*65
$GPGGA,073702.000,5229.6176,N,01319.4662,E,1,05,3.8,38.3,M,44.8,M,,0000*65
$GPGSA,A,3,27,17,14,09,12,,,,,,,,8.0,3.8,7.0*3A
$GPRMC,073702.000,A,5229.6176,N,01319.4662,E,2.52,164.21,140912,,,A*63
$GPGGA,073703.000,5229.6170,N,01319.4663,E,1,05,3.8,38.2,M,44.8,M,,0000*62
$GPGSA,A,3,27,17,14,09,12,,,,,,,,7.9,3.8,7.0*3C
$GPRMC,073703.000,A,5229.6170,N,01319.4663,E,2.48,165.74,140912,,,A*6F
$GPGGA,073704.000,5229.6162,N,01319.4664,E,1,05,3.8,38.3,M,44.8,M,,0000*60
$GPGSA,A,3,27,17,14,09,12,,,,,,,,7.9,3.8,7.0*3C
$GPRMC,073704.000,A,5229.6162,N,01319.4664,E,2.66,169.88,140912,,,A*6F
$GPGGA,073705.000,5229.6159,N,01319.4665,E,1,05,3.8,37.9,M,44.8,M,,0000*6D
$GPGSA,A,3,27,17,14,09,12,,,,,,,,7.9,3.8,7.0*3C
$GPGSV,3,1,11,12,68,259,22,09,64,133,15,27,54,132,15,14,34,305,22*72
$GPGSV,3,2,11,25,28,256,,17,22,045,21,04,18,092,,15,10,183,*79
$GPGSV,3,3,11,02,08,130,,22,03,277,,32,01,358,*4E
$GPRMC,073705.000,A,5229.6159,N,01319.4665,E,1.31,159.64,140912,,,A*67
$GPGGA,073706.000,5229.6155,N,01319.4664,E,1,05,3.8,37.3,M,44.8,M,,0000*69
$GPGSA,A,3,27,17,14,09,12,,,,,,,,7.9,3.8,7.0*3C
$GPRMC,073706.000,A,5229.6155,N,01319.4664,E,1.28,172.36,140912,,,A*6F
$GPGGA,073707.000,5229.6151,N,01319.4662,E,1,05,3.8,36.6,M,44.8,M,,0000*6E
$GPGSA,A,3,27,17,14,09,12,,,,,,,,7.9,3.8,7.0*3C
$GPRMC,073707.000,A,5229.6151,N,01319.4662,E,1.32,178.30,140912,,,A*6B
$GPGGA,073708.000,5229.6150,N,01319.4662,E,1,04,3.8,36.1,M,44.8,M,,0000*66
$GPGSA,A,3,27,17,14,12,,,,,,,,,8.3,3.8,7.3*33
$GPRMC,073710.000,A,5229.6147,N,01319.4650,E,1.26,279.98,140912,,,A*6E
$GPGGA,073711.000,5229.6146,N,01319.4643,E,1,04,3.8,35.0,M,44.8,M,,0000*68
$GPGSA,A,3,27,17,14,12,,,,,,,,,8.3,3.8,7.3*33
$GPRMC,073711.000,A,5229.6146,N,01319.4643,E,1.05,258.07,140912,,,A*68
$GPGGA,073712.000,5229.6145,N,01319.4641,E,1,04,3.8,35.2,M,44.8,M,,0000*68
$GPGSA,A,3,27,17,14,12,,,,,,,,,8.2,3.8,7.3*32
$GPRMC,073713.000,A,5229.6145,N,01319.4643,E,0.82,96.04,140912,,,A*54
$GPGGA,073714.000,5229.6146,N,01319.4642,E,1,03,2.6,36.7,M,44.8,M,,0000*60
$GPGSA,A,2,17,14,12,,,,,,,,,,2.8,2.6,1.0*3C
$GPRMC,073716.000,A,5229.6154,N,01319.4635,E,1.76,331.68,140912,,,A*6E
$GPGGA,073717.000,5229.6158,N,01319.4630,E,1,03,2.6,39.1,M,44.8,M,,0000*60
$GPGSA,A,2,17,14,12,,,,,,,,,,2.8,2.6,1.0*3C
$GPRMC,073717.000,A,5229.6158,N,01319.4630,E,1.05,313.64,140912,,,A*6E
$GPGGA,073718.000,5229.6163,N,01319.4623,E,1,04,3.8,40.0,M,44.8,M,,0000*62
$GPGSA,A,3,27,17,14,12,,,,,,,,,8.2,3.8,7.3*32
$GPRMC,073718.000,A,5229.6163,N,01319.4623,E,1.60,320.12,140912,,,A*69
$GPGGA,073719.000,5229.6170,N,01319.4618,E,1,04,3.8,40.8,M,44.8,M,,0000*61
$GPGSA,A,3,27,17,14,12,,,,,,,,,8.2,3.8,7.3*32
$GPRMC,073719.000,A,5229.6170,N,01319.4618,E,1.52,332.40,140912,,,A*67
$GPGGA,073720.000,5229.6175,N,01319.4616,E,1,04,3.8,41.4,M,44.8,M,,0000*6D
$GPGSA,A,3,27,17,14,12,,,,,,,,,8.2,3.8,7.3*32
$GPGSV,3,1,11,12,68,259,23,09,64,133,18,27,54,132,18,14,34,305,21*70
$GPGSV,3,2,11,25,28,256,,17,22,045,22,04,18,092,,15,10,183,*7A
$GPGSV,3,3,11,02,08,130,,22,03,277,,32,01,358,*4E
$GPRMC,073720.000,A,5229.6175,N,01319.4616,E,1.18,4.90,140912,,,A*63
$GPGGA,073721.000,5229.6179,N,01319.4614,E,1,05,3.7,41.9,M,44.8,M,,0000*61
$GPGSA,A,3,27,17,14,09,12,,,,,,,,7.9,3.7,6.9*3B
$GPRMC,073723.000,A,5229.6187,N,01319.4620,E,1.15,91.04,140912,,,A*54
$GPGGA,073724.000,5229.6191,N,01319.4625,E,1,04,3.8,45.9,M,44.8,M,,0000*6A
$GPGSA,A,3,27,17,14,12,,,,,,,,,8.2,3.8,7.2*33
$GPRMC,073724.000,A,5229.6191,N,01319.4625,E,1.06,93.99,140912,,,A*55
$GPGGA,073725.000,5229.6194,N,01319.4630,E,1,04,3.8,47.6,M,44.8,M,,0000*67
$GPGSA,A,3,27,17,14,12,,,,,,,,,8.2,3.8,7.2*33
$GPGSV,3,1,11,12,68,259,24,09,64,133,17,27,54,132,18,14,34,305,21*78
$GPGSV,3,2,11,25,28,256,,17,22,045,22,04,18,092,,15,10,183,*7A
$GPGSV,3,3,11,02,08,130,,22,03,277,,32,01,358,*4E
$GPRMC,073725.000,A,5229.6194,N,01319.4630,E,0.87,88.17,140912,,,A*51
$GPGGA,073726.000,5229.6202,N,01319.4635,E,1,05,3.7,49.6,M,44.8,M,,0000*6D
$GPGSA,A,3,27,17,14,09,12,,,,,,,,7.8,3.7,6.9*3A
$GPRMC,073726.000,A,5229.6202,N,01319.4635,E,1.49,28.70,140912,,,A*53
$GPGGA,073727.000,5229.6208,N,01319.4639,E,1,05,3.7,51.4,M,44.8,M,,0000*61
$GPGSA,A,3,27,17,14,09,12,,,,,,,,7.8,3.7,6.9*3A
$GPRMC,073727.000,A,5229.6208,N,01319.4639,E,1.07,22.88,140912,,,A*53
$GPGGA,073728.000,5229.6217,N,01319.4642,E,1,05,3.7,53.4,M,44.8,M,,0000*6E
$GPGSA,A,3,27,17,14,09,12,,,,,,,,7.8,3.7,6.9*3A
$GPRMC,073728.000,A,5229.6217,N,01319.4642,E,1.70,356.99,140912,,,A*6E
$GPGGA,073729.000,5229.6225,N,01319.4643,E,1,05,3.7,55.4,M,44.8,M,,0000*69
$GPGSA,A,3,27,17,14,09,12,,,,,,,,7.8,3.7,6.9*3A
$GPRMC,073729.000,A,5229.6225,N,01319.4643,E,1.77,340.44,140912,,,A*6F
$GPGGA,073730.000,5229.6235,N,01319.4644,E,1,04,1.7,57.1,M,44.8,M,,0000*63
$GPGSA,A,3,17,14,09,12,,,,,,,,,2.0,1.7,1.0*3E
$GPGSV,3,1,11,12,68,259,24,09,64,133,16,27,54,132,18,14,34,305,20*78
