$GPRMC,094640.000,A,6325.2624,N,01900.6281,W,1.19,342.58,010912,,,A*7C
$GPGGA,094641.000,6325.2630,N,01900.6286,W,1,09,0.9,29.3,M,60.2,M,,0000*7B
$GPGSA,A,3,25,14,32,29,12,04,20,31,02,,,,1.8,0.9,1.6*38
$GPGSV,3,1,10,25,72,190,35,12,54,083,43,14,47,212,31,31,39,281,36*7B
$GPGSV,3,2,10,29,23,165,30,32,23,306,31,04,18,042,28,20,16,335,29*7F
$GPGSV,3,3,10,02,13,083,32,09,05,117,*79
$GPRMC,094641.000,A,6325.2630,N,01900.6286,W,2.19,334.66,010912,,,A*70
$GPGGA,094642.000,6325.2637,N,01900.6298,W,1,09,0.9,29.2,M,60.2,M,,0000*71
$GPGSA,A,3,25,14,32,29,12,04,20,31,02,,,,1.8,0.9,1.6*38
$GPRMC,094642.000,A,6325.2637,N,01900.6298,W,3.25,323.94,010912,,,A*7E
$GPGGA,094643.000,6325.2644,N,01900.6314,W,1,09,0.9,29.1,M,60.2,M,,0000*72
$GPGSA,A,3,25,14,32,29,12,04,20,31,02,,,,1.8,0.9,1.6*38
$GPRMC,094643.000,A,6325.2644,N,01900.6314,W,3.69,314.04,010912,,,A*7B
$GPGGA,094644.000,6325.2650,N,01900.6333,W,1,09,0.9,29.1,M,60.2,M,,0000*75
$GPGSA,A,3,25,14,32,29,12,04,20,31,02,,,,1.8,0.9,1.6*38
$GPRMC,094644.000,A,6325.2650,N,01900.6333,W,3.86,306.47,010912,,,A*79
$GPGGA,094645.000,6325.2656,N,01900.6355,W,1,09,0.9,29.1,M,60.2,M,,0000*72
$GPGSA,A,3,25,14,32,29,12,04,20,31,02,,,,1.8,0.9,1.6*38
$GPRMC,094645.000,A,6325.2656,N,01900.6355,W,4.27,299.02,010912,,,A*74
$GPGGA,094646.000,6325.2658,N,01900.6378,W,1,07,1.4,29.0,M,60.2,M,,0000*73
$GPGSA,A,3,25,14,32,12,04,20,02,,,,,,2.6,1.4,2.2*37
$GPGSV,3,1,10,25,72,189,35,12,54,083,36,14,47,212,34,31,39,281,*71
$GPGSV,3,2,10,29,23,165,,32,23,306,32,04,18,042,34,20,16,335,32*78
$GPGSV,3,3,10,02,13,083,23,09,05,117,19*71
$GPRMC,094646.000,A,6325.2658,N,01900.6378,W,3.82,281.65,010912,,,A*76
$GPGGA,094647.000,6325.2656,N,01900.6401,W,1,09,0.9,29.0,M,60.2,M,,0000*77
$GPGSA,A,3,25,14,32,29,12,04,20,31,02,,,,1.8,0.9,1.6*38
$GPRMC,094647.000,A,6325.2656,N,01900.6401,W,3.79,259.44,010912,,,A*72
$GPGGA,094648.000,6325.2651,N,01900.6420,W,1,09,0.9,28.9,M,60.2,M,,0000*74
$GPGSA,A,3,25,14,32,29,12,04,20,31,02,,,,1.8,0.9,1.6*38
$GPRMC,094648.000,A,6325.2651,N,01900.6420,W,3.64,238.28,010912,,,A*78
$GPGGA,094649.000,6325.2643,N,01900.6434,W,1,09,0.9,28.9,M,60.2,M,,0000*73
$GPGSA,A,3,25,14,32,29,12,04,20,31,02,,,,1.8,0.9,1.6*38
$GPRMC,094649.000,A,6325.2643,N,01900.6434,W,3.98,214.55,010912,,,A*78
$GPGGA,094650.000,6325.2632,N,01900.6440,W,1,09,0.9,28.9,M,60.2,M,,0000*7E
$GPGSA,A,3,25,14,32,29,12,04,20,31,02,,,,1.8,0.9,1.6*38
$GPRMC,094650.000,A,6325.2632,N,01900.6440,W,3.96,192.16,010912,,,A*71
$GPGGA,094651.000,6325.2622,N,01900.6436,W,1,09,0.9,28.8,M,60.2,M,,0000*7E
$GPGSA,A,3,25,14,32,29,12,04,20,31,02,,,,1.8,0.9,1.6*38
$GPGSV,3,1,10,25,72,189,33,12,54,083,35,14,47,212,35,31,39,281,39*7F
$GPGSV,3,2,10,29,23,165,31,32,23,306,32,04,18,042,31,20,16,335,32*7F
$GPGSV,3,3,10,02,13,083,34,09,05,117,28*75
$GPRMC,094651.000,A,6325.2622,N,01900.6436,W,3.93,167.28,010912,,,A*72
$GPGGA,094652.000,6325.2613,N,01900.6423,W,1,09,0.9,28.8,M,60.2,M,,0000*7B
$GPGSA,A,3,25,14,32,29,12,04,20,31,02,,,,1.8,0.9,1.6*38
$GPRMC,094652.000,A,6325.2613,N,01900.6423,W,3.97,144.99,010912,,,A*78
$GPGGA,094653.000,6325.2606,N,01900.6405,W,1,09,0.9,28.7,M,60.2,M,,0000*75
$GPGSA,A,3,25,14,32,29,12,04,20,31,02,,,,1.8,0.9,1.6*38
$GPRMC,094653.000,A,6325.2606,N,01900.6405,W,3.99,126.35,010912,,,A*75
$GPGGA,094654.000,6325.2601,N,01900.6384,W,1,09,0.9,28.5,M,60.2,M,,0000*79
$GPGSA,A,3,25,14,32,29,12,04,20,31,02,,,,1.8,0.9,1.6*38
$GPRMC,094654.000,A,6325.2601,N,01900.6384,W,4.04,118.85,010912,,,A*7E
$GPGGA,094655.000,6325.2595,N,01900.6365,W,1,09,0.9,28.4,M,60.2,M,,0000*78
$GPGSA,A,3,25,14,32,29,12,04,20,31,02,,,,1.8,0.9,1.6*38
$GPRMC,094655.000,A,6325.2595,N,01900.6365,W,4.08,125.02,010912,,,A*73
$GPGGA,094656.000,6325.2587,N,01900.6349,W,1,09,0.9,28.2,M,60.2,M,,0000*70
$GPGSA,A,3,25,14,32,29,12,04,20,31,02,,,,1.8,0.9,1.6*38
$GPGSV,3,1,10,25,72,189,41,12,54,083,33,14,47,212,41,31,39,281,29*7E
$GPGSV,3,2,10,29,23,165,32,32,23,306,28,04,18,042,33,20,16,335,29*7F
$GPGSV,3,3,10,02,13,083,32,09,05,117,34*7E
$GPRMC,094656.000,A,6325.2587,N,01900.6349,W,3.85,135.31,010912,,,A*7E
$GPGGA,094657.000,6325.2580,N,01900.6341,W,1,09,0.9,28.1,M,60.2,M,,0000*7D
$GPGSA,A,3,25,14,32,29,12,04,20,31,02,,,,1.8,0.9,1.6*38
$GPRMC,094657.000,A,6325.2580,N,01900.6341,W,3.01,153.52,010912,,,A*79
$GPGGA,094658.000,6325.2570,N,01900.6334,W,1,09,0.9,28.0,M,60.2,M,,0000*7E
$GPGSA,A,3,25,14,32,29,12,04,20,31,02,,,,1.8,0.9,1.6*38
$GPRMC,094658.000,A,6325.2570,N,01900.6334,W,3.70,160.66,010912,,,A*7A
$GPGGA,094659.000,6325.2560,N,01900.6331,W,1,09,0.9,27.8,M,60.2,M,,0000*7C
$GPGSA,A,3,25,14,32,29,12,04,20,31,02,,,,1.8,0.9,1.6*38
$GPRMC,094659.000,A,6325.2560,N,01900.6331,W,3.71,169.07,010912,,,A*70
$GPGGA,094700.000,6325.2551,N,01900.6329,W,1,08,1.0,27.6,M,60.2,M,,0000*7D
$GPGSA,A,3,25,14,29,12,04,20,31,02,,,,,1.9,1.0,1.6*30
$GPRMC,094700.000,A,6325.2551,N,01900.6329,W,3.37,175.38,010912,,,A*75
$GPGGA,094701.000,6325.2542,N,01900.6329,W,1,09,0.9,27.5,M,60.2,M,,0000*74
$GPGSA,A,3,25,14,32,29,12,04,20,31,02,,,,1.8,0.9,1.6*38
$GPGSV,3,1,10,25,72,189,41,12,54,083,40,14,47,212,27,31,39,281,41*74
$GPGSV,3,2,10,29,23,165,33,32,23,306,31,04,18,042,33,20,16,335,29*76
$GPGSV,3,3,10,02,13,083,29,09,05,117,32*72
$GPRMC,094701.000,A,6325.2542,N,01900.6329,W,3.14,177.07,010912,,,A*79
$GPGGA,094702.000,6325.2533,N,01900.6327,W,1,08,1.0,27.3,M,60.2,M,,0000*70
$GPGSA,A,3,25,14,32,29,12,04,31,02,,,,,1.9,1.0,1.6*33
$GPRMC,094702.000,A,6325.2533,N,01900.6327,W,3.25,173.55,010912,,,A*73
$GPGGA,094703.000,6325.2522,N,01900.6321,W,1,09,0.9,27.2,M,60.2,M,,0000*7F
$GPGSA,A,3,25,14,32,29,12,04,20,31,02,,,,1.8,0.9,1.6*38
$GPRMC,094703.000,A,6325.2522,N,01900.6321,W,4.17,165.94,010912,,,A*78
$GPGGA,094704.000,6325.2508,N,01900.6307,W,1,09,0.9,27.1,M,60.2,M,,0000*77
$GPGSA,A,3,25,14,32,29,12,04,20,31,02,,,,1.8,0.9,1.6*38
$GPRMC,094704.000,A,6325.2508,N,01900.6307,W,5.61,153.56,010912,,,A*78
$GPGGA,094705.000,6325.2494,N,01900.6279,W,1,08,1.0,27.0,M,60.2,M,,0000*72
$GPGSA,A,3,25,14,32,29,12,04,20,31,,,,,2.0,1.0,1.7*38
$GPRMC,094705.000,A,6325.2494,N,01900.6279,W,6.67,135.80,010912,,,A*7B
$GPGGA,094706.000,6325.2482,N,01900.6238,W,1,09,0.9,26.7,M,60.2,M,,0000*7C
$GPGSA,A,3,25,14,32,29,12,04,20,31,02,,,,1.8,0.9,1.6*38
$GPGSV,3,1,10,25,72,189,41,12,54,083,40,14,47,212,38,31,39,281,28*75
$GPGSV,3,2,10,29,23,165,33,32,23,306,30,04,18,042,33,20,16,335,26*78
$GPGSV,3,3,10,02,13,083,30,09,05,117,*7B
$GPRMC,094706.000,A,6325.2482,N,01900.6238,W,8.12,123.08,010912,,,A*71
$GPGGA,094707.000,6325.2470,N,01900.6186,W,1,09,0.9,26.3,M,60.2,M,,0000*72
$GPGSA,A,3,25,14,32,29,12,04,20,31,02,,,,1.8,0.9,1.6*38
$GPRMC,094707.000,A,6325.2470,N,01900.6186,W,9.58,115.32,010912,,,A*78
$GPGGA,094708.000,6325.2459,N,01900.6124,W,1,09,0.9,25.9,M,60.2,M,,0000*77
$GPGSA,A,3,25,14,32,29,12,04,20,31,02,,,,1.8,0.9,1.6*38
$GPRMC,094708.000,A,6325.2459,N,01900.6124,W,10.95,110.27,010912,,,A*4C
$GPGGA,094709.000,6325.2449,N,01900.6056,W,1,09,0.9,25.4,M,60.2,M,,0000*7E
$GPGSA,A,3,25,14,32,29,12,04,20,31,02,,,,1.8,0.9,1.6*38
$GPRMC,094709.000,A,6325.2449,N,01900.6056,W,11.66,107.50,010912,,,A*43
$GPGGA,094710.000,6325.2439,N,01900.5986,W,1,09,0.9,24.9,M,60.2,M,,0000*7A
$GPGSA,A,3,25,14,32,29,12,04,20,31,02,,,,1.8,0.9,1.6*38
$GPRMC,094710.000,A,6325.2439,N,01900.5986,W,12.06,106.29,010912,,,A*41
$GPGGA,094711.000,6325.2428,N,01900.5912,W,1,09,0.9,24.3,M,60.2,M,,0000*7C
$GPGSA,A,3,25,14,32,29,12,04,20,31,02,,,,1.8,0.9,1.6*38
$GPGSV,3,1,10,25,72,189,33,12,54,083,41,14,47,212,43,31,39,281,31*75
$GPGSV,3,2,10,29,23,165,32,32,23,306,23,04,18,042,30,20,16,335,25*7B
$GPGSV,3,3,10,02,13,083,32,09,05,117,35*7F
$GPRMC,094711.000,A,6325.2428,N,01900.5912,W,12.67,107.26,010912,,,A*44
$GPGGA,094712.000,6325.2417,N,01900.5835,W,1,09,0.9,23.8,M,60.2,M,,0000*7B
$GPGSA,A,3,25,14,32,29,12,04,20,31,02,,,,1.8,0.9,1.6*38
$GPRMC,094712.000,A,6325.2417,N,01900.5835,W,13.01,107.45,010912,,,A*4B
$GPGGA,094713.000,6325.2406,N,01900.5758,W,1,09,0.9,23.2,M,60.2,M,,0000*74
$GPGSA,A,3,25,14,32,29,12,04,20,31,02,,,,1.8,0.9,1.6*38
$GPRMC,094713.000,A,6325.2406,N,01900.5758,W,13.10,107.45,010912,,,A*4E
$GPGGA,094714.000,6325.2394,N,01900.5680,W,1,09,0.9,22.7,M,60.2,M,,0000*7F
$GPGSA,A,3,25,14,32,29,12,04,20,31,02,,,,1.8,0.9,1.6*38
$GPRMC,094714.000,A,6325.2394,N,01900.5680,W,13.40,107.94,010912,,,A*48
$GPGGA,094715.000,6325.2381,N,01900.5598,W,1,09,0.9,22.2,M,60.2,M,,0000*75
$GPGSA,A,3,25,14,32,29,12,04,20,31,02,,,,1.8,0.9,1.6*38
$GPRMC,094715.000,A,6325.2381,N,01900.5598,W,13.91,108.95,010912,,,A*45
$GPGGA,094716.000,6325.2367,N,01900.5516,W,1,09,0.9,21.6,M,60.2,M,,0000*7F
$GPGSA,A,3,25,14,32,29,12,04,20,31,02,,,,1.8,0.9,1.6*38
$GPGSV,3,1,10,25,72,189,41,12,54,083,41,14,47,212,44,31,39,281,33*75
$GPGSV,3,2,10,29,23,165,31,32,23,305,24,04,18,042,23,20,16,335,25*7E
$GPGSV,3,3,10,02,14,083,33,09,05,117,24*79
$GPRMC,094716.000,A,6325.2367,N,01900.5516,W,14.23,110.56,010912,,,A*40
$GPGGA,094717.000,6325.2351,N,01900.5433,W,1,09,0.9,21.1,M,60.2,M,,0000*7A
$GPGSA,A,3,25,14,32,29,12,04,20,31,02,,,,1.8,0.9,1.6*38
$GPRMC,094717.000,A,6325.2351,N,01900.5433,W,14.59,112.65,010912,,,A*4D
$GPGGA,094718.000,6325.2333,N,01900.5349,W,1,09,0.9,20.6,M,60.2,M,,0000*7D
$GPGSA,A,3,25,14,32,29,12,04,20,31,02,,,,1.8,0.9,1.6*38
$GPRMC,094718.000,A,6325.2333,N,01900.5349,W,14.99,115.61,010912,,,A*43
$GPGGA,094719.000,6325.2312,N,01900.5266,W,1,09,0.9,20.2,M,60.2,M,,0000*77
$GPGSA,A,3,25,14,32,29,12,04,20,31,02,,,,1.8,0.9,1.6*38
$GPRMC,094719.000,A,6325.2312,N,01900.5266,W,15.28,119.17,010912,,,A*4B
$GPGGA,094720.000,6325.2289,N,01900.5186,W,1,09,0.9,19.7,M,60.2,M,,0000*7C
$GPGSA,A,3,25,14,32,29,12,04,20,31,02,,,,1.8,0.9,1.6*38
$GPRMC,094720.000,A,6325.2289,N,01900.5186,W,15.41,122.46,010912,,,A*4C
$GPGGA,094721.000,6325.2263,N,01900.5108,W,1,09,0.9,19.3,M,60.2,M,,0000*7B
$GPGSA,A,3,25,14,32,29,12,04,20,31,02,,,,1.8,0.9,1.6*38
$GPGSV,3,1,10,25,72,189,43,12,54,083,31,14,47,212,44,31,39,281,22*70
$GPGSV,3,2,10,29,23,165,37,32,23,305,29,04,18,042,30,20,16,335,33*70
$GPGSV,3,3,10,02,14,083,25,09,05,117,33*78
$GPRMC,094721.000,A,6325.2263,N,01900.5108,W,15.51,126.79,010912,,,A*46
$GPGGA,094722.000,6325.2235,N,01900.5036,W,1,09,0.9,19.0,M,60.2,M,,0000*74
$GPGSA,A,3,25,14,32,29,12,04,20,31,02,,,,1.8,0.9,1.6*38
$GPRMC,094722.000,A,6325.2235,N,01900.5036,W,15.45,131.61,010912,,,A*40
$GPGGA,094723.000,6325.2205,N,01900.4969,W,1,09,0.9,18.7,M,60.2,M,,0000*72
$GPGSA,A,3,25,14,32,29,12,04,20,31,02,,,,1.8,0.9,1.6*38
$GPRMC,094723.000,A,6325.2205,N,01900.4969,W,15.24,134.69,010912,,,A*4A
$GPGGA,094724.000,6325.2173,N,01900.4901,W,1,09,0.9,18.4,M,60.2,M,,0000*7A
$GPGSA,A,3,25,14,32,29,12,04,20,31,02,,,,1.8,0.9,1.6*38
$GPRMC,094724.000,A,6325.2173,N,01900.4901,W,15.68,136.45,010912,,,A*45
$GPGGA,094725.000,6325.2142,N,01900.4837,W,1,09,0.9,18.2,M,60.2,M,,0000*7B
$GPGSA,A,3,25,14,32,29,12,04,20,31,02,,,,1.8,0.9,1.6*38
$GPRMC,094725.000,A,6325.2142,N,01900.4837,W,15.45,138.00,010912,,,A*42
$GPGGA,094726.000,6325.2109,N,01900.4773,W,1,09,0.9,18.0,M,60.2,M,,0000*7A
$GPGSA,A,3,25,14,32,29,12,04,20,31,02,,,,1.8,0.9,1.6*38
$GPGSV,3,1,10,25,72,189,44,12,54,083,41,14,47,212,43,31,39,281,38*7C
$GPGSV,3,2,10,29,23,165,35,32,23,305,23,04,18,042,29,20,16,335,21*73
$GPGSV,3,3,10,02,14,083,31,09,05,117,27*78
$GPRMC,094726.000,A,6325.2109,N,01900.4773,W,15.77,139.23,010912,,,A*40
$GPGGA,094727.000,6325.2074,N,01900.4707,W,1,09,0.9,17.8,M,60.2,M,,0000*74
$GPGSA,A,3,25,14,32,29,12,04,20,31,02,,,,1.8,0.9,1.6*38
$GPRMC,094727.000,A,6325.2074,N,01900.4707,W,16.19,139.39,010912,,,A*49
$GPGGA,094728.000,6325.2041,N,01900.4642,W,1,09,0.9,17.7,M,60.2,M,,0000*72
$GPGSA,A,3,25,14,32,29,12,04,20,31,02,,,,1.8,0.9,1.6*38
$GPRMC,094728.000,A,6325.2041,N,01900.4642,W,16.08,139.24,010912,,,A*4C
$GPGGA,094729.000,6325.2008,N,01900.4579,W,1,09,0.9,17.6,M,60.2,M,,0000*74
$GPGSA,A,3,25,14,32,29,12,04,20,31,02,,,,1.8,0.9,1.6*38
$GPRMC,094729.000,A,6325.2008,N,01900.4579,W,15.58,139.21,010912,,,A*48
$GPGGA,094730.000,6325.1977,N,01900.4519,W,1,09,0.9,17.5,M,60.2,M,,0000*7B
$GPGSA,A,3,25,14,32,29,12,04,20,31,02,,,,1.8,0.9,1.6*38
$GPRMC,094730.000,A,6325.1977,N,01900.4519,W,14.73,139.41,010912,,,A*4A
$GPGGA,094731.000,6325.1947,N,01900.4464,W,1,09,0.9,17.5,M,60.2,M,,0000*72
$GPGSA,A,3,25,14,32,29,12,04,20,31,02,,,,1.8,0.9,1.6*38
$GPGSV,3,1,10,25,72,189,44,12,54,083,41,14,47,212,42,31,39,281,40*72
$GPGSV,3,2,10,29,23,165,32,32,23,305,28,04,18,042,29,20,16,335,22*7C
$GPGSV,3,3,10,02,14,083,31,09,05,117,28*77
$GPRMC,094731.000,A,6325.1947,N,01900.4464,W,13.78,140.35,010912,,,A*42
$GPGGA,094732.000,6325.1921,N,01900.4415,W,1,09,0.9,17.5,M,60.2,M,,0000*77
$GPGSA,A,3,25,14,32,29,12,04,20,31,02,,,,1.8,0.9,1.6*38
$GPRMC,094732.000,A,6325.1921,N,01900.4415,W,12.22,140.84,010912,,,A*43
$GPGGA,094733.000,6325.1896,N,01900.4378,W,1,09,0.9,17.5,M,60.2,M,,0000*77
$GPGSA,A,3,25,14,32,29,12,04,20,31,02,,,,1.8,0.9,1.6*38
$GPRMC,094733.000,A,6325.1896,N,01900.4378,W,10.70,146.81,010912,,,A*45
$GPGGA,094734.000,6325.1870,N,01900.4357,W,1,09,0.9,17.5,M,60.2,M,,0000*75
$GPGSA,A,3,25,14,32,29,12,04,20,31,02,,,,1.8,0.9,1.6*38
$GPRMC,094734.000,A,6325.1870,N,01900.4357,W,9.70,160.50,010912,,,A*77
$GPGGA,094735.000,6325.1845,N,01900.4353,W,1,09,0.9,17.5,M,60.2,M,,0000*76
$GPGSA,A,3,25,14,32,29,12,04,20,31,02,,,,1.8,0.9,1.6*38
$GPRMC,094735.000,A,6325.1845,N,01900.4353,W,9.05,177.83,010912,,,A*7E
$GPGGA,094736.000,6325.1820,N,01900.4368,W,1,09,0.9,17.6,M,60.2,M,,0000*7D
$GPGSA,A,3,25,14,32,29,12,04,20,31,02,,,,1.8,0.9,1.6*38
$GPGSV,3,1,10,25,72,189,37,12,54,083,31,14,47,212,33,31,39,281,40*77
$GPGSV,3,2,10,29,23,165,32,32,23,305,31,04,18,042,30,20,16,335,29*77
$GPGSV,3,3,10,02,14,083,32,09,05,117,26*7A
$GPRMC,094736.000,A,6325.1820,N,01900.4368,W,9.28,196.95,010912,,,A*71
$GPGGA,094737.000,6325.1799,N,01900.4400,W,1,08,1.0,17.7,M,60.2,M,,0000*70
$GPGSA,A,3,25,14,29,12,04,20,31,02,,,,,1.9,1.0,1.6*30
$GPRMC,094737.000,A,6325.1799,N,01900.4400,W,9.43,215.63,010912,,,A*78
$GPGGA,094738.000,6325.1780,N,01900.4444,W,1,09,0.9,17.7,M,60.2,M,,0000*7E
$GPGSA,A,3,25,14,32,29,12,04,20,31,02,,,,1.8,0.9,1.6*38
$GPRMC,094738.000,A,6325.1780,N,01900.4444,W,9.95,228.70,010912,,,A*78
$GPGGA,094739.000,6325.1762,N,01900.4492,W,1,09,0.9,17.8,M,60.2,M,,0000*77
$GPGSA,A,3,25,14,32,29,12,04,20,31,02,,,,1.8,0.9,1.6*38
$GPRMC,094739.000,A,6325.1762,N,01900.4492,W,10.16,231.34,010912,,,A*45
$GPGGA,094740.000,6325.1745,N,01900.4541,W,1,09,0.9,17.8,M,60.2,M,,0000*73
$GPGSA,A,3,25,14,32,29,12,04,20,31,02,,,,1.8,0.9,1.6*38
$GPRMC,094740.000,A,6325.1745,N,01900.4541,W,10.35,232.36,010912,,,A*41
$GPGGA,094741.000,6325.1726,N,01900.4593,W,1,08,1.0,17.8,M,60.2,M,,0000*71
$GPGSA,A,3,25,14,32,29,12,04,31,02,,,,,1.9,1.0,1.6*33
$GPGSV,3,1,10,25,72,189,39,12,54,083,30,14,47,212,27,31,39,281,31*7B
$GPGSV,3,2,10,29,23,165,26,32,23,305,31,04,18,042,30,20,16,335,*79
$GPGSV,3,3,10,02,14,083,31,09,05,117,23*7C
$GPRMC,094741.000,A,6325.1726,N,01900.4593,W,10.80,232.58,010912,,,A*4C
$GPGGA,094742.000,6325.1706,N,01900.4649,W,1,08,1.0,17.8,M,60.2,M,,0000*74
$GPGSA,A,3,25,20,32,29,12,04,31,02,,,,,1.9,1.0,1.6*34
$GPRMC,094742.000,A,6325.1706,N,01900.4649,W,11.62,232.51,010912,,,A*4D
$GPGGA,094743.000,6325.1686,N,01900.4708,W,1,09,0.9,17.8,M,60.2,M,,0000*71
$GPGSA,A,3,25,20,32,29,12,04,14,31,02,,,,1.8,0.9,1.6*38
$GPRMC,094743.000,A,6325.1686,N,01900.4708,W,12.14,233.64,010912,,,A*44
$GPGGA,094744.000,6325.1666,N,01900.4769,W,1,09,0.9,17.8,M,60.2,M,,0000*7F
$GPGSA,A,3,25,20,32,29,12,04,14,31,02,,,,1.8,0.9,1.6*38
$GPRMC,094744.000,A,6325.1666,N,01900.4769,W,12.16,234.35,010912,,,A*4B
$GPGGA,094745.000,6325.1647,N,01900.4829,W,1,09,0.9,17.8,M,60.2,M,,0000*76
$GPGSA,A,3,25,20,32,29,12,04,14,31,02,,,,1.8,0.9,1.6*38
$GPRMC,094745.000,A,6325.1647,N,01900.4829,W,12.05,234.93,010912,,,A*4C
$GPGGA,094746.000,6325.1627,N,01900.4893,W,1,09,0.9,17.6,M,60.2,M,,0000*7C
$GPGSA,A,3,25,20,32,29,12,04,14,31,02,,,,1.8,0.9,1.6*38
$GPGSV,3,1,10,25,72,189,41,12,54,083,24,14,47,212,33,31,39,281,25*71
$GPGSV,3,2,10,29,23,165,27,32,23,305,23,04,18,042,24,20,16,335,32*7F
$GPGSV,3,3,10,02,14,083,19,09,05,117,30*74
$GPRMC,094746.000,A,6325.1627,N,01900.4893,W,12.74,235.57,010912,,,A*47
$GPGGA,094747.000,6325.1606,N,01900.4963,W,1,09,0.9,17.5,M,60.2,M,,0000*73
$GPGSA,A,3,25,20,32,29,12,04,14,31,02,,,,1.8,0.9,1.6*38
$GPRMC,094747.000,A,6325.1606,N,01900.4963,W,13.70,235.85,010912,,,A*41
$GPGGA,094748.000,6325.1582,N,01900.5040,W,1,09,0.9,17.2,M,60.2,M,,0000*7D
$GPGSA,A,3,25,20,32,29,12,04,14,31,02,,,,1.8,0.9,1.6*38
$GPRMC,094748.000,A,6325.1582,N,01900.5040,W,15.27,235.76,010912,,,A*40
$GPGGA,094749.000,6325.1556,N,01900.5122,W,1,09,0.9,17.0,M,60.2,M,,0000*72
$GPGSA,A,3,25,20,32,29,12,04,14,31,02,,,,1.8,0.9,1.6*38
$GPRMC,094749.000,A,6325.1556,N,01900.5122,W,16.18,235.18,010912,,,A*4A
$GPGGA,094750.000,6325.1530,N,01900.5206,W,1,08,1.0,16.8,M,60.2,M,,0000*7F
$GPGSA,A,3,25,32,29,12,04,14,31,02,,,,,1.9,1.0,1.6*33
$GPRMC,094750.000,A,6325.1530,N,01900.5206,W,16.60,235.12,010912,,,A*42
$GPGGA,094751.000,6325.1502,N,01900.5290,W,1,09,0.9,16.7,M,60.2,M,,0000*76
$GPGSA,A,3,25,20,32,29,12,04,14,31,02,,,,1.8,0.9,1.6*38
$GPGSV,3,1,10,25,72,189,41,12,54,083,30,14,47,212,28,31,39,281,32*78
$GPGSV,3,2,10,29,23,165,30,32,23,305,16,04,18,042,26,20,16,335,13*7E
$GPGSV,3,3,10,02,14,083,29,09,05,117,*74
$GPRMC,094751.000,A,6325.1502,N,01900.5290,W,16.94,233.52,010912,,,A*44
$GPGGA,094752.000,6325.1473,N,01900.5374,W,1,09,0.9,16.7,M,60.2,M,,0000*79
$GPGSA,A,3,25,20,32,29,12,04,14,31,02,,,,1.8,0.9,1.6*38
$GPRMC,094752.000,A,6325.1473,N,01900.5374,W,17.14,232.77,010912,,,A*44
$GPGGA,094753.000,6325.1444,N,01900.5459,W,1,09,0.9,16.7,M,60.2,M,,0000*74
$GPGSA,A,3,25,20,32,29,12,04,14,31,02,,,,1.8,0.9,1.6*38
$GPRMC,094753.000,A,6325.1444,N,01900.5459,W,17.15,232.73,010912,,,A*4C
$GPGGA,094754.000,6325.1417,N,01900.5546,W,1,09,0.9,16.7,M,60.2,M,,0000*7A
$GPGSA,A,3,25,20,32,29,12,04,14,31,02,,,,1.8,0.9,1.6*38
$GPRMC,094754.000,A,6325.1417,N,01900.5546,W,16.96,235.42,010912,,,A*4D
$GPGGA,094755.000,6325.1390,N,01900.5631,W,1,09,0.9,16.7,M,60.2,M,,0000*70
$GPGSA,A,3,25,20,32,29,12,04,14,31,02,,,,1.8,0.9,1.6*38
$GPRMC,094755.000,A,6325.1390,N,01900.5631,W,16.74,234.73,010912,,,A*48
$GPGGA,094756.000,6325.1362,N,01900.5715,W,1,09,0.9,16.7,M,60.2,M,,0000*79
$GPGSA,A,3,25,20,32,29,12,04,14,31,02,,,,1.8,0.9,1.6*38
$GPGSV,3,1,10,25,72,189,41,12,54,083,29,14,47,212,29,31,39,281,33*70
$GPGSV,3,2,10,29,23,165,32,32,23,305,15,04,18,042,28,20,16,335,19*7B
$GPGSV,3,3,10,02,14,083,23,09,05,117,21*7D
$GPRMC,094756.000,A,6325.1362,N,01900.5715,W,16.64,234.06,010912,,,A*42
$GPGGA,094757.000,6325.1336,N,01900.5799,W,1,09,0.9,16.8,M,60.2,M,,0000*72
$GPGSA,A,3,25,20,32,29,12,04,14,31,02,,,,1.8,0.9,1.6*38
$GPRMC,094757.000,A,6325.1336,N,01900.5799,W,16.50,235.13,010912,,,A*44
$GPGGA,094758.000,6325.1310,N,01900.5882,W,1,09,0.9,16.8,M,60.2,M,,0000*7C
$GPGSA,A,3,25,20,32,29,12,04,14,31,02,,,,1.8,0.9,1.6*38
$GPRMC,094758.000,A,6325.1310,N,01900.5882,W,16.25,235.37,010912,,,A*4E
$GPGGA,094759.000,6325.1283,N,01900.5964,W,1,09,0.9,16.8,M,60.2,M,,0000*7F
$GPGSA,A,3,25,20,32,29,12,04,14,31,02,,,,1.8,0.9,1.6*38
$GPRMC,094759.000,A,6325.1283,N,01900.5964,W,16.21,233.76,010912,,,A*4A
$GPGGA,094800.000,6325.1255,N,01900.6046,W,1,09,0.9,16.8,M,60.2,M,,0000*7D
$GPGSA,A,3,25,20,32,29,12,04,14,31,02,,,,1.8,0.9,1.6*38
$GPRMC,094800.000,A,6325.1255,N,01900.6046,W,16.15,233.85,010912,,,A*43
$GPGGA,094801.000,6325.1228,N,01900.6130,W,1,09,0.9,16.7,M,60.2,M,,0000*79
$GPGSA,A,3,25,20,32,29,12,04,14,31,02,,,,1.8,0.9,1.6*38
$GPGSV,3,1,10,25,72,189,41,12,54,083,29,14,47,212,29,31,39,281,33*70
$GPGSV,3,2,10,29,23,165,31,32,23,305,22,04,18,042,26,20,16,335,26*7E
$GPGSV,3,3,10,02,14,083,25,09,05,117,29*73
$GPRMC,094801.000,A,6325.1228,N,01900.6130,W,16.50,234.40,010912,,,A*47
$GPGGA,094802.000,6325.1201,N,01900.6213,W,1,09,0.9,16.7,M,60.2,M,,0000*73
$GPGSA,A,3,25,20,32,29,12,04,14,31,02,,,,1.8,0.9,1.6*38
$GPRMC,094802.000,A,6325.1201,N,01900.6213,W,16.29,234.96,010912,,,A*48
$GPGGA,094803.000,6325.1174,N,01900.6296,W,1,09,0.9,16.6,M,60.2,M,,0000*7F
$GPGSA,A,3,25,20,32,29,12,04,14,31,02,,,,1.8,0.9,1.6*38
$GPRMC,094803.000,A,6325.1174,N,01900.6296,W,16.19,234.32,010912,,,A*48
$GPGGA,094804.000,6325.1147,N,01900.6377,W,1,09,0.9,16.6,M,60.2,M,,0000*76
$GPGSA,A,3,25,20,32,29,12,04,14,31,02,,,,1.8,0.9,1.6*38
$GPRMC,094804.000,A,6325.1147,N,01900.6377,W,16.11,233.74,010912,,,A*4C
$GPGGA,094805.000,6325.1119,N,01900.6457,W,1,09,0.9,16.7,M,60.2,M,,0000*78
$GPGSA,A,3,25,20,32,29,12,04,14,31,02,,,,1.8,0.9,1.6*38
$GPRMC,094805.000,A,6325.1119,N,01900.6457,W,16.02,233.18,010912,,,A*4B
$GPGGA,094806.000,6325.1092,N,01900.6537,W,1,09,0.9,16.7,M,60.2,M,,0000*7E
$GPGSA,A,3,25,20,32,29,12,04,14,31,02,,,,1.8,0.9,1.6*38
$GPGSV,3,1,10,25,72,189,41,12,54,083,29,14,47,212,29,31,39,281,27*75
$GPGSV,3,2,10,29,23,165,31,32,23,305,22,04,18,042,31,20,16,335,26*78
$GPGSV,3,3,10,02,14,083,30,09,05,117,22*7C
$GPRMC,094806.000,A,6325.1092,N,01900.6537,W,15.95,233.33,010912,,,A*49
$GPGGA,094807.000,6325.1065,N,01900.6617,W,1,09,0.9,16.6,M,60.2,M,,0000*77
$GPGSA,A,3,25,20,32,29,12,04,14,31,02,,,,1.8,0.9,1.6*38
$GPRMC,094807.000,A,6325.1065,N,01900.6617,W,15.87,233.30,010912,,,A*41
$GPGGA,094808.000,6325.1037,N,01900.6695,W,1,09,0.9,16.5,M,60.2,M,,0000*76
$GPGSA,A,3,25,20,32,29,12,04,14,31,02,,,,1.8,0.9,1.6*38
$GPRMC,094808.000,A,6325.1037,N,01900.6695,W,15.76,232.52,010912,,,A*48
$GPGGA,094809.000,6325.1010,N,01900.6773,W,1,09,0.9,16.4,M,60.2,M,,0000*7A
$GPGSA,A,3,25,20,32,29,12,04,14,31,02,,,,1.8,0.9,1.6*38
$GPRMC,094809.000,A,6325.1010,N,01900.6773,W,15.70,233.02,010912,,,A*47
$GPGGA,094810.000,6325.0983,N,01900.6850,W,1,09,0.9,16.4,M,60.2,M,,0000*7E
$GPGSA,A,3,25,20,32,29,12,04,14,31,02,,,,1.8,0.9,1.6*38
$GPRMC,094810.000,A,6325.0983,N,01900.6850,W,15.48,232.73,010912,,,A*4F
$GPGGA,094811.000,6325.0956,N,01900.6927,W,1,09,0.9,16.3,M,60.2,M,,0000*71
$GPGSA,A,3,25,20,32,29,12,04,14,31,02,,,,1.8,0.9,1.6*38
$GPGSV,3,1,10,25,72,188,40,12,53,083,28,14,47,211,30,31,39,281,28*77
$GPGSV,3,2,10,29,24,165,32,32,22,305,22,04,19,041,32,20,16,335,34*7F
$GPGSV,3,3,10,02,14,083,28,09,05,117,28*7F
$GPRMC,094811.000,A,6325.0956,N,01900.6927,W,15.51,232.37,010912,,,A*4F
$GPGGA,094812.000,6325.0930,N,01900.7004,W,1,08,1.0,16.3,M,60.2,M,,0000*72
$GPGSA,A,3,25,20,32,29,12,14,31,02,,,,,1.9,1.0,1.6*35
$GPRMC,094812.000,A,6325.0930,N,01900.7004,W,15.40,233.30,010912,,,A*43
$GPGGA,094813.000,6325.0905,N,01900.7083,W,1,07,1.2,16.3,M,60.2,M,,0000*77
$GPGSA,A,3,25,20,32,29,14,31,02,,,,,,2.4,1.2,2.1*3E
$GPRMC,094813.000,A,6325.0905,N,01900.7083,W,15.53,235.25,010912,,,A*4B
$GPGGA,094814.000,6325.0882,N,01900.7164,W,1,08,1.0,16.3,M,60.2,M,,0000*7B
$GPGSA,A,3,25,20,32,29,12,04,14,02,,,,,1.9,1.0,1.6*33
$GPRMC,094814.000,A,6325.0882,N,01900.7164,W,15.22,237.95,010912,,,A*45
$GPGGA,094815.000,6325.0857,N,01900.7245,W,1,09,0.9,16.4,M,60.2,M,,0000*7C
$GPGSA,A,3,25,20,32,29,12,04,14,31,02,,,,1.8,0.9,1.6*38
$GPRMC,094815.000,A,6325.0857,N,01900.7245,W,15.62,236.41,010912,,,A*40
$GPGGA,094816.000,6325.0832,N,01900.7327,W,1,09,0.9,16.4,M,60.2,M,,0000*79
$GPGSA,A,3,25,20,32,29,12,04,14,31,02,,,,1.8,0.9,1.6*38
$GPGSV,3,1,10,25,73,188,41,12,53,083,24,14,47,211,27,31,40,281,33*79
$GPGSV,3,2,10,29,24,165,31,32,22,305,24,04,19,041,28,20,16,335,26*72
$GPGSV,3,3,10,02,14,083,28,09,05,117,20*77
$GPRMC,094816.000,A,6325.0832,N,01900.7327,W,15.87,236.14,010912,,,A*4E
$GPGGA,094817.000,6325.0807,N,01900.7408,W,1,09,0.9,16.4,M,60.2,M,,0000*74
$GPGSA,A,3,25,20,32,29,12,04,14,31,02,,,,1.8,0.9,1.6*38
$GPRMC,094817.000,A,6325.0807,N,01900.7408,W,15.73,236.38,010912,,,A*46
$GPGGA,094818.000,6325.0782,N,01900.7489,W,1,09,0.9,16.4,M,60.2,M,,0000*70
$GPGSA,A,3,25,20,32,29,12,04,14,31,02,,,,1.8,0.9,1.6*38
$GPRMC,094818.000,A,6325.0782,N,01900.7489,W,15.92,235.47,010912,,,A*46
$GPGGA,094819.000,6325.0757,N,01900.7569,W,1,09,0.9,16.4,M,60.2,M,,0000*76
$GPGSA,A,3,25,20,32,29,12,04,14,31,02,,,,1.8,0.9,1.6*38
$GPRMC,094819.000,A,6325.0757,N,01900.7569,W,15.63,235.24,010912,,,A*4B
$GPGGA,094820.000,6325.0731,N,01900.7647,W,1,09,0.9,16.4,M,60.2,M,,0000*73
$GPGSA,A,3,25,20,32,29,12,04,14,31,02,,,,1.8,0.9,1.6*38
$GPRMC,094820.000,A,6325.0731,N,01900.7647,W,15.51,234.57,010912,,,A*4A
$GPGGA,094821.000,6325.0706,N,01900.7723,W,1,09,0.9,16.5,M,60.2,M,,0000*74
$GPGSA,A,3,25,20,32,29,12,04,14,31,02,,,,1.8,0.9,1.6*38
$GPGSV,3,1,10,25,73,188,42,12,53,083,26,14,47,211,27,31,40,281,31*7A
$GPGSV,3,2,10,29,24,165,31,32,22,305,24,04,19,041,29,20,16,335,28*7D
$GPGSV,3,3,10,02,14,083,21,09,05,117,30*7F
$GPRMC,094821.000,A,6325.0706,N,01900.7723,W,15.27,233.61,010912,,,A*4F
$GPGGA,094822.000,6325.0680,N,01900.7797,W,1,09,0.9,16.5,M,60.2,M,,0000*77
$GPGSA,A,3,25,20,32,29,12,04,14,31,02,,,,1.8,0.9,1.6*38
$GPRMC,094822.000,A,6325.0680,N,01900.7797,W,15.09,232.97,010912,,,A*48
$GPGGA,094823.000,6325.0655,N,01900.7871,W,1,09,0.9,16.6,M,60.2,M,,0000*7A
$GPGSA,A,3,25,20,32,29,12,04,14,31,02,,,,1.8,0.9,1.6*38
$GPRMC,094823.000,A,6325.0655,N,01900.7871,W,14.85,233.24,010912,,,A*4A
$GPGGA,094824.000,6325.0630,N,01900.7942,W,1,09,0.9,16.7,M,60.2,M,,0000*7E
$GPGSA,A,3,25,20,32,29,12,04,14,31,02,,,,1.8,0.9,1.6*38
$GPRMC,094824.000,A,6325.0630,N,01900.7942,W,14.55,233.45,010912,,,A*45
$GPGGA,094825.000,6325.0606,N,01900.8011,W,1,09,0.9,16.8,M,60.2,M,,0000*75
$GPGSA,A,3,25,20,32,29,12,04,14,31,02,,,,1.8,0.9,1.6*38
$GPRMC,094825.000,A,6325.0606,N,01900.8011,W,14.19,232.42,010912,,,A*4F
$GPGGA,094826.000,6325.0582,N,01900.8077,W,1,09,0.9,17.0,M,60.2,M,,0000*70
$GPGSA,A,3,25,20,32,29,12,04,14,31,02,,,,1.8,0.9,1.6*38
$GPGSV,3,1,10,25,73,188,42,12,53,083,26,14,47,211,27,31,40,281,24*7E
$GPGSV,3,2,10,29,24,165,31,32,22,305,16,04,19,041,29,20,16,335,23*77
$GPGSV,3,3,10,02,14,083,26,09,05,117,22*7B
$GPRMC,094826.000,A,6325.0582,N,01900.8077,W,13.65,231.70,010912,,,A*4D
$GPGGA,094827.000,6325.0558,N,01900.8145,W,1,09,0.9,17.1,M,60.2,M,,0000*77
$GPGSA,A,3,25,20,32,29,12,04,14,31,02,,,,1.8,0.9,1.6*38
$GPRMC,094827.000,A,6325.0558,N,01900.8145,W,13.68,232.78,010912,,,A*4D
$GPGGA,094828.000,6325.0536,N,01900.8212,W,1,09,0.9,17.1,M,60.2,M,,0000*71
$GPGSA,A,3,25,20,32,29,12,04,14,31,02,,,,1.8,0.9,1.6*38
$GPRMC,094828.000,A,6325.0536,N,01900.8212,W,13.38,234.74,010912,,,A*44
$GPGGA,094829.000,6325.0515,N,01900.8278,W,1,09,0.9,17.1,M,60.2,M,,0000*7D
$GPGSA,A,3,25,20,32,29,12,04,14,31,02,,,,1.8,0.9,1.6*38
$GPRMC,094829.000,A,6325.0515,N,01900.8278,W,12.92,234.53,010912,,,A*4C
$GPGGA,094830.000,6325.0494,N,01900.8343,W,1,09,0.9,17.0,M,60.2,M,,0000*75
$GPGSA,A,3,25,20,32,29,12,04,14,31,02,,,,1.8,0.9,1.6*38
$GPRMC,094830.000,A,6325.0494,N,01900.8343,W,12.58,234.40,010912,,,A*41
$GPGGA,094831.000,6325.0477,N,01900.8405,W,1,09,0.9,17.1,M,60.2,M,,0000*7D
$GPGSA,A,3,25,20,32,29,12,04,14,31,02,,,,1.8,0.9,1.6*38
$GPGSV,3,1,10,25,73,188,42,12,53,083,27,14,47,211,27,31,40,281,28*73
$GPGSV,3,2,10,29,24,165,38,32,22,305,18,04,19,041,24,20,16,335,20*7E
$GPGSV,3,3,10,02,14,083,26,09,05,117,36*7E
$GPRMC,094831.000,A,6325.0477,N,01900.8405,W,11.42,238.59,010912,,,A*44
$GPGGA,094832.000,6325.0459,N,01900.8460,W,1,09,0.9,17.3,M,60.2,M,,0000*73
$GPGSA,A,3,25,20,32,29,12,04,14,31,02,,,,1.8,0.9,1.6*38
$GPRMC,094832.000,A,6325.0459,N,01900.8460,W,10.60,233.52,010912,,,A*49
$GPGGA,094833.000,6325.0440,N,01900.8509,W,1,09,0.9,17.6,M,60.2,M,,0000*71
$GPGSA,A,3,25,20,32,29,12,04,14,31,02,,,,1.8,0.9,1.6*38
$GPRMC,094833.000,A,6325.0440,N,01900.8509,W,10.25,228.95,010912,,,A*4E
$GPGGA,094834.000,6325.0424,N,01900.8546,W,1,09,0.9,17.8,M,60.2,M,,0000*71
$GPGSA,A,3,25,20,32,29,12,04,14,31,02,,,,1.8,0.9,1.6*38
$GPRMC,094834.000,A,6325.0424,N,01900.8546,W,8.12,223.35,010912,,,A*7C
$GPGGA,094835.000,6325.0406,N,01900.8561,W,1,09,0.9,18.0,M,60.2,M,,0000*72
$GPGSA,A,3,25,20,32,29,12,04,14,31,02,,,,1.8,0.9,1.6*38
$GPRMC,094835.000,A,6325.0406,N,01900.8561,W,6.63,198.97,010912,,,A*7B
$GPGGA,094836.000,6325.0391,N,01900.8564,W,1,07,1.2,18.2,M,60.2,M,,0000*7B
$GPGSA,A,3,25,20,32,29,14,31,02,,,,,,2.4,1.2,2.1*3E
$GPGSV,3,1,10,25,73,188,36,12,53,083,,14,47,211,33,31,40,281,39*70
$GPGSV,3,2,10,29,24,165,35,32,22,305,24,04,19,041,,20,16,335,18*71
$GPGSV,3,3,10,02,14,083,32,09,05,117,20*7C
$GPRMC,094836.000,A,6325.0391,N,01900.8564,W,5.23,181.50,010912,,,A*70
$GPGGA,094837.000,6325.0377,N,01900.8560,W,1,09,0.9,18.3,M,60.2,M,,0000*73
$GPGSA,A,3,25,20,32,29,12,04,14,31,02,,,,1.8,0.9,1.6*38
$GPRMC,094837.000,A,6325.0377,N,01900.8560,W,5.11,169.70,010912,,,A*78
$GPGGA,094838.000,6325.0362,N,01900.8552,W,1,09,0.9,18.3,M,60.2,M,,0000*79
$GPGSA,A,3,25,20,32,29,12,04,14,31,02,,,,1.8,0.9,1.6*38
$GPRMC,094838.000,A,6325.0362,N,01900.8552,W,5.58,165.53,010912,,,A*72
$GPGGA,094839.000,6325.0346,N,01900.8540,W,1,09,0.9,18.3,M,60.2,M,,0000*7D
$GPGSA,A,3,25,20,32,29,12,04,14,31,02,,,,1.8,0.9,1.6*38
$GPRMC,094839.000,A,6325.0346,N,01900.8540,W,6.07,158.86,010912,,,A*79
$GPGGA,094840.000,6325.0329,N,01900.8523,W,1,09,0.9,18.3,M,60.2,M,,0000*7F
$GPGSA,A,3,25,20,32,29,12,04,14,31,02,,,,1.9,0.9,1.6*39
$GPRMC,094840.000,A,6325.0329,N,01900.8523,W,6.79,153.86,010912,,,A*79
$GPGGA,094841.000,6325.0310,N,01900.8499,W,1,09,0.9,18.4,M,60.2,M,,0000*73
$GPGSA,A,3,25,20,32,29,12,04,14,31,02,,,,1.9,0.9,1.6*39
$GPGSV,3,1,10,25,73,188,44,12,53,083,41,14,47,211,32,31,40,281,40*7F
$GPGSV,3,2,10,29,24,165,35,32,22,305,30,04,19,041,35,20,16,335,20*79
$GPGSV,3,3,10,02,14,083,25,09,05,117,19*70
$GPRMC,094841.000,A,6325.0310,N,01900.8499,W,7.88,148.13,010912,,,A*7B
$GPGGA,094842.000,6325.0289,N,01900.8470,W,1,08,1.0,18.4,M,60.2,M,,0000*7F
$GPGSA,A,3,25,20,32,29,12,14,31,02,,,,,1.9,1.0,1.6*35
$GPRMC,094842.000,A,6325.0289,N,01900.8470,W,9.03,146.39,010912,,,A*75
$GPGGA,094843.000,6325.0266,N,01900.8435,W,1,09,0.9,18.4,M,60.2,M,,0000*77
$GPGSA,A,3,25,20,32,29,12,04,14,31,02,,,,1.9,0.9,1.6*39
$GPRMC,094843.000,A,6325.0266,N,01900.8435,W,10.12,144.88,010912,,,A*44
$GPGGA,094844.000,6325.0241,N,01900.8398,W,1,09,0.9,18.5,M,60.2,M,,0000*74
$GPGSA,A,3,25,20,32,29,12,04,14,31,02,,,,1.9,0.9,1.6*39
$GPRMC,094844.000,A,6325.0241,N,01900.8398,W,10.88,144.69,010912,,,A*4A
$GPGGA,094845.000,6325.0216,N,01900.8359,W,1,09,0.9,18.6,M,60.2,M,,0000*79
$GPGSA,A,3,25,20,32,29,12,04,14,31,02,,,,1.9,0.9,1.6*39
$GPRMC,094845.000,A,6325.0216,N,01900.8359,W,11.18,144.92,010912,,,A*48
$GPGGA,094846.000,6325.0191,N,01900.8321,W,1,09,0.9,18.7,M,60.2,M,,0000*78
$GPGSA,A,3,25,20,32,29,12,04,14,31,02,,,,1.9,0.9,1.6*39
$GPGSV,3,1,10,25,73,187,44,12,53,083,41,14,46,211,40,31,40,281,40*74
$GPGSV,3,2,10,29,24,165,35,32,22,305,27,04,19,041,35,20,16,334,27*79
$GPGSV,3,3,10,02,14,083,30,09,04,117,17*7B
$GPRMC,094846.000,A,6325.0191,N,01900.8321,W,10.85,144.68,010912,,,A*48
$GPGGA,094847.000,6325.0166,N,01900.8283,W,1,08,1.0,18.7,M,60.2,M,,0000*71
$GPGSA,A,3,25,20,29,12,04,14,31,02,,,,,1.9,1.0,1.7*31
$GPRMC,094847.000,A,6325.0166,N,01900.8283,W,10.97,144.37,010912,,,A*41
$GPGGA,094848.000,6325.0140,N,01900.8241,W,1,08,1.0,18.7,M,60.2,M,,0000*74
$GPGSA,A,3,25,20,29,12,04,14,31,02,,,,,1.9,1.0,1.7*31
$GPRMC,094848.000,A,6325.0140,N,01900.8241,W,11.60,144.30,010912,,,A*4A
$GPGGA,094849.000,6325.0113,N,01900.8197,W,1,09,0.9,18.8,M,60.2,M,,0000*7D
$GPGSA,A,3,25,20,32,29,12,04,14,31,02,,,,1.9,0.9,1.6*39
$GPRMC,094849.000,A,6325.0113,N,01900.8197,W,12.30,143.81,010912,,,A*4E
$GPGGA,094850.000,6325.0085,N,01900.8150,W,1,08,1.0,18.8,M,60.2,M,,0000*79
$GPGSA,A,3,25,20,32,29,12,04,14,31,,,,,2.0,1.0,1.8*37
$GPRMC,094850.000,A,6325.0085,N,01900.8150,W,12.64,143.52,010912,,,A*4C
$GPGGA,094851.000,6325.0058,N,01900.8106,W,1,08,1.0,18.8,M,60.2,M,,0000*7B
$GPGSA,A,3,25,20,32,29,12,04,14,31,,,,,2.0,1.0,1.8*37
$GPGSV,3,1,10,25,73,187,44,12,53,083,41,14,46,211,40,31,40,281,41*75
$GPGSV,3,2,10,29,24,165,32,32,22,305,27,04,19,041,25,20,16,334,27*7F
$GPGSV,3,3,10,02,14,083,,09,04,117,25*79
$GPRMC,094851.000,A,6325.0058,N,01900.8106,W,12.17,143.74,010912,,,A*4E
$GPGGA,094852.000,6325.0034,N,01900.8068,W,1,08,1.0,18.8,M,60.2,M,,0000*7B
$GPGSA,A,3,25,32,29,12,04,14,31,02,,,,,1.9,1.0,1.7*32
$GPRMC,094852.000,A,6325.0034,N,01900.8068,W,10.51,145.14,010912,,,A*4E
$GPGGA,094853.000,6325.0016,N,01900.8040,W,1,09,0.9,18.9,M,60.2,M,,0000*78
$GPGSA,A,3,25,20,32,29,12,04,14,31,02,,,,1.9,0.9,1.6*39
$GPRMC,094853.000,A,6325.0016,N,01900.8040,W,7.76,144.85,010912,,,A*7F
$GPGGA,094854.000,6325.0005,N,01900.8022,W,1,09,0.9,19.1,M,60.2,M,,0000*70
$GPGSA,A,3,25,20,32,29,12,04,14,31,02,,,,1.9,0.9,1.6*39
$GPRMC,094854.000,A,6325.0005,N,01900.8022,W,4.92,144.92,010912,,,A*71
$GPGGA,094855.000,6325.0001,N,01900.8014,W,1,09,0.9,19.3,M,60.2,M,,0000*72
$GPGSA,A,3,25,20,32,29,12,04,14,31,02,,,,1.9,0.9,1.6*39
$GPRMC,094855.000,A,6325.0001,N,01900.8014,W,1.97,144.73,010912,,,A*7E
$GPGGA,094856.000,6325.0000,N,01900.8012,W,1,09,0.9,19.4,M,60.2,M,,0000*71
$GPGSA,A,3,25,20,32,29,12,04,14,31,02,,,,1.9,0.9,1.6*39
$GPGSV,3,1,10,25,73,187,44,12,53,083,39,14,46,211,40,31,40,281,41*7A
$GPGSV,3,2,10,29,24,165,33,32,22,305,23,04,19,041,31,20,16,334,26*7E
$GPGSV,3,3,10,02,14,083,30,09,04,117,37*79
$GPRMC,094910.000,A,6325.0001,N,01900.7998,W,0.90,139.76,010912,,,A*75
$GPGGA,094911.000,6324.9996,N,01900.7988,W,1,09,0.9,21.1,M,60.2,M,,0000*76
$GPGSA,A,3,25,20,32,29,12,04,14,31,02,,,,1.9,0.9,1.6*39
$GPGSV,3,1,10,25,73,187,44,12,53,083,39,14,46,211,39,31,40,281,42*77
$GPGSV,3,2,10,29,24,165,35,32,22,305,31,04,19,041,30,20,16,334,27*7B
$GPGSV,3,3,10,02,14,082,31,09,04,117,34*7A
$GPRMC,094911.000,A,6324.9996,N,01900.7988,W,2.68,141.14,010912,,,A*74
$GPGGA,094912.000,6324.9987,N,01900.7970,W,1,09,0.9,21.3,M,60.2,M,,0000*70
$GPGSA,A,3,25,20,32,29,12,04,14,31,02,,,,1.9,0.9,1.6*39
$GPRMC,094912.000,A,6324.9987,N,01900.7970,W,4.72,139.43,010912,,,A*70
$GPGGA,094913.000,6324.9975,N,01900.7946,W,1,09,0.9,21.4,M,60.2,M,,0000*7E
$GPGSA,A,3,25,20,32,29,12,04,14,31,02,,,,1.9,0.9,1.6*39
$GPRMC,094913.000,A,6324.9975,N,01900.7946,W,5.92,139.23,010912,,,A*70
$GPGGA,094914.000,6324.9963,N,01900.7923,W,1,09,0.9,21.6,M,60.2,M,,0000*7F
$GPGSA,A,3,25,20,32,29,12,04,14,31,02,,,,1.9,0.9,1.6*39
$GPRMC,094914.000,A,6324.9963,N,01900.7923,W,6.02,140.73,010912,,,A*72
$GPGGA,094915.000,6324.9950,N,01900.7900,W,1,09,0.9,21.7,M,60.2,M,,0000*7E
$GPGSA,A,3,25,20,32,29,12,04,14,31,02,,,,1.9,0.9,1.6*39
$GPRMC,094915.000,A,6324.9950,N,01900.7900,W,6.27,141.93,010912,,,A*7A
$GPGGA,094916.000,6324.9935,N,01900.7874,W,1,09,0.9,21.9,M,60.2,M,,0000*72
$GPGSA,A,3,25,20,32,29,12,04,14,31,02,,,,1.9,0.9,1.6*39
$GPGSV,3,1,10,25,73,186,44,12,53,083,37,14,46,211,39,31,40,281,36*7B
$GPGSV,3,2,10,29,24,165,35,32,22,305,33,04,19,041,28,20,16,334,27*70
$GPGSV,3,3,10,02,14,082,30,09,04,117,27*79
$GPRMC,094916.000,A,6324.9935,N,01900.7874,W,7.06,142.65,010912,,,A*70
$GPGGA,094917.000,6324.9919,N,01900.7847,W,1,09,0.9,22.0,M,60.2,M,,0000*77
$GPGSA,A,3,25,20,32,29,12,04,14,31,02,,,,1.9,0.9,1.6*39
$GPRMC,094917.000,A,6324.9919,N,01900.7847,W,7.59,144.33,010912,,,A*70
$GPGGA,094918.000,6324.9902,N,01900.7819,W,1,09,0.9,22.1,M,60.2,M,,0000*78
$GPGSA,A,3,25,20,32,29,12,04,14,31,02,,,,1.9,0.9,1.6*39
$GPRMC,094918.000,A,6324.9902,N,01900.7819,W,7.91,142.85,010912,,,A*71
$GPGGA,094919.000,6324.9885,N,01900.7790,W,1,09,0.9,22.1,M,60.2,M,,0000*79
$GPGSA,A,3,25,20,32,29,12,04,14,31,02,,,,1.9,0.9,1.6*39
$GPRMC,094919.000,A,6324.9885,N,01900.7790,W,7.96,144.32,010912,,,A*7D
$GPGGA,094920.000,6324.9867,N,01900.7765,W,1,09,0.9,22.2,M,60.2,M,,0000*76
$GPGSA,A,3,25,20,32,29,12,04,14,31,02,,,,1.9,0.9,1.6*39
$GPRMC,094920.000,A,6324.9867,N,01900.7765,W,7.62,146.70,010912,,,A*7E
$GPGGA,094921.000,6324.9851,N,01900.7739,W,1,09,0.9,22.2,M,60.2,M,,0000*7B
$GPGSA,A,3,25,20,32,29,12,04,14,31,02,,,,1.9,0.9,1.6*39
$GPGSV,3,1,10,25,73,186,43,12,53,083,38,14,46,211,39,31,40,281,40*72
$GPGSV,3,2,10,29,24,165,35,32,22,305,23,04,19,041,35,20,16,334,27*7D
$GPGSV,3,3,10,02,14,082,30,09,04,117,33*7C
$GPRMC,094921.000,A,6324.9851,N,01900.7739,W,7.52,145.67,010912,,,A*75
$GPGGA,094922.000,6324.9834,N,01900.7714,W,1,09,0.9,22.2,M,60.2,M,,0000*74
$GPGSA,A,3,25,20,32,29,12,04,14,31,02,,,,1.9,0.9,1.6*39
$GPRMC,094922.000,A,6324.9834,N,01900.7714,W,7.47,146.82,010912,,,A*76
$GPGGA,094923.000,6324.9816,N,01900.7692,W,1,09,0.9,22.2,M,60.2,M,,0000*7A
$GPGSA,A,3,25,20,32,29,12,04,14,31,02,,,,1.9,0.9,1.6*39
$GPRMC,094923.000,A,6324.9816,N,01900.7692,W,7.46,150.62,010912,,,A*70
$GPGGA,094924.000,6324.9798,N,01900.7671,W,1,09,0.9,22.2,M,60.2,M,,0000*79
$GPGSA,A,3,25,20,32,29,12,04,14,31,02,,,,1.9,0.9,1.6*39
$GPRMC,094924.000,A,6324.9798,N,01900.7671,W,7.52,152.71,010912,,,A*76
$GPGGA,094925.000,6324.9780,N,01900.7648,W,1,09,0.9,22.3,M,60.2,M,,0000*7A
$GPGSA,A,3,25,20,32,29,12,04,14,31,02,,,,1.9,0.9,1.6*39
$GPRMC,094925.000,A,6324.9780,N,01900.7648,W,7.63,150.93,010912,,,A*78
$GPGGA,094926.000,6324.9761,N,01900.7625,W,1,09,0.9,22.3,M,60.2,M,,0000*7D
$GPGSA,A,3,25,20,32,29,12,04,14,31,02,,,,1.9,0.9,1.6*39
$GPGSV,3,1,10,25,73,186,43,12,53,083,39,14,46,211,32,31,40,281,40*78
$GPGSV,3,2,10,29,24,165,35,32,22,305,20,04,19,041,26,20,16,334,28*73
$GPGSV,3,3,10,02,14,082,29,09,04,117,29*7F
$GPRMC,094926.000,A,6324.9761,N,01900.7625,W,7.61,150.85,010912,,,A*7A
$GPGGA,094927.000,6324.9743,N,01900.7603,W,1,09,0.9,22.3,M,60.2,M,,0000*78
$GPGSA,A,3,25,20,32,29,12,04,14,31,02,,,,1.9,0.9,1.6*39
$GPRMC,094927.000,A,6324.9743,N,01900.7603,W,7.69,152.59,010912,,,A*74
$GPGGA,094928.000,6324.9724,N,01900.7588,W,1,09,0.9,22.2,M,60.2,M,,0000*77
$GPGSA,A,3,25,20,32,29,12,04,14,31,02,,,,1.9,0.9,1.6*39
$GPRMC,094928.000,A,6324.9724,N,01900.7588,W,7.27,160.50,010912,,,A*78
$GPGGA,094929.000,6324.9706,N,01900.7582,W,1,09,0.9,22.2,M,60.2,M,,0000*7C
$GPGSA,A,3,25,20,32,29,12,04,14,31,02,,,,1.9,0.9,1.6*39
$GPRMC,094929.000,A,6324.9706,N,01900.7582,W,6.65,171.59,010912,,,A*7D
$GPGGA,094930.000,6324.9691,N,01900.7585,W,1,09,0.9,22.2,M,60.2,M,,0000*7C
$GPGSA,A,3,25,20,32,29,12,04,14,31,02,,,,1.9,0.9,1.6*39
$GPRMC,094930.000,A,6324.9691,N,01900.7585,W,5.56,186.55,010912,,,A*7A
$GPGGA,094931.000,6324.9679,N,01900.7594,W,1,09,0.9,22.2,M,60.2,M,,0000*7B
$GPGSA,A,3,25,20,32,29,12,04,14,31,02,,,,1.9,0.9,1.6*39
$GPGSV,3,1,10,25,73,186,37,12,53,083,29,14,46,211,33,31,40,281,40*7B
$GPGSV,3,2,10,29,24,165,33,32,22,305,33,04,19,041,31,20,16,334,30*78
$GPGSV,3,3,10,02,14,082,33,09,04,117,26*7B
$GPRMC,094931.000,A,6324.9679,N,01900.7594,W,4.52,201.80,010912,,,A*7C
$GPGGA,094932.000,6324.9670,N,01900.7608,W,1,09,0.9,22.1,M,60.2,M,,0000*74
$GPGSA,A,3,25,20,32,29,12,04,14,31,02,,,,1.9,0.9,1.6*39
$GPRMC,094932.000,A,6324.9670,N,01900.7608,W,3.97,215.92,010912,,,A*78
$GPGGA,094933.000,6324.9662,N,01900.7630,W,1,09,0.9,22.1,M,60.2,M,,0000*7D
$GPGSA,A,3,25,20,32,29,12,04,14,31,02,,,,1.9,0.9,1.6*39
$GPRMC,094933.000,A,6324.9662,N,01900.7630,W,4.77,233.13,010912,,,A*75
$GPGGA,094934.000,6324.9654,N,01900.7660,W,1,08,1.0,22.1,M,60.2,M,,0000*73
$GPGSA,A,3,25,20,32,29,12,04,31,02,,,,,1.9,1.0,1.6*34
$GPRMC,094934.000,A,6324.9654,N,01900.7660,W,5.72,240.17,010912,,,A*76
$GPGGA,094935.000,6324.9646,N,01900.7693,W,1,09,0.9,22.1,M,60.2,M,,0000*74
$GPGSA,A,3,25,20,32,29,12,04,14,31,02,,,,1.9,0.9,1.6*39
$GPRMC,094935.000,A,6324.9646,N,01900.7693,W,6.40,241.02,010912,,,A*7F
$GPGGA,094936.000,6324.9635,N,01900.7726,W,1,09,0.9,22.2,M,60.2,M,,0000*7F
$GPGSA,A,3,25,20,32,29,12,04,14,31,02,,,,1.9,0.9,1.6*39
$GPGSV,3,1,10,25,73,186,43,12,53,083,27,14,46,211,32,31,40,281,32*72
$GPGSV,3,2,10,29,24,165,25,32,22,305,29,04,19,041,30,20,16,334,30*75
$GPGSV,3,3,10,02,14,082,29,09,04,117,28*7E
$GPRMC,094936.000,A,6324.9635,N,01900.7726,W,6.77,235.31,010912,,,A*70
$GPGGA,094937.000,6324.9624,N,01900.7764,W,1,08,1.0,22.3,M,60.2,M,,0000*70
$GPGSA,A,3,25,20,32,29,12,04,31,02,,,,,1.9,1.0,1.6*34
$GPRMC,094937.000,A,6324.9624,N,01900.7764,W,7.47,236.88,010912,,,A*74
$GPGGA,094938.000,6324.9612,N,01900.7802,W,1,08,1.0,22.5,M,60.2,M,,0000*73
$GPGSA,A,3,25,20,32,29,12,04,14,02,,,,,1.9,1.0,1.6*33
$GPRMC,094938.000,A,6324.9612,N,01900.7802,W,7.85,234.72,010912,,,A*78
$GPGGA,094939.000,6324.9596,N,01900.7838,W,1,09,0.9,22.7,M,60.2,M,,0000*7F
$GPGSA,A,3,25,20,32,29,12,04,14,31,02,,,,1.9,0.9,1.6*39
$GPRMC,094939.000,A,6324.9596,N,01900.7838,W,8.13,227.26,010912,,,A*7C
$GPGGA,094940.000,6324.9581,N,01900.7874,W,1,09,0.9,22.8,M,60.2,M,,0000*70
$GPGSA,A,3,25,20,32,29,12,04,14,31,02,,,,1.9,0.9,1.6*39
$GPRMC,094940.000,A,6324.9581,N,01900.7874,W,8.28,225.74,010912,,,A*71
$GPGGA,094941.000,6324.9564,N,01900.7909,W,1,09,0.9,22.9,M,60.2,M,,0000*70
$GPGSA,A,3,25,20,32,29,12,04,14,31,02,,,,1.9,0.9,1.6*39
$GPGSV,3,1,10,25,73,186,43,12,53,083,28,14,46,211,38,31,40,281,39*7C
$GPGSV,3,2,10,29,24,165,29,32,22,304,34,04,19,041,30,20,16,334,30*74
$GPGSV,3,3,10,02,14,082,29,09,04,117,23*75
$GPRMC,094941.000,A,6324.9564,N,01900.7909,W,8.37,223.97,010912,,,A*75
$GPGGA,094942.000,6324.9546,N,01900.7943,W,1,09,0.9,22.9,M,60.2,M,,0000*7D
$GPGSA,A,3,25,20,32,29,12,04,14,31,02,,,,1.9,0.9,1.6*39
$GPRMC,094942.000,A,6324.9546,N,01900.7943,W,8.48,220.63,010912,,,A*78
$GPGGA,094943.000,6324.9527,N,01900.7974,W,1,09,0.9,22.9,M,60.2,M,,0000*7F
$GPGSA,A,3,25,20,32,29,12,04,14,31,02,,,,1.9,0.9,1.6*39
$GPRMC,094943.000,A,6324.9527,N,01900.7974,W,8.41,216.94,010912,,,A*7E
$GPGGA,094944.000,6324.9507,N,01900.8001,W,1,08,1.0,22.9,M,60.2,M,,0000*77
$GPGSA,A,3,25,32,29,12,04,14,31,02,,,,,1.9,1.0,1.7*32
$GPRMC,094944.000,A,6324.9507,N,01900.8001,W,8.46,211.36,010912,,,A*77
$GPGGA,094945.000,6324.9485,N,01900.8023,W,1,09,0.9,22.9,M,60.2,M,,0000*74
$GPGSA,A,3,25,20,32,29,12,04,14,31,02,,,,1.9,0.9,1.6*39
$GPRMC,094945.000,A,6324.9485,N,01900.8023,W,8.59,203.29,010912,,,A*7E
$GPGGA,094946.000,6324.9461,N,01900.8040,W,1,08,1.0,22.9,M,60.2,M,,0000*71
$GPGSA,A,3,25,20,32,29,12,04,14,31,,,,,2.0,1.0,1.8*37
$GPGSV,3,1,10,25,73,186,37,12,53,083,25,14,46,211,35,31,40,281,39*7F
$GPGSV,3,2,10,29,24,165,32,32,22,304,35,04,19,041,31,20,16,334,26*79
$GPGSV,3,3,10,02,14,082,,09,04,117,20*7D
$GPRMC,094946.000,A,6324.9461,N,01900.8040,W,9.01,197.35,010912,,,A*7D
$GPGGA,094947.000,6324.9436,N,01900.8053,W,1,09,0.9,22.8,M,60.2,M,,0000*78
$GPGSA,A,3,25,20,32,29,12,04,14,31,02,,,,1.9,0.9,1.6*39
$GPRMC,094947.000,A,6324.9436,N,01900.8053,W,9.42,192.76,010912,,,A*79
$GPGGA,094948.000,6324.9409,N,01900.8065,W,1,09,0.9,22.8,M,60.2,M,,0000*7E
$GPGSA,A,3,25,20,32,29,12,04,14,31,02,,,,1.9,0.9,1.6*39
$GPRMC,094948.000,A,6324.9409,N,01900.8065,W,9.87,190.95,010912,,,A*79
$GPGGA,094949.000,6324.9381,N,01900.8076,W,1,09,0.9,22.7,M,60.2,M,,0000*75
$GPGSA,A,3,25,20,32,29,12,04,14,31,02,,,,1.9,0.9,1.6*39
$GPRMC,094949.000,A,6324.9381,N,01900.8076,W,10.27,189.02,010912,,,A*49
$GPGGA,094950.000,6324.9352,N,01900.8083,W,1,09,0.9,22.6,M,60.2,M,,0000*78
$GPGSA,A,3,25,20,32,29,12,04,14,31,02,,,,1.9,0.9,1.6*39
$GPRMC,094950.000,A,6324.9352,N,01900.8083,W,10.54,185.79,010912,,,A*41
$GPGGA,094951.000,6324.9322,N,01900.8089,W,1,09,0.9,22.4,M,60.2,M,,0000*76
$GPGSA,A,3,25,20,32,29,12,04,14,31,02,,,,1.9,0.9,1.6*39
$GPGSV,3,1,10,25,73,186,38,12,53,083,30,14,46,211,36,31,40,281,40*79
$GPGSV,3,2,10,29,24,165,32,32,22,304,26,04,19,041,21,20,16,334,30*7D
$GPGSV,3,3,10,02,14,082,37,09,04,117,27*7E
$GPRMC,094951.000,A,6324.9322,N,01900.8089,W,10.70,183.96,010912,,,A*4C
$GPGGA,094952.000,6324.9293,N,01900.8093,W,1,09,0.9,22.2,M,60.2,M,,0000*73
$GPGSA,A,3,25,20,32,29,12,04,14,31,02,,,,1.9,0.9,1.6*39
$GPRMC,094952.000,A,6324.9293,N,01900.8093,W,10.46,183.04,010912,,,A*41
$GPGGA,094953.000,6324.9263,N,01900.8098,W,1,09,0.9,22.0,M,60.2,M,,0000*74
$GPGSA,A,3,25,20,32,29,12,04,14,31,02,,,,1.9,0.9,1.6*39
$GPRMC,094953.000,A,6324.9263,N,01900.8098,W,10.93,182.47,010912,,,A*4A
$GPGGA,094954.000,6324.9234,N,01900.8101,W,1,09,0.9,21.7,M,60.2,M,,0000*74
$GPGSA,A,3,25,20,32,29,12,04,14,31,02,,,,1.9,0.9,1.6*39
$GPRMC,094954.000,A,6324.9234,N,01900.8101,W,10.44,182.17,010912,,,A*41
$GPGGA,094955.000,6324.9204,N,01900.8105,W,1,09,0.9,21.4,M,60.2,M,,0000*71
$GPGSA,A,3,25,20,32,29,12,04,14,31,02,,,,1.9,0.9,1.6*39
$GPRMC,094955.000,A,6324.9204,N,01900.8105,W,10.35,181.81,010912,,,A*4D
$GPGGA,094956.000,6324.9175,N,01900.8108,W,1,09,0.9,21.1,M,60.2,M,,0000*7F
$GPGSA,A,3,25,20,32,29,12,04,14,31,02,,,,1.9,0.9,1.6*39
$GPGSV,3,1,10,25,73,186,38,12,53,083,32,14,46,211,30,31,40,281,40*7D
$GPGSV,3,2,10,29,24,165,32,32,22,304,29,04,19,041,30,20,16,334,28*7B
$GPGSV,3,3,10,02,14,082,33,09,04,117,27*7A
$GPRMC,094956.000,A,6324.9175,N,01900.8108,W,10.51,180.97,010912,,,A*42
$GPGGA,094957.000,6324.9145,N,01900.8110,W,1,09,0.9,20.7,M,60.2,M,,0000*73
$GPGSA,A,3,25,20,32,29,12,04,14,31,02,,,,1.9,0.9,1.6*39
$GPRMC,094957.000,A,6324.9145,N,01900.8110,W,10.63,180.20,010912,,,A*44
$GPGGA,094958.000,6324.9115,N,01900.8112,W,1,09,0.9,20.3,M,60.2,M,,0000*7F
$GPGSA,A,3,25,20,32,29,12,04,14,31,02,,,,1.9,0.9,1.6*39
$GPRMC,094958.000,A,6324.9115,N,01900.8112,W,10.62,180.33,010912,,,A*4F
$GPGGA,094959.000,6324.9086,N,01900.8114,W,1,09,0.9,20.0,M,60.2,M,,0000*70
$GPGSA,A,3,25,20,32,29,12,04,14,31,02,,,,1.9,0.9,1.6*39
$GPRMC,094959.000,A,6324.9086,N,01900.8114,W,10.41,180.45,010912,,,A*43
$GPGGA,095000.000,6324.9057,N,01900.8116,W,1,09,0.9,19.6,M,60.2,M,,0000*76
$GPGSA,A,3,25,20,32,29,12,04,14,31,02,,,,1.9,0.9,1.6*39
$GPRMC,095000.000,A,6324.9057,N,01900.8116,W,10.18,181.12,010912,,,A*46
$GPGGA,095001.000,6324.9029,N,01900.8120,W,1,09,0.9,19.3,M,60.2,M,,0000*7E
$GPGSA,A,3,25,20,32,29,12,04,14,31,02,,,,1.9,0.9,1.6*39
$GPGSV,3,1,10,25,73,186,38,12,53,083,25,14,46,211,33,31,40,281,41*79
$GPGSV,3,2,10,29,24,165,33,32,22,304,33,04,19,041,31,20,16,334,26*7E
$GPGSV,3,3,10,02,14,082,34,09,04,117,22*78
$GPRMC,095001.000,A,6324.9029,N,01900.8120,W,10.19,182.66,010912,,,A*4A
$GPGGA,095002.000,6324.9001,N,01900.8127,W,1,09,0.9,19.0,M,60.2,M,,0000*73
$GPGSA,A,3,25,20,32,29,12,04,14,31,02,,,,1.9,0.9,1.6*39
$GPRMC,095002.000,A,6324.9001,N,01900.8127,W,10.05,185.59,010912,,,A*42
$GPGGA,095003.000,6324.8973,N,01900.8138,W,1,09,0.9,18.7,M,60.2,M,,0000*77
$GPGSA,A,3,25,20,32,29,12,04,14,31,02,,,,1.9,0.9,1.6*39
$GPRMC,095003.000,A,6324.8973,N,01900.8138,W,9.88,189.21,010912,,,A*7E
$GPGGA,095004.000,6324.8946,N,01900.8151,W,1,09,0.9,18.4,M,60.2,M,,0000*7A
$GPGSA,A,3,25,20,32,29,12,04,14,31,02,,,,1.9,0.9,1.6*39
$GPRMC,095004.000,A,6324.8946,N,01900.8151,W,9.88,191.85,010912,,,A*77
$GPGGA,095005.000,6324.8920,N,01900.8168,W,1,09,0.9,18.2,M,60.2,M,,0000*77
$GPGSA,A,3,25,20,32,29,12,04,14,31,02,,,,1.9,0.9,1.6*39
$GPRMC,095005.000,A,6324.8920,N,01900.8168,W,9.53,196.22,010912,,,A*70
$GPGGA,095006.000,6324.8896,N,01900.8188,W,1,09,0.9,18.0,M,60.2,M,,0000*74
$GPGSA,A,3,25,20,32,29,12,04,14,31,02,,,,1.9,0.9,1.6*39
$GPGSV,3,1,10,25,73,186,37,12,53,083,28,14,46,211,33,31,40,281,41*7B
$GPGSV,3,2,10,29,24,165,28,32,22,304,39,04,19,041,28,20,16,334,27*77
$GPGSV,3,3,10,02,14,082,29,09,04,117,20*76
$GPRMC,095006.000,A,6324.8896,N,01900.8188,W,9.34,199.96,010912,,,A*70
$GPGGA,095007.000,6324.8871,N,01900.8210,W,1,08,1.3,17.8,M,60.2,M,,0000*73
$GPGSA,A,3,25,20,32,12,04,14,31,02,,,,,2.6,1.3,2.2*32
$GPRMC,095007.000,A,6324.8871,N,01900.8210,W,9.30,201.95,010912,,,A*7F
$GPGGA,095008.000,6324.8848,N,01900.8236,W,1,08,1.3,17.7,M,60.2,M,,0000*7D
$GPGSA,A,3,25,20,32,12,04,14,31,02,,,,,2.6,1.3,2.2*32
$GPRMC,095008.000,A,6324.8848,N,01900.8236,W,9.30,206.14,010912,,,A*70
$GPGGA,095009.000,6324.8826,N,01900.8266,W,1,09,0.9,17.5,M,60.2,M,,0000*79
$GPGSA,A,3,25,20,32,29,12,04,14,31,02,,,,1.9,0.9,1.6*39
$GPRMC,095009.000,A,6324.8826,N,01900.8266,W,9.35,211.78,010912,,,A*75
$GPGGA,095010.000,6324.8806,N,01900.8301,W,1,08,1.3,17.3,M,60.2,M,,0000*7F
$GPGSA,A,3,25,20,32,12,04,14,31,02,,,,,2.6,1.3,2.2*32
$GPRMC,095010.000,A,6324.8806,N,01900.8301,W,9.20,218.74,010912,,,A*7E
$GPGGA,095011.000,6324.8788,N,01900.8343,W,1,09,0.9,17.1,M,60.2,M,,0000*79
$GPGSA,A,3,25,20,32,29,12,04,14,31,02,,,,1.9,0.9,1.6*39
$GPGSV,3,1,10,25,73,186,40,12,53,083,28,14,46,211,32,31,40,281,32*7E
$GPGSV,3,2,10,29,24,165,30,32,22,304,32,04,19,041,28,20,16,334,31*72
$GPGSV,3,3,10,02,14,082,31,09,04,117,29*76
$GPRMC,095011.000,A,6324.8788,N,01900.8343,W,9.39,227.04,010912,,,A*73
$GPGGA,095012.000,6324.8773,N,01900.8391,W,1,09,0.9,16.9,M,60.2,M,,0000*78
$GPGSA,A,3,25,20,32,29,12,04,14,31,02,,,,1.9,0.9,1.6*39
$GPRMC,095012.000,A,6324.8773,N,01900.8391,W,9.16,237.17,010912,,,A*75
$GPGGA,095013.000,6324.8763,N,01900.8441,W,1,09,0.9,16.7,M,60.2,M,,0000*7C
$GPGSA,A,3,25,20,32,29,12,04,14,31,02,,,,1.9,0.9,1.6*39
$GPRMC,095013.000,A,6324.8763,N,01900.8441,W,8.85,247.73,010912,,,A*71
$GPGGA,095014.000,6324.8756,N,01900.8498,W,1,09,0.9,16.6,M,60.2,M,,0000*78
$GPGSA,A,3,25,20,32,29,12,04,14,31,02,,,,1.9,0.9,1.6*39
$GPRMC,095014.000,A,6324.8756,N,01900.8498,W,9.50,255.41,010912,,,A*7F
$GPGGA,095015.000,6324.8751,N,01900.8555,W,1,07,1.1,16.4,M,60.2,M,,0000*7B
$GPGSA,A,3,25,20,32,29,04,31,02,,,,,,2.3,1.1,2.0*3A
$GPRMC,095015.000,A,6324.8751,N,01900.8555,W,9.53,259.79,010912,,,A*7D
$GPGGA,095016.000,6324.8747,N,01900.8614,W,1,09,0.9,16.4,M,60.2,M,,0000*7E
$GPGSA,A,3,25,20,32,29,12,04,14,31,02,,,,1.9,0.9,1.6*39
$GPGSV,3,1,10,25,73,185,40,12,52,082,36,14,46,211,34,31,40,281,37*71
$GPGSV,3,2,10,29,25,165,26,32,22,304,26,04,19,040,28,20,16,334,25*75
$GPGSV,3,3,10,02,14,082,32,09,04,117,27*7B
$GPRMC,095016.000,A,6324.8747,N,01900.8614,W,9.59,261.47,010912,,,A*73
$GPGGA,095017.000,6324.8742,N,01900.8673,W,1,09,0.9,16.3,M,60.2,M,,0000*7C
$GPGSA,A,3,25,20,32,29,12,04,14,31,02,,,,1.9,0.9,1.6*39
$GPRMC,095017.000,A,6324.8742,N,01900.8673,W,9.59,261.85,010912,,,A*78
$GPGGA,095018.000,6324.8737,N,01900.8730,W,1,09,0.9,16.3,M,60.2,M,,0000*77
$GPGSA,A,3,25,20,32,29,12,04,14,31,02,,,,1.9,0.9,1.6*39
$GPRMC,095018.000,A,6324.8737,N,01900.8730,W,9.41,260.60,010912,,,A*70
$GPGGA,095019.000,6324.8733,N,01900.8788,W,1,09,0.9,16.3,M,60.2,M,,0000*71
$GPGSA,A,3,25,20,32,29,12,04,14,31,02,,,,1.9,0.9,1.6*39
$GPRMC,095019.000,A,6324.8733,N,01900.8788,W,9.56,260.68,010912,,,A*78
$GPGGA,095020.000,6324.8727,N,01900.8847,W,1,09,0.9,16.3,M,60.2,M,,0000*72
$GPGSA,A,3,25,20,32,29,12,04,14,31,02,,,,1.9,0.9,1.6*39
$GPRMC,095020.000,A,6324.8727,N,01900.8847,W,9.62,259.23,010912,,,A*79
$GPGGA,095021.000,6324.8721,N,01900.8905,W,1,09,0.9,16.3,M,60.2,M,,0000*72
$GPGSA,A,3,25,20,32,29,12,04,14,31,02,,,,1.9,0.9,1.6*39
$GPGSV,3,1,10,25,73,185,40,12,52,082,30,14,46,211,30,31,40,281,37*73
$GPGSV,3,2,10,29,25,165,31,32,22,304,32,04,19,040,32,20,16,334,28*70
$GPGSV,3,3,10,02,14,082,29,09,04,117,21*77
$GPRMC,095021.000,A,6324.8721,N,01900.8905,W,9.76,256.76,010912,,,A*73
$GPGGA,095022.000,6324.8714,N,01900.8964,W,1,09,0.9,16.3,M,60.2,M,,0000*70
$GPGSA,A,3,25,20,32,29,12,04,14,31,02,,,,1.9,0.9,1.6*39
$GPRMC,095022.000,A,6324.8714,N,01900.8964,W,9.86,256.09,010912,,,A*76
$GPGGA,095023.000,6324.8707,N,01900.9024,W,1,09,0.9,16.3,M,60.2,M,,0000*7F
$GPGSA,A,3,25,20,32,29,12,04,14,31,02,,,,1.9,0.9,1.6*39
$GPRMC,095023.000,A,6324.8707,N,01900.9024,W,10.03,255.76,010912,,,A*47
$GPGGA,095024.000,6324.8700,N,01900.9085,W,1,09,0.9,16.4,M,60.2,M,,0000*73
$GPGSA,A,3,25,20,32,29,12,04,14,31,02,,,,1.9,0.9,1.6*39
$GPRMC,095024.000,A,6324.8700,N,01900.9085,W,10.05,256.99,010912,,,A*48
$GPGGA,095025.000,6324.8694,N,01900.9146,W,1,09,0.9,16.5,M,60.2,M,,0000*71
$GPGSA,A,3,25,20,32,29,12,04,14,31,02,,,,1.9,0.9,1.6*39
$GPRMC,095025.000,A,6324.8694,N,01900.9146,W,10.18,258.62,010912,,,A*4D
$GPGGA,095026.000,6324.8689,N,01900.9208,W,1,09,0.9,16.6,M,60.2,M,,0000*74
$GPGSA,A,3,25,20,32,29,12,04,14,31,02,,,,1.9,0.9,1.6*39
$GPGSV,3,1,10,25,73,185,39,12,52,082,28,14,46,211,31,31,40,281,36*74
$GPGSV,3,2,10,29,25,165,23,32,22,304,32,04,19,040,28,20,16,334,29*79
$GPGSV,3,3,10,02,14,082,29,09,04,117,27*71
$GPRMC,095026.000,A,6324.8689,N,01900.9208,W,10.25,259.33,010912,,,A*40
$GPGGA,095027.000,6324.8684,N,01900.9270,W,1,09,0.9,16.7,M,60.2,M,,0000*76
$GPGSA,A,3,25,20,32,29,12,04,14,31,02,,,,1.9,0.9,1.6*39
$GPRMC,095027.000,A,6324.8684,N,01900.9270,W,10.22,260.38,010912,,,A*45
$GPGGA,095028.000,6324.8678,N,01900.9331,W,1,09,0.9,16.8,M,60.2,M,,0000*71
$GPGSA,A,3,25,20,32,29,12,04,14,31,02,,,,1.9,0.9,1.6*39
$GPRMC,095028.000,A,6324.8678,N,01900.9331,W,10.09,259.84,010912,,,A*49
$GPGGA,095029.000,6324.8673,N,01900.9391,W,1,09,0.9,17.0,M,60.2,M,,0000*78
$GPGSA,A,3,25,20,32,29,12,04,14,31,02,,,,1.9,0.9,1.6*39
$GPRMC,095029.000,A,6324.8673,N,01900.9391,W,9.92,259.29,010912,,,A*74
$GPGGA,095030.000,6324.8668,N,01900.9451,W,1,09,0.9,17.2,M,60.2,M,,0000*73
$GPGSA,A,3,25,20,32,29,12,04,14,31,02,,,,1.9,0.9,1.6*39
$GPRMC,095030.000,A,6324.8668,N,01900.9451,W,9.84,259.00,010912,,,A*71
$GPGGA,095031.000,6324.8662,N,01900.9510,W,1,09,0.9,17.4,M,60.2,M,,0000*7A
$GPGSA,A,3,25,20,32,29,12,04,14,31,02,,,,1.9,0.9,1.6*39
$GPGSV,3,1,10,25,73,185,39,12,52,082,30,14,46,211,31,31,40,281,36*7D
$GPGSV,3,2,10,29,25,165,32,32,22,304,32,04,19,040,27,20,16,334,29*76
$GPGSV,3,3,10,02,14,082,33,09,04,117,31*7D
$GPRMC,095031.000,A,6324.8662,N,01900.9510,W,9.76,258.66,010912,,,A*72
$GPGGA,095032.000,6324.8657,N,01900.9568,W,1,08,1.0,17.6,M,60.2,M,,0000*7B
$GPGSA,A,3,25,20,32,29,04,14,31,02,,,,,2.3,1.0,2.0*3E
$GPRMC,095032.000,A,6324.8657,N,01900.9568,W,9.64,258.38,010912,,,A*70
$GPGGA,095033.000,6324.8651,N,01900.9627,W,1,09,0.9,17.8,M,60.2,M,,0000*73
$GPGSA,A,3,25,20,32,29,12,04,14,31,02,,,,1.9,0.9,1.6*39
$GPRMC,095033.000,A,6324.8651,N,01900.9627,W,9.76,258.09,010912,,,A*7E
$GPGGA,095034.000,6324.8646,N,01900.9686,W,1,09,0.9,18.0,M,60.2,M,,0000*7E
$GPGSA,A,3,25,20,32,29,12,04,14,31,02,,,,1.9,0.9,1.6*39
$GPRMC,095034.000,A,6324.8646,N,01900.9686,W,9.67,258.52,010912,,,A*7A
$GPGGA,095035.000,6324.8640,N,01900.9745,W,1,09,0.9,18.2,M,60.2,M,,0000*75
$GPGSA,A,3,25,20,32,29,12,04,14,31,02,,,,1.9,0.9,1.6*39
$GPRMC,095035.000,A,6324.8640,N,01900.9745,W,9.82,257.29,010912,,,A*7B
$GPGGA,095036.000,6324.8632,N,01900.9804,W,1,07,1.1,18.3,M,60.2,M,,0000*7F
$GPGSA,A,3,25,20,32,29,04,14,31,,,,,,2.3,1.1,2.1*3C
$GPGSV,3,1,10,25,73,185,39,12,52,082,,14,46,210,25,31,41,281,33*7E
$GPGSV,3,2,10,29,25,165,29,32,22,304,15,04,19,040,33,20,16,334,27*72
$GPGSV,3,3,10,02,14,082,,09,04,117,27*7A
$GPRMC,095036.000,A,6324.8632,N,01900.9804,W,9.89,253.35,010912,,,A*75
$GPGGA,095037.000,6324.8623,N,01900.9862,W,1,08,1.0,18.5,M,60.2,M,,0000*76
$GPGSA,A,3,25,20,32,29,12,04,14,31,,,,,2.0,1.0,1.8*37
$GPRMC,095037.000,A,6324.8623,N,01900.9862,W,9.98,250.46,010912,,,A*73
$GPGGA,095038.000,6324.8612,N,01900.9919,W,1,08,1.0,18.6,M,60.2,M,,0000*75
$GPGSA,A,3,25,20,29,12,04,14,31,02,,,,,1.9,1.0,1.7*31
$GPRMC,095038.000,A,6324.8612,N,01900.9919,W,9.87,246.88,010912,,,A*78
$GPGGA,095039.000,6324.8601,N,01900.9974,W,1,08,1.0,18.6,M,60.2,M,,0000*7D
$GPGSA,A,3,25,20,29,12,04,14,31,02,,,,,1.9,1.0,1.7*31
$GPRMC,095039.000,A,6324.8601,N,01900.9974,W,9.75,245.82,010912,,,A*74
$GPGGA,095040.000,6324.8588,N,01901.0030,W,1,08,1.0,18.7,M,60.2,M,,0000*71
$GPGSA,A,3,25,20,29,12,04,14,31,02,,,,,1.9,1.0,1.7*31
$GPRMC,095040.000,A,6324.8588,N,01901.0030,W,9.91,243.73,010912,,,A*7B
$GPGGA,095041.000,6324.8575,N,01901.0082,W,1,08,1.0,18.7,M,60.2,M,,0000*7B
$GPGSA,A,3,25,20,29,12,04,14,31,02,,,,,1.9,1.0,1.7*31
$GPGSV,3,1,10,25,73,185,39,12,52,082,30,14,46,210,24,31,41,281,32*7D
$GPGSV,3,2,10,29,25,165,28,32,22,304,11,04,19,040,21,20,16,334,15*75
$GPGSV,3,3,10,02,14,082,27,09,04,117,27*7F
$GPRMC,095041.000,A,6324.8575,N,01901.0082,W,9.54,240.45,010912,,,A*7E
$GPGGA,095042.000,6324.8560,N,01901.0133,W,1,08,1.0,18.5,M,60.2,M,,0000*75
$GPGSA,A,3,25,20,29,12,04,14,31,02,,,,,1.9,1.0,1.7*31
$GPRMC,095042.000,A,6324.8560,N,01901.0133,W,9.83,236.91,010912,,,A*70
$GPGGA,095043.000,6324.8544,N,01901.0184,W,1,08,1.0,18.4,M,60.2,M,,0000*7F
$GPGSA,A,3,25,20,29,12,04,14,31,02,,,,,1.9,1.0,1.7*31
$GPRMC,095043.000,A,6324.8544,N,01901.0184,W,9.79,236.02,010912,,,A*74
$GPGGA,095044.000,6324.8529,N,01901.0232,W,1,08,1.0,18.3,M,60.2,M,,0000*7A
$GPGSA,A,3,25,20,29,12,04,14,31,02,,,,,1.9,1.0,1.7*31
$GPRMC,095044.000,A,6324.8529,N,01901.0232,W,9.58,234.23,010912,,,A*74
$GPGGA,095045.000,6324.8511,N,01901.0282,W,1,08,1.0,18.3,M,60.2,M,,0000*7B
$GPGSA,A,3,25,20,29,12,04,14,31,02,,,,,1.9,1.0,1.7*31
$GPRMC,095045.000,A,6324.8511,N,01901.0282,W,9.95,232.58,010912,,,A*7E
$GPGGA,095046.000,6324.8494,N,01901.0330,W,1,08,1.0,18.3,M,60.2,M,,0000*7C
$GPGSA,A,3,25,20,29,12,04,14,31,02,,,,,1.9,1.0,1.7*31
$GPGSV,3,1,10,25,73,185,40,12,52,082,30,14,46,210,26,31,41,281,33*70
$GPGSV,3,2,10,29,25,165,27,32,22,304,,04,19,040,24,20,16,334,14*7E
$GPGSV,3,3,10,02,14,082,28,09,04,117,32*74
$GPRMC,095046.000,A,6324.8494,N,01901.0330,W,9.83,231.84,010912,,,A*7C
$GPGGA,095047.000,6324.8478,N,01901.0379,W,1,08,1.0,18.3,M,60.2,M,,0000*72
$GPGSA,A,3,25,20,29,12,04,14,31,02,,,,,1.9,1.0,1.7*31
$GPRMC,095047.000,A,6324.8478,N,01901.0379,W,9.55,234.13,010912,,,A*72
$GPGGA,095048.000,6324.8465,N,01901.0429,W,1,08,1.0,18.4,M,60.2,M,,0000*74
$GPGSA,A,3,25,20,29,12,04,14,31,02,,,,,1.9,1.0,1.7*31
$GPRMC,095048.000,A,6324.8465,N,01901.0429,W,9.39,238.61,010912,,,A*70
$GPGGA,095049.000,6324.8453,N,01901.0482,W,1,07,1.2,18.5,M,60.2,M,,0000*7D
$GPGSA,A,3,25,29,12,04,14,31,02,,,,,,2.2,1.2,1.9*37
$GPRMC,095049.000,A,6324.8453,N,01901.0482,W,9.41,244.29,010912,,,A*7D
$GPGGA,095050.000,6324.8445,N,01901.0536,W,1,07,1.2,18.6,M,60.2,M,,0000*7F
$GPGSA,A,3,25,29,12,04,14,31,02,,,,,,2.2,1.2,1.9*37
$GPRMC,095050.000,A,6324.8445,N,01901.0536,W,9.09,251.28,010912,,,A*75
$GPGGA,095051.000,6324.8438,N,01901.0590,W,1,07,1.2,18.8,M,60.2,M,,0000*76
$GPGSA,A,3,25,29,12,04,14,31,02,,,,,,2.2,1.2,1.9*37
$GPGSV,3,1,10,25,73,185,40,12,52,082,30,14,46,210,31,31,41,281,33*76
$GPGSV,3,2,10,29,25,165,30,32,22,304,,04,19,040,32,20,16,334,*7A
$GPGSV,3,3,10,02,14,082,33,09,04,117,29*74
$GPRMC,095051.000,A,6324.8438,N,01901.0590,W,8.90,255.55,010912,,,A*7D
$GPGGA,095052.000,6324.8433,N,01901.0643,W,1,07,1.2,18.9,M,60.2,M,,0000*72
$GPGSA,A,3,25,29,12,04,14,31,02,,,,,,2.2,1.2,1.9*37
$GPRMC,095052.000,A,6324.8433,N,01901.0643,W,8.81,257.55,010912,,,A*7A
$GPGGA,095053.000,6324.8427,N,01901.0697,W,1,07,1.2,19.1,M,60.2,M,,0000*76
$GPGSA,A,3,25,29,12,04,14,31,02,,,,,,2.2,1.2,1.9*37
$GPRMC,095053.000,A,6324.8427,N,01901.0697,W,8.77,256.25,010912,,,A*78
$GPGGA,095054.000,6324.8421,N,01901.0748,W,1,07,1.2,19.3,M,60.2,M,,0000*76
$GPGSA,A,3,25,29,12,04,14,31,02,,,,,,2.2,1.2,1.9*37
$GPRMC,095054.000,A,6324.8421,N,01901.0748,W,8.62,255.58,010912,,,A*77
$GPGGA,095055.000,6324.8415,N,01901.0797,W,1,07,1.2,19.6,M,60.2,M,,0000*77
$GPGSA,A,3,25,29,12,04,14,31,02,,,,,,2.2,1.2,1.9*37
$GPRMC,095055.000,A,6324.8415,N,01901.0797,W,8.12,253.65,010912,,,A*7C
$GPGGA,095056.000,6324.8407,N,01901.0842,W,1,07,1.2,19.9,M,60.2,M,,0000*7F
$GPGSA,A,3,25,29,12,04,14,31,02,,,,,,2.2,1.2,1.9*37
$GPGSV,3,1,10,25,73,185,40,12,52,082,27,14,46,210,30,31,41,281,34*76
$GPGSV,3,2,10,29,25,165,34,32,22,304,,04,19,040,30,20,16,334,*7C
$GPGSV,3,3,10,02,14,082,30,09,04,117,26*78
$GPRMC,095056.000,A,6324.8407,N,01901.0842,W,7.73,249.38,010912,,,A*70
$GPGGA,095057.000,6324.8398,N,01901.0885,W,1,06,1.3,20.3,M,60.2,M,,0000*74
$GPGSA,A,3,25,29,04,14,31,02,,,,,,,2.8,1.3,2.5*30
$GPRMC,095057.000,A,6324.8398,N,01901.0885,W,7.62,244.73,010912,,,A*79
$GPGGA,095058.000,6324.8389,N,01901.0926,W,1,07,1.2,20.6,M,60.2,M,,0000*76
$GPGSA,A,3,25,12,29,04,14,31,02,,,,,,2.2,1.2,1.9*37
$GPRMC,095058.000,A,6324.8389,N,01901.0926,W,7.40,242.02,010912,,,A*7E
$GPGGA,095059.000,6324.8381,N,01901.0965,W,1,07,1.2,20.9,M,60.2,M,,0000*77
$GPGSA,A,3,25,12,29,04,14,31,02,,,,,,2.2,1.2,1.9*37
$GPRMC,095059.000,A,6324.8381,N,01901.0965,W,6.83,245.84,010912,,,A*77
$GPGGA,095100.000,6324.8375,N,01901.1007,W,1,06,1.4,21.2,M,60.2,M,,0000*70
$GPGSA,A,3,25,12,29,14,31,02,,,,,,,2.4,1.4,2.0*39
$GPRMC,095100.000,A,6324.8375,N,01901.1007,W,7.17,251.27,010912,,,A*7D
$GPGGA,095101.000,6324.8373,N,01901.1045,W,1,06,1.4,21.4,M,60.2,M,,0000*77
$GPGSA,A,3,25,12,29,14,31,02,,,,,,,2.4,1.4,2.0*39
$GPGSV,3,1,10,25,73,185,41,12,52,082,34,14,46,210,31,31,41,281,34*74
$GPGSV,3,2,10,29,25,165,34,32,22,304,,04,19,040,,20,16,334,*7F
$GPGSV,3,3,10,02,14,082,27,09,04,117,28*70
