$GPGGA,123254.000,6537.1210,N,02050.2970,W,1,11,0.7,43.3,M,60.6,M,,0000*70
$GPGSA,A,3,05,29,30,23,31,21,16,13,10,25,06,,1.6,0.7,1.5*3E
$GPGSV,3,1,12,30,69,239,30,29,44,074,32,16,41,264,30,31,37,176,31*73
$GPGSV,3,2,12,23,30,286,34,21,26,136,33,13,26,324,31,06,14,222,27*74
$GPGSV,3,3,12,10,14,352,28,05,14,046,18,25,13,104,28,02,06,019,32*7C
$GPRMC,123254.000,A,6537.1210,N,02050.2970,W,28.07,218.83,040912,,,A*42
$GPGGA,123255.000,6537.1150,N,02050.3091,W,1,11,0.7,43.4,M,60.6,M,,0000*76
$GPGSA,A,3,05,29,30,23,31,21,16,13,10,25,06,,1.6,0.7,1.5*3E
$GPRMC,123255.000,A,6537.1150,N,02050.3091,W,28.21,219.69,040912,,,A*42
$GPGGA,123256.000,6537.1091,N,02050.3214,W,1,11,0.7,43.5,M,60.6,M,,0000*77
$GPGSA,A,3,05,29,30,23,31,21,16,13,10,25,06,,1.6,0.7,1.5*3E
$GPRMC,123256.000,A,6537.1091,N,02050.3214,W,28.20,220.61,040912,,,A*41
$GPGGA,123257.000,6537.1034,N,02050.3338,W,1,10,0.9,43.6,M,60.6,M,,0000*7A
$GPGSA,A,3,05,29,30,23,31,21,16,13,10,25,,,2.1,0.9,1.9*3E
$GPRMC,123257.000,A,6537.1034,N,02050.3338,W,27.66,222.06,040912,,,A*4E
$GPGGA,123258.000,6537.0979,N,02050.3462,W,1,11,0.7,43.8,M,60.6,M,,0000*7D
$GPGSA,A,3,05,29,30,23,31,21,16,13,10,25,06,,1.6,0.7,1.5*3E
$GPRMC,123258.000,A,6537.0979,N,02050.3462,W,27.10,222.97,040912,,,A*41
$GPGGA,123259.000,6537.0924,N,02050.3585,W,1,11,0.7,43.9,M,60.6,M,,0000*7D
$GPGSA,A,3,05,29,30,23,31,21,16,13,10,25,06,,1.6,0.7,1.5*3E
$GPGSV,3,1,12,30,69,239,30,29,44,074,28,16,41,264,31,31,37,176,31*79
$GPGSV,3,2,12,23,30,286,38,21,26,136,33,13,26,324,33,06,14,222,33*7F
$GPGSV,3,3,12,10,14,352,29,05,14,046,31,25,13,104,30,02,06,019,32*7F
$GPRMC,123259.000,A,6537.0924,N,02050.3585,W,27.05,222.63,040912,,,A*4F
$GPGGA,123300.000,6537.0870,N,02050.3711,W,1,11,0.7,44.0,M,60.6,M,,0000*71
$GPGSA,A,3,05,29,30,23,31,21,16,13,10,25,06,,1.6,0.7,1.5*3E
$GPRMC,123300.000,A,6537.0870,N,02050.3711,W,26.87,224.52,040912,,,A*42
$GPGGA,123301.000,6537.0820,N,02050.3846,W,1,11,0.7,44.0,M,60.6,M,,0000*78
$GPGSA,A,3,05,29,30,23,31,21,16,13,10,25,06,,1.6,0.7,1.5*3E
$GPRMC,123301.000,A,6537.0820,N,02050.3846,W,27.12,227.67,040912,,,A*43
$GPGGA,123302.000,6537.0770,N,02050.3988,W,1,11,0.7,43.9,M,60.6,M,,0000*7C
$GPGSA,A,3,05,29,30,23,31,21,16,13,10,25,06,,1.6,0.7,1.5*3E
$GPRMC,123302.000,A,6537.0770,N,02050.3988,W,27.66,230.37,040912,,,A*49
$GPGGA,123303.000,6537.0721,N,02050.4135,W,1,11,0.7,43.9,M,60.6,M,,0000*70
$GPGSA,A,3,05,29,30,23,31,21,16,13,10,25,06,,1.6,0.7,1.5*3E
$GPRMC,123303.000,A,6537.0721,N,02050.4135,W,28.08,231.15,040912,,,A*43
$GPGGA,123304.000,6537.0673,N,02050.4284,W,1,10,0.9,43.8,M,60.6,M,,0000*76
$GPGSA,A,3,05,29,30,23,31,21,16,13,10,25,,,2.1,0.9,1.9*3E
$GPGSV,3,1,12,30,69,239,30,29,44,074,33,16,41,264,35,31,37,176,30*76
$GPGSV,3,2,12,23,30,286,38,21,26,136,33,13,26,324,28,06,14,222,*75
$GPGSV,3,3,12,10,14,352,34,05,14,046,31,25,13,104,31,02,06,019,32*72
$GPRMC,123304.000,A,6537.0673,N,02050.4284,W,28.14,232.33,040912,,,A*41
$GPGGA,123305.000,6537.0628,N,02050.4436,W,1,10,0.9,43.7,M,60.6,M,,0000*79
$GPGSA,A,3,05,29,30,23,31,21,16,13,10,25,,,2.1,0.9,1.9*3E
$GPRMC,123305.000,A,6537.0628,N,02050.4436,W,27.97,234.28,040912,,,A*49
$GPGGA,123306.000,6537.0585,N,02050.4593,W,1,11,0.7,43.7,M,60.6,M,,0000*7F
$GPGSA,A,3,05,29,30,23,31,21,16,13,10,25,06,,1.6,0.7,1.5*3E
$GPRMC,123306.000,A,6537.0585,N,02050.4593,W,27.92,236.79,040912,,,A*43
$GPGGA,123307.000,6537.0545,N,02050.4752,W,1,11,0.7,43.6,M,60.6,M,,0000*7C
$GPGSA,A,3,05,29,30,23,31,21,16,13,10,25,06,,1.6,0.7,1.5*3E
$GPRMC,123307.000,A,6537.0545,N,02050.4752,W,27.77,238.63,040912,,,A*4F
$GPGGA,123308.000,6537.0506,N,02050.4913,W,1,11,0.7,43.6,M,60.6,M,,0000*7F
$GPGSA,A,3,05,29,30,23,31,21,16,13,10,25,06,,1.6,0.7,1.5*3E
$GPRMC,123308.000,A,6537.0506,N,02050.4913,W,27.79,240.22,040912,,,A*48
$GPGGA,123309.000,6537.0470,N,02050.5077,W,1,10,0.8,43.5,M,60.6,M,,0000*79
$GPGSA,A,3,05,29,30,23,21,16,13,10,25,06,,,1.7,0.8,1.5*32
$GPGSV,3,1,12,30,69,239,35,29,44,074,24,16,41,264,35,31,37,176,*76
$GPGSV,3,2,12,23,30,286,32,21,26,136,34,13,26,324,33,06,14,222,32*73
$GPGSV,3,3,12,10,14,352,25,05,14,046,22,25,13,104,32,02,06,019,*72
$GPRMC,123309.000,A,6537.0470,N,02050.5077,W,27.63,242.34,040912,,,A*4D
$GPGGA,123310.000,6537.0436,N,02050.5242,W,1,10,0.8,43.4,M,60.6,M,,0000*76
$GPGSA,A,3,05,29,30,23,21,16,13,10,25,06,,,1.7,0.8,1.5*32
$GPRMC,123310.000,A,6537.0436,N,02050.5242,W,27.48,243.40,040912,,,A*48
$GPGGA,123311.000,6537.0402,N,02050.5407,W,1,11,0.7,43.3,M,60.6,M,,0000*7E
$GPGSA,A,3,05,29,30,23,21,16,13,31,10,25,06,,1.6,0.7,1.5*3E
$GPRMC,123311.000,A,6537.0402,N,02050.5407,W,27.28,244.20,040912,,,A*4E
$GPGGA,123312.000,6537.0370,N,02050.5573,W,1,11,0.7,43.2,M,60.6,M,,0000*7C
$GPGSA,A,3,05,29,30,23,21,16,13,31,10,25,06,,1.6,0.7,1.5*3E
$GPRMC,123312.000,A,6537.0370,N,02050.5573,W,27.29,244.79,040912,,,A*40
$GPGGA,123313.000,6537.0339,N,02050.5739,W,1,11,0.7,43.0,M,60.6,M,,0000*7E
$GPGSA,A,3,05,29,30,23,21,16,13,31,10,25,06,,1.6,0.7,1.5*3E
$GPRMC,123313.000,A,6537.0339,N,02050.5739,W,27.10,245.93,040912,,,A*4F
$GPGGA,123314.000,6537.0308,N,02050.5902,W,1,11,0.7,42.9,M,60.6,M,,0000*75
$GPGSA,A,3,05,29,30,23,21,16,13,31,10,25,06,,1.6,0.7,1.5*3E
$GPGSV,3,1,12,30,69,239,37,29,44,074,32,16,41,264,36,31,37,176,34*77
$GPGSV,3,2,12,23,30,286,32,21,26,136,34,13,26,324,26,06,14,222,33*76
$GPGSV,3,3,12,10,14,352,28,05,14,046,32,25,13,104,31,02,06,019,35*7B
$GPRMC,123314.000,A,6537.0308,N,02050.5902,W,26.72,245.74,040912,,,A*40
$GPGGA,123315.000,6537.0277,N,02050.6064,W,1,11,0.7,42.7,M,60.6,M,,0000*79
$GPGSA,A,3,05,29,30,23,21,16,13,31,10,25,06,,1.6,0.7,1.5*3E
$GPRMC,123315.000,A,6537.0277,N,02050.6064,W,26.54,245.45,040912,,,A*44
$GPGGA,123316.000,6537.0246,N,02050.6226,W,1,11,0.7,42.5,M,60.6,M,,0000*7E
$GPGSA,A,3,05,29,30,23,21,16,13,31,10,25,06,,1.6,0.7,1.5*3E
$GPRMC,123316.000,A,6537.0246,N,02050.6226,W,26.44,245.74,040912,,,A*42
$GPGGA,123317.000,6537.0215,N,02050.6387,W,1,11,0.7,42.4,M,60.6,M,,0000*72
$GPGSA,A,3,05,29,30,23,21,16,13,31,10,25,06,,1.6,0.7,1.5*3E
$GPRMC,123317.000,A,6537.0215,N,02050.6387,W,26.33,245.56,040912,,,A*4F
$GPGGA,123318.000,6537.0185,N,02050.6548,W,1,11,0.7,42.2,M,60.6,M,,0000*74
$GPGSA,A,3,05,29,30,23,21,16,13,31,10,25,06,,1.6,0.7,1.5*3E
$GPRMC,123318.000,A,6537.0185,N,02050.6548,W,26.14,245.65,040912,,,A*4A
$GPGGA,123319.000,6537.0155,N,02050.6706,W,1,11,0.7,42.1,M,60.6,M,,0000*73
$GPGSA,A,3,05,29,30,23,21,16,13,31,10,25,06,,1.6,0.7,1.5*3E
$GPGSV,3,1,12,30,69,238,37,29,44,073,31,16,41,264,36,31,36,175,34*70
$GPGSV,3,2,12,23,29,285,31,21,27,136,33,13,26,323,31,06,15,222,34*7F
$GPGSV,3,3,12,10,14,352,28,05,14,045,33,25,12,105,31,02,06,019,35*79
$GPRMC,123319.000,A,6537.0155,N,02050.6706,W,25.82,245.81,040912,,,A*48
$GPGGA,123320.000,6537.0126,N,02050.6862,W,1,11,0.7,42.0,M,60.6,M,,0000*71
$GPGSA,A,3,05,29,30,23,21,16,13,31,10,25,06,,1.6,0.7,1.5*3E
$GPRMC,123320.000,A,6537.0126,N,02050.6862,W,25.43,245.93,040912,,,A*45
$GPGGA,123321.000,6537.0097,N,02050.7015,W,1,11,0.7,42.0,M,60.6,M,,0000*72
$GPGSA,A,3,05,29,30,23,21,16,13,31,10,25,06,,1.6,0.7,1.5*3E
$GPRMC,123321.000,A,6537.0097,N,02050.7015,W,24.98,245.70,040912,,,A*4C
$GPGGA,123322.000,6537.0068,N,02050.7165,W,1,11,0.7,41.9,M,60.6,M,,0000*7D
$GPGSA,A,3,05,29,30,23,21,16,13,31,10,25,06,,1.6,0.7,1.5*3E
$GPRMC,123322.000,A,6537.0068,N,02050.7165,W,24.50,245.53,040912,,,A*4C
$GPGGA,123323.000,6537.0039,N,02050.7312,W,1,11,0.7,41.8,M,60.6,M,,0000*7B
$GPGSA,A,3,05,29,30,23,21,16,13,31,10,25,06,,1.6,0.7,1.5*3E
$GPRMC,123323.000,A,6537.0039,N,02050.7312,W,24.08,244.94,040912,,,A*4C
$GPGGA,123324.000,6537.0010,N,02050.7455,W,1,11,0.7,41.8,M,60.6,M,,0000*73
$GPGSA,A,3,05,29,30,23,21,16,13,31,10,25,06,,1.6,0.7,1.5*3E
$GPGSV,3,1,12,30,69,238,32,29,44,073,27,16,41,264,36,31,36,175,34*72
$GPGSV,3,2,12,23,29,285,37,21,27,136,33,13,26,323,33,06,15,222,34*7B
$GPGSV,3,3,12,10,14,352,27,05,14,045,32,25,12,105,26,02,06,019,35*71
$GPRMC,123324.000,A,6537.0010,N,02050.7455,W,23.65,244.53,040912,,,A*43
$GPGGA,123325.000,6536.9982,N,02050.7595,W,1,11,0.7,41.7,M,60.6,M,,0000*7A
$GPGSA,A,3,05,29,30,23,21,16,13,31,10,25,06,,1.6,0.7,1.5*3E
$GPRMC,123325.000,A,6536.9982,N,02050.7595,W,23.12,243.85,040912,,,A*49
$GPGGA,123326.000,6536.9953,N,02050.7732,W,1,11,0.7,41.5,M,60.6,M,,0000*78
$GPGSA,A,3,05,29,30,23,21,16,13,31,10,25,06,,1.6,0.7,1.5*3E
$GPRMC,123326.000,A,6536.9953,N,02050.7732,W,22.76,243.91,040912,,,A*4F
$GPGGA,123327.000,6536.9925,N,02050.7869,W,1,11,0.7,41.3,M,60.6,M,,0000*7F
$GPGSA,A,3,05,29,30,23,21,16,13,31,10,25,06,,1.6,0.7,1.5*3E
$GPRMC,123327.000,A,6536.9925,N,02050.7869,W,22.81,243.47,040912,,,A*4D
$GPGGA,123328.000,6536.9894,N,02050.8006,W,1,11,0.7,40.9,M,60.6,M,,0000*7E
$GPGSA,A,3,05,29,30,23,21,16,13,31,10,25,06,,1.6,0.7,1.5*3E
$GPRMC,123328.000,A,6536.9894,N,02050.8006,W,23.18,241.81,040912,,,A*4E
$GPGGA,123329.000,6536.9862,N,02050.8145,W,1,11,0.7,40.5,M,60.6,M,,0000*7C
$GPGSA,A,3,05,29,30,23,21,16,13,31,10,25,06,,1.6,0.7,1.5*3E
$GPGSV,3,1,12,30,69,238,27,29,44,073,32,16,41,264,27,31,36,175,33*75
$GPGSV,3,2,12,23,29,285,27,21,27,136,32,13,26,323,29,06,15,222,24*71
$GPGSV,3,3,12,10,14,352,22,05,14,045,15,25,12,105,33,02,06,019,26*77
$GPRMC,123329.000,A,6536.9862,N,02050.8145,W,23.76,240.58,040912,,,A*4D
$GPGGA,123330.000,6536.9827,N,02050.8285,W,1,11,0.7,40.1,M,60.6,M,,0000*7E
$GPGSA,A,3,05,29,30,23,21,16,13,31,10,25,06,,1.6,0.7,1.5*3E
$GPRMC,123330.000,A,6536.9827,N,02050.8285,W,24.40,238.85,040912,,,A*46
$GPGGA,123331.000,6536.9789,N,02050.8425,W,1,10,0.8,39.6,M,60.6,M,,0000*7F
$GPGSA,A,3,05,29,30,23,21,13,31,10,25,06,,,1.7,0.8,1.5*37
$GPRMC,123331.000,A,6536.9789,N,02050.8425,W,24.86,236.87,040912,,,A*46
$GPGGA,123332.000,6536.9748,N,02050.8560,W,1,10,0.8,39.0,M,60.6,M,,0000*77
$GPGSA,A,3,05,29,30,23,21,13,31,10,25,06,,,1.7,0.8,1.5*37
$GPRMC,123332.000,A,6536.9748,N,02050.8560,W,25.05,233.61,040912,,,A*4F
$GPGGA,123333.000,6536.9701,N,02050.8689,W,1,11,0.7,38.5,M,60.6,M,,0000*75
$GPGSA,A,3,05,29,30,23,21,16,13,31,10,25,06,,1.6,0.7,1.5*3E
$GPRMC,123333.000,A,6536.9701,N,02050.8689,W,25.74,228.05,040912,,,A*49
$GPGGA,123334.000,6536.9647,N,02050.8809,W,1,11,0.7,38.0,M,60.6,M,,0000*72
$GPGSA,A,3,05,29,30,23,21,16,13,31,10,25,06,,1.6,0.7,1.5*3E
$GPGSV,3,1,12,30,69,238,35,29,44,073,26,16,41,264,32,31,36,175,29*7C
$GPGSV,3,2,12,23,29,285,36,21,27,136,24,13,26,323,34,06,15,222,35*7A
$GPGSV,3,3,12,10,14,352,31,05,14,045,29,25,12,105,33,02,06,019,30*7D
$GPRMC,123334.000,A,6536.9647,N,02050.8809,W,26.38,222.93,040912,,,A*45
$GPGGA,123335.000,6536.9593,N,02050.8929,W,1,11,0.7,37.6,M,60.6,M,,0000*73
$GPGSA,A,3,05,29,30,23,21,16,13,31,10,25,06,,1.6,0.7,1.5*3E
$GPRMC,123335.000,A,6536.9593,N,02050.8929,W,26.71,221.89,040912,,,A*48
$GPGGA,123336.000,6536.9536,N,02050.9048,W,1,11,0.7,37.2,M,60.6,M,,0000*74
$GPGSA,A,3,05,29,30,23,21,16,13,31,10,25,06,,1.6,0.7,1.5*3E
$GPRMC,123336.000,A,6536.9536,N,02050.9048,W,27.00,220.69,040912,,,A*43
$GPGGA,123337.000,6536.9479,N,02050.9164,W,1,11,0.7,36.9,M,60.6,M,,0000*7A
$GPGSA,A,3,05,29,30,23,21,16,13,31,10,25,06,,1.6,0.7,1.5*3E
$GPRMC,123337.000,A,6536.9479,N,02050.9164,W,27.20,219.49,040912,,,A*4D
$GPGGA,123338.000,6536.9419,N,02050.9277,W,1,11,0.7,36.7,M,60.6,M,,0000*7C
$GPGSA,A,3,05,29,30,23,21,16,13,31,10,25,06,,1.6,0.7,1.5*3E
$GPRMC,123338.000,A,6536.9419,N,02050.9277,W,27.56,217.57,040912,,,A*45
$GPGGA,123339.000,6536.9357,N,02050.9386,W,1,11,0.7,36.5,M,60.6,M,,0000*7D
$GPGSA,A,3,05,29,30,23,21,16,13,31,10,25,06,,1.6,0.7,1.5*3E
$GPGSV,3,1,12,30,69,238,33,29,44,073,32,16,41,264,20,31,36,175,24*71
$GPGSV,3,2,12,23,29,285,36,21,27,136,32,13,26,323,26,06,15,222,33*78
$GPGSV,3,3,12,10,14,352,30,05,14,045,25,25,12,105,24,02,06,019,25*72
$GPRMC,123339.000,A,6536.9357,N,02050.9386,W,27.65,215.76,040912,,,A*47
$GPGGA,123340.000,6536.9294,N,02050.9492,W,1,11,0.7,36.4,M,60.6,M,,0000*7E
$GPGSA,A,3,05,29,30,23,21,16,13,31,10,25,06,,1.6,0.7,1.5*3E
$GPRMC,123340.000,A,6536.9294,N,02050.9492,W,27.82,214.63,040912,,,A*49
$GPGGA,123341.000,6536.9231,N,02050.9596,W,1,11,0.7,36.5,M,60.6,M,,0000*74
$GPGSA,A,3,05,29,30,23,21,16,13,31,10,25,06,,1.6,0.7,1.5*3E
$GPRMC,123341.000,A,6536.9231,N,02050.9596,W,27.85,213.65,040912,,,A*44
$GPGGA,123342.000,6536.9167,N,02050.9700,W,1,11,0.7,36.6,M,60.6,M,,0000*79
$GPGSA,A,3,05,29,30,23,21,16,13,31,10,25,06,,1.6,0.7,1.5*3E
$GPRMC,123342.000,A,6536.9167,N,02050.9700,W,27.77,213.74,040912,,,A*47
$GPGGA,123343.000,6536.9103,N,02050.9802,W,1,11,0.7,36.9,M,60.6,M,,0000*78
$GPGSA,A,3,05,29,30,23,21,16,13,31,10,25,06,,1.6,0.7,1.5*3E
$GPRMC,123343.000,A,6536.9103,N,02050.9802,W,27.80,213.32,040912,,,A*43
$GPGGA,123344.000,6536.9039,N,02050.9904,W,1,11,0.7,37.2,M,60.6,M,,0000*7A
$GPGSA,A,3,05,29,30,23,21,16,13,31,10,25,06,,1.6,0.7,1.5*3E
$GPGSV,3,1,12,30,69,238,33,29,44,073,34,16,41,264,17,31,36,175,18*7C
$GPGSV,3,2,12,23,29,285,36,21,27,136,31,13,26,323,28,06,15,222,35*73
$GPGSV,3,3,12,10,14,352,25,05,14,045,34,25,12,105,32,02,06,019,21*75
$GPRMC,123344.000,A,6536.9039,N,02050.9904,W,27.80,213.15,040912,,,A*4E
$GPGGA,123345.000,6536.8975,N,02051.0007,W,1,11,0.7,37.5,M,60.6,M,,0000*7E
$GPGSA,A,3,05,29,30,23,21,16,13,31,10,25,06,,1.6,0.7,1.5*3E
$GPRMC,123345.000,A,6536.8975,N,02051.0007,W,27.92,213.44,040912,,,A*4A
$GPGGA,123346.000,6536.8911,N,02051.0111,W,1,11,0.7,37.8,M,60.6,M,,0000*74
$GPGSA,A,3,05,29,30,23,21,16,13,31,10,25,06,,1.6,0.7,1.5*3E
$GPRMC,123346.000,A,6536.8911,N,02051.0111,W,27.99,213.82,040912,,,A*4C
$GPGGA,123347.000,6536.8846,N,02051.0216,W,1,11,0.7,38.2,M,60.6,M,,0000*77
$GPGSA,A,3,05,29,30,23,21,16,13,31,10,25,06,,1.6,0.7,1.5*3E
$GPRMC,123347.000,A,6536.8846,N,02051.0216,W,28.09,213.74,040912,,,A*45
$GPGGA,123348.000,6536.8781,N,02051.0319,W,1,11,0.7,38.6,M,60.6,M,,0000*76
$GPGSA,A,3,05,29,30,23,21,16,13,31,10,25,06,,1.6,0.7,1.5*3E
$GPRMC,123348.000,A,6536.8781,N,02051.0319,W,28.18,213.05,040912,,,A*46
$GPGGA,123349.000,6536.8716,N,02051.0421,W,1,11,0.7,39.0,M,60.6,M,,0000*72
$GPGSA,A,3,05,29,30,23,21,16,13,31,10,25,06,,1.6,0.7,1.5*3E
$GPGSV,3,1,12,30,69,238,27,29,44,073,26,16,41,264,22,31,36,175,29*7E
$GPGSV,3,2,12,23,29,285,37,21,27,136,30,13,26,323,32,06,15,222,36*7B
$GPGSV,3,3,12,10,14,352,25,05,14,045,33,25,12,105,32,02,06,019,20*73
$GPRMC,123349.000,A,6536.8716,N,02051.0421,W,28.19,213.02,040912,,,A*43
$GPGGA,123350.000,6536.8651,N,02051.0525,W,1,11,0.7,39.4,M,60.6,M,,0000*79
$GPGSA,A,3,05,29,30,23,21,16,13,31,10,25,06,,1.6,0.7,1.5*3E
$GPRMC,123350.000,A,6536.8651,N,02051.0525,W,28.14,213.37,040912,,,A*47
$GPGGA,123351.000,6536.8586,N,02051.0628,W,1,11,0.7,39.8,M,60.6,M,,0000*73
$GPGSA,A,3,05,29,30,23,21,16,13,31,10,25,06,,1.6,0.7,1.5*3E
$GPRMC,123351.000,A,6536.8586,N,02051.0628,W,28.13,213.15,040912,,,A*46
$GPGGA,123352.000,6536.8520,N,02051.0731,W,1,11,0.7,40.1,M,60.6,M,,0000*72
$GPGSA,A,3,05,29,30,23,21,16,13,31,10,25,06,,1.6,0.7,1.5*3E
$GPRMC,123352.000,A,6536.8520,N,02051.0731,W,28.18,212.97,040912,,,A*40
$GPGGA,123353.000,6536.8455,N,02051.0835,W,1,11,0.7,40.5,M,60.6,M,,0000*7F
$GPGSA,A,3,05,29,30,23,21,16,13,31,10,25,06,,1.6,0.7,1.5*3E
$GPRMC,123353.000,A,6536.8455,N,02051.0835,W,28.17,213.16,040912,,,A*4E
$GPGGA,123354.000,6536.8391,N,02051.0938,W,1,11,0.7,40.8,M,60.6,M,,0000*76
$GPGSA,A,3,05,29,30,23,21,16,13,31,10,25,06,,1.6,0.7,1.5*3E
$GPGSV,3,1,12,30,69,238,29,29,44,073,29,16,41,264,24,31,36,175,30*71
$GPGSV,3,2,12,23,29,285,37,21,27,136,25,13,26,323,34,06,15,222,36*79
$GPGSV,3,3,12,10,14,352,26,05,14,045,33,25,12,105,32,02,06,019,22*72
$GPRMC,123354.000,A,6536.8391,N,02051.0938,W,28.02,213.19,040912,,,A*41
$GPGGA,123355.000,6536.8327,N,02051.1041,W,1,11,0.7,41.3,M,60.6,M,,0000*76
$GPGSA,A,3,05,29,30,23,21,16,13,31,10,25,06,,1.6,0.7,1.5*3E
$GPRMC,123355.000,A,6536.8327,N,02051.1041,W,27.84,213.31,040912,,,A*40
$GPGGA,123356.000,6536.8263,N,02051.1143,W,1,11,0.7,41.8,M,60.6,M,,0000*7C
$GPGSA,A,3,05,29,30,23,21,16,13,31,10,25,06,,1.6,0.7,1.5*3E
$GPRMC,123356.000,A,6536.8263,N,02051.1143,W,27.64,213.44,040912,,,A*4D
$GPGGA,123357.000,6536.8200,N,02051.1245,W,1,11,0.7,42.3,M,60.6,M,,0000*75
$GPGSA,A,3,05,29,30,23,21,16,13,31,10,25,06,,1.6,0.7,1.5*3E
$GPRMC,123357.000,A,6536.8200,N,02051.1245,W,27.46,213.61,040912,,,A*4B
$GPGGA,123358.000,6536.8137,N,02051.1345,W,1,11,0.7,42.8,M,60.6,M,,0000*77
$GPGSA,A,3,05,29,30,23,21,16,13,31,10,25,06,,1.6,0.7,1.5*3E
$GPRMC,123358.000,A,6536.8137,N,02051.1345,W,27.13,213.58,040912,,,A*48
$GPGGA,123359.000,6536.8075,N,02051.1444,W,1,11,0.7,43.4,M,60.6,M,,0000*7A
$GPGSA,A,3,05,29,30,23,21,16,13,31,10,25,06,,1.6,0.7,1.5*3E
$GPGSV,3,1,12,30,69,238,29,29,44,073,32,16,41,264,24,31,36,175,30*7B
$GPGSV,3,2,12,23,29,285,37,21,27,136,25,13,26,323,34,06,15,222,37*78
$GPGSV,3,3,12,10,14,352,27,05,14,045,33,25,12,105,31,02,06,019,21*73
$GPRMC,123359.000,A,6536.8075,N,02051.1444,W,27.06,212.95,040912,,,A*4C
$GPGGA,123400.000,6536.8012,N,02051.1543,W,1,11,0.7,43.9,M,60.6,M,,0000*7B
$GPGSA,A,3,05,29,30,23,21,16,13,31,10,25,06,,1.6,0.7,1.5*3E
$GPRMC,123400.000,A,6536.8012,N,02051.1543,W,27.02,213.15,040912,,,A*4D
$GPGGA,123401.000,6536.7950,N,02051.1643,W,1,11,0.7,44.4,M,60.6,M,,0000*73
$GPGSA,A,3,05,29,30,23,21,16,13,31,10,25,06,,1.6,0.7,1.5*3E
$GPRMC,123401.000,A,6536.7950,N,02051.1643,W,27.07,213.72,040912,,,A*4B
$GPGGA,123402.000,6536.7887,N,02051.1745,W,1,11,0.7,44.9,M,60.6,M,,0000*71
$GPGSA,A,3,05,29,30,23,21,16,13,31,10,25,06,,1.6,0.7,1.5*3E
$GPRMC,123402.000,A,6536.7887,N,02051.1745,W,27.31,213.75,040912,,,A*46
$GPGGA,123403.000,6536.7823,N,02051.1845,W,1,11,0.7,45.3,M,60.6,M,,0000*7A
$GPGSA,A,3,05,29,30,23,21,16,13,31,10,25,06,,1.6,0.7,1.5*3E
$GPRMC,123403.000,A,6536.7823,N,02051.1845,W,27.51,213.01,040912,,,A*43
$GPGGA,123404.000,6536.7759,N,02051.1947,W,1,11,0.7,45.8,M,60.6,M,,0000*77
$GPGSA,A,3,05,29,30,23,21,16,13,31,10,25,06,,1.6,0.7,1.5*3E
$GPGSV,3,1,12,30,69,238,29,29,44,073,33,16,41,264,23,31,36,175,30*7D
$GPGSV,3,2,12,23,29,285,37,21,27,136,25,13,26,323,33,06,15,222,37*7F
$GPGSV,3,3,12,10,14,352,28,05,14,045,33,25,12,105,31,02,06,019,23*7E
$GPRMC,123404.000,A,6536.7759,N,02051.1947,W,27.69,213.35,040912,,,A*49
$GPGGA,123405.000,6536.7695,N,02051.2049,W,1,11,0.7,46.3,M,60.6,M,,0000*7B
$GPGSA,A,3,05,29,30,23,21,16,13,31,10,25,06,,1.6,0.7,1.5*3E
$GPRMC,123405.000,A,6536.7695,N,02051.2049,W,27.82,213.39,040912,,,A*44
$GPGGA,123406.000,6536.7630,N,02051.2153,W,1,10,0.8,46.8,M,60.6,M,,0000*78
$GPGSA,A,3,05,29,30,23,21,16,13,31,25,06,,,1.7,0.8,1.5*31
$GPRMC,123406.000,A,6536.7630,N,02051.2153,W,27.86,213.74,040912,,,A*4F
$GPGGA,123407.000,6536.7566,N,02051.2255,W,1,10,0.8,47.2,M,60.6,M,,0000*77
$GPGSA,A,3,05,29,30,23,21,13,31,10,25,06,,,1.7,0.8,1.5*37
$GPRMC,123407.000,A,6536.7566,N,02051.2255,W,27.90,212.97,040912,,,A*40
$GPGGA,123408.000,6536.7501,N,02051.2356,W,1,11,0.7,47.7,M,60.6,M,,0000*70
$GPGSA,A,3,05,29,30,23,21,16,13,31,10,25,06,,1.6,0.7,1.5*3E
$GPRMC,123408.000,A,6536.7501,N,02051.2356,W,27.88,212.97,040912,,,A*45
$GPGGA,123409.000,6536.7436,N,02051.2458,W,1,11,0.7,48.3,M,60.6,M,,0000*76
$GPGSA,A,3,05,29,30,23,21,16,13,31,10,25,06,,1.6,0.7,1.5*3E
$GPGSV,3,1,12,30,69,238,25,29,44,073,32,16,41,264,24,31,36,175,30*77
$GPGSV,3,2,12,23,29,285,37,21,27,136,29,13,26,323,33,06,15,222,37*73
$GPGSV,3,3,12,10,14,352,30,05,14,045,32,25,12,105,28,02,06,019,28*75
$GPRMC,123409.000,A,6536.7436,N,02051.2458,W,27.79,213.14,040912,,,A*4C
$GPGGA,123410.000,6536.7372,N,02051.2561,W,1,11,0.7,48.8,M,60.6,M,,0000*79
$GPGSA,A,3,05,29,30,23,21,16,13,31,10,25,06,,1.6,0.7,1.5*3E
$GPRMC,123410.000,A,6536.7372,N,02051.2561,W,27.96,213.64,040912,,,A*4E
$GPGGA,123411.000,6536.7307,N,02051.2667,W,1,11,0.7,49.3,M,60.6,M,,0000*75
$GPGSA,A,3,05,29,30,23,21,16,13,31,10,25,06,,1.6,0.7,1.5*3E
$GPRMC,123411.000,A,6536.7307,N,02051.2667,W,28.20,213.87,040912,,,A*47
$GPGGA,123412.000,6536.7241,N,02051.2771,W,1,11,0.7,49.7,M,60.6,M,,0000*77
$GPGSA,A,3,05,29,30,23,21,16,13,31,10,25,06,,1.6,0.7,1.5*3E
$GPRMC,123412.000,A,6536.7241,N,02051.2771,W,28.41,213.45,040912,,,A*48
$GPGGA,123413.000,6536.7175,N,02051.2875,W,1,11,0.7,50.2,M,60.6,M,,0000*74
$GPGSA,A,3,05,29,30,23,21,16,13,31,10,25,06,,1.6,0.7,1.5*3E
$GPRMC,123413.000,A,6536.7175,N,02051.2875,W,28.52,213.04,040912,,,A*41
$GPGGA,123414.000,6536.7109,N,02051.2979,W,1,11,0.7,50.5,M,60.6,M,,0000*72
$GPGSA,A,3,05,29,30,23,21,16,13,31,10,25,06,,1.6,0.7,1.5*3E
$GPGSV,3,1,12,30,69,238,26,29,44,073,32,16,41,264,18,31,36,175,30*7B
$GPGSV,3,2,12,23,29,285,37,21,27,136,28,13,26,323,33,06,15,222,37*72
$GPGSV,3,3,12,10,14,352,29,05,14,045,32,25,12,105,29,02,06,019,27*73
$GPRMC,123414.000,A,6536.7109,N,02051.2979,W,28.34,212.93,040912,,,A*4F
$GPGGA,123415.000,6536.7043,N,02051.3080,W,1,11,0.7,50.9,M,60.6,M,,0000*7E
$GPGSA,A,3,05,29,30,23,21,16,13,31,10,25,06,,1.6,0.7,1.5*3E
$GPRMC,123415.000,A,6536.7043,N,02051.3080,W,27.98,212.69,040912,,,A*43
$GPGGA,123416.000,6536.6979,N,02051.3180,W,1,11,0.7,51.1,M,60.6,M,,0000*74
$GPGSA,A,3,05,29,30,23,21,16,13,31,10,25,06,,1.6,0.7,1.5*3E
$GPRMC,123416.000,A,6536.6979,N,02051.3180,W,27.60,213.01,040912,,,A*48
$GPGGA,123417.000,6536.6916,N,02051.3281,W,1,11,0.7,51.4,M,60.6,M,,0000*7B
$GPGSA,A,3,05,29,30,23,21,16,13,31,10,25,06,,1.6,0.7,1.5*3E
$GPRMC,123417.000,A,6536.6916,N,02051.3281,W,27.21,213.40,040912,,,A*42
$GPGGA,123418.000,6536.6853,N,02051.3381,W,1,11,0.7,51.5,M,60.6,M,,0000*74
$GPGSA,A,3,05,29,30,23,21,16,13,31,10,25,06,,1.6,0.7,1.5*3E
$GPRMC,123418.000,A,6536.6853,N,02051.3381,W,27.04,213.75,040912,,,A*4D
$GPGGA,123419.000,6536.6790,N,02051.3482,W,1,11,0.7,51.7,M,60.6,M,,0000*73
$GPGSA,A,3,05,29,30,23,21,16,13,31,10,25,06,,1.6,0.7,1.5*3E
$GPGSV,3,1,12,30,69,237,25,29,43,073,32,16,42,264,26,31,36,175,22*7D
$GPGSV,3,2,12,23,29,284,37,21,27,135,29,13,26,323,28,06,16,222,37*78
$GPGSV,3,3,12,05,14,045,31,10,14,351,22,25,12,105,31,02,06,019,21*77
$GPRMC,123419.000,A,6536.6790,N,02051.3482,W,27.25,213.53,040912,,,A*4F
$GPGGA,123420.000,6536.6727,N,02051.3584,W,1,10,0.8,51.7,M,60.6,M,,0000*7C
$GPGSA,A,3,05,29,30,23,21,13,31,10,25,06,,,1.7,0.8,1.5*37
$GPRMC,123420.000,A,6536.6727,N,02051.3584,W,27.48,213.69,040912,,,A*4C
$GPGGA,123421.000,6536.6663,N,02051.3687,W,1,11,0.7,51.8,M,60.6,M,,0000*7D
$GPGSA,A,3,05,29,30,23,21,16,13,31,10,25,06,,1.6,0.7,1.5*3E
$GPRMC,123421.000,A,6536.6663,N,02051.3687,W,27.77,213.64,040912,,,A*4D
$GPGGA,123422.000,6536.6599,N,02051.3790,W,1,11,0.7,51.8,M,60.6,M,,0000*7F
$GPGSA,A,3,05,29,30,23,21,16,13,31,10,25,06,,1.6,0.7,1.5*3E
$GPRMC,123422.000,A,6536.6599,N,02051.3790,W,27.85,213.25,040912,,,A*47
$GPGGA,123423.000,6536.6534,N,02051.3892,W,1,11,0.7,51.9,M,60.6,M,,0000*75
$GPGSA,A,3,05,29,30,23,21,16,13,31,10,25,06,,1.6,0.7,1.5*3E
$GPRMC,123423.000,A,6536.6534,N,02051.3892,W,27.91,213.19,040912,,,A*46
$GPGGA,123424.000,6536.6469,N,02051.3996,W,1,11,0.7,51.8,M,60.6,M,,0000*7F
$GPGSA,A,3,05,29,30,23,21,16,13,31,10,25,06,,1.6,0.7,1.5*3E
$GPGSV,3,1,12,30,69,236,22,29,43,073,33,16,42,264,19,31,36,175,28*7C
$GPGSV,3,2,12,23,29,284,38,21,27,135,29,13,26,323,33,06,16,222,36*7C
$GPGSV,3,3,12,05,14,045,25,10,14,351,24,25,12,105,33,02,06,019,27*70
$GPRMC,123424.000,A,6536.6469,N,02051.3996,W,28.11,213.40,040912,,,A*46
$GPGGA,123425.000,6536.6404,N,02051.4101,W,1,11,0.7,51.8,M,60.6,M,,0000*74
$GPGSA,A,3,05,29,30,23,21,16,13,31,10,25,06,,1.6,0.7,1.5*3E
$GPRMC,123425.000,A,6536.6404,N,02051.4101,W,28.46,213.58,040912,,,A*46
$GPGGA,123426.000,6536.6337,N,02051.4205,W,1,11,0.7,51.7,M,60.6,M,,0000*78
$GPGSA,A,3,05,29,30,23,21,16,13,31,10,25,06,,1.6,0.7,1.5*3E
$GPRMC,123426.000,A,6536.6337,N,02051.4205,W,28.55,213.03,040912,,,A*49
$GPGGA,123427.000,6536.6271,N,02051.4309,W,1,11,0.7,51.7,M,60.6,M,,0000*77
$GPGSA,A,3,05,29,30,23,21,16,13,31,10,25,06,,1.6,0.7,1.5*3E
$GPRMC,123427.000,A,6536.6271,N,02051.4309,W,28.64,212.77,040912,,,A*46
$GPGGA,123428.000,6536.6204,N,02051.4414,W,1,11,0.7,51.7,M,60.6,M,,0000*71
$GPGSA,A,3,05,29,30,23,21,16,13,31,10,25,06,,1.6,0.7,1.5*3E
$GPRMC,123428.000,A,6536.6204,N,02051.4414,W,28.50,213.11,040912,,,A*46
$GPGGA,123429.000,6536.6139,N,02051.4517,W,1,11,0.7,51.9,M,60.6,M,,0000*71
$GPGSA,A,3,05,29,30,23,21,16,13,31,10,25,06,,1.6,0.7,1.5*3E
$GPGSV,3,1,12,30,69,236,22,29,43,073,33,16,42,264,18,31,36,175,27*72
$GPGSV,3,2,12,23,29,284,38,21,27,135,29,13,26,323,33,06,16,222,35*7F
$GPGSV,3,3,12,05,14,045,25,10,14,351,24,25,12,105,21,02,06,019,27*73
$GPRMC,123429.000,A,6536.6139,N,02051.4517,W,28.35,213.00,040912,,,A*4B
$GPGGA,123430.000,6536.6073,N,02051.4620,W,1,11,0.7,52.0,M,60.6,M,,0000*7B
$GPGSA,A,3,05,29,30,23,21,16,13,31,10,25,06,,1.6,0.7,1.5*3E
$GPRMC,123430.000,A,6536.6073,N,02051.4620,W,28.24,213.03,040912,,,A*48
$GPGGA,123431.000,6536.6007,N,02051.4726,W,1,11,0.7,52.0,M,60.6,M,,0000*7E
$GPGSA,A,3,05,29,30,23,21,16,13,31,10,25,06,,1.6,0.7,1.5*3E
$GPRMC,123431.000,A,6536.6007,N,02051.4726,W,28.30,213.68,040912,,,A*45
$GPGGA,123432.000,6536.5943,N,02051.4833,W,1,11,0.7,52.0,M,60.6,M,,0000*7C
$GPGSA,A,3,05,29,30,23,21,16,13,31,10,25,06,,1.6,0.7,1.5*3E
$GPRMC,123432.000,A,6536.5943,N,02051.4833,W,28.25,214.46,040912,,,A*48
$GPGGA,123433.000,6536.5879,N,02051.4944,W,1,11,0.7,52.0,M,60.6,M,,0000*74
$GPGSA,A,3,05,29,30,23,21,16,13,31,10,25,06,,1.6,0.7,1.5*3E
$GPRMC,123433.000,A,6536.5879,N,02051.4944,W,28.27,215.85,040912,,,A*4C
$GPGGA,123434.000,6536.5817,N,02051.5061,W,1,11,0.7,51.9,M,60.6,M,,0000*7E
$GPGSA,A,3,05,29,30,23,21,16,13,31,10,25,06,,1.6,0.7,1.5*3E
$GPGSV,3,1,12,30,69,236,27,29,43,073,34,16,42,264,30,31,36,175,28*75
$GPGSV,3,2,12,23,29,284,37,21,27,135,29,13,26,323,33,06,16,222,35*70
$GPGSV,3,3,12,05,14,045,23,10,14,351,25,25,12,105,18,02,06,019,30*78
$GPRMC,123434.000,A,6536.5817,N,02051.5061,W,28.31,218.11,040912,,,A*4B
$GPGGA,123435.000,6536.5757,N,02051.5183,W,1,11,0.7,51.8,M,60.6,M,,0000*78
$GPGSA,A,3,05,29,30,23,21,16,13,31,10,25,06,,1.6,0.7,1.5*3E
$GPRMC,123435.000,A,6536.5757,N,02051.5183,W,28.46,220.11,040912,,,A*47
$GPGGA,123436.000,6536.5699,N,02051.5313,W,1,11,0.7,51.7,M,60.6,M,,0000*7C
$GPGSA,A,3,05,29,30,23,21,16,13,31,10,25,06,,1.6,0.7,1.5*3E
$GPRMC,123436.000,A,6536.5699,N,02051.5313,W,28.39,222.99,040912,,,A*46
$GPGGA,123437.000,6536.5644,N,02051.5446,W,1,11,0.7,51.6,M,60.6,M,,0000*7B
$GPGSA,A,3,05,29,30,23,21,16,13,31,10,25,06,,1.6,0.7,1.5*3E
$GPRMC,123437.000,A,6536.5644,N,02051.5446,W,27.88,225.45,040912,,,A*43
$GPGGA,123438.000,6536.5594,N,02051.5579,W,1,10,0.8,51.4,M,60.6,M,,0000*7B
$GPGSA,A,3,05,29,30,23,21,16,13,31,25,06,,,1.7,0.8,1.5*31
$GPRMC,123438.000,A,6536.5594,N,02051.5579,W,27.00,227.55,040912,,,A*4C
$GPGGA,123439.000,6536.5547,N,02051.5712,W,1,10,0.8,51.2,M,60.6,M,,0000*7D
$GPGSA,A,3,05,29,30,23,21,16,13,31,25,06,,,1.7,0.8,1.5*31
$GPGSV,3,1,12,30,69,236,23,29,43,073,34,16,42,264,33,31,36,175,32*79
$GPGSV,3,2,12,23,29,284,38,21,27,135,32,13,26,323,33,06,16,222,32*72
$GPGSV,3,3,12,05,14,045,31,10,14,351,,25,12,105,18,02,06,019,32*7E
$GPRMC,123439.000,A,6536.5547,N,02051.5712,W,26.04,229.96,040912,,,A*48
$GPGGA,123440.000,6536.5505,N,02051.5840,W,1,11,0.7,51.0,M,60.6,M,,0000*71
$GPGSA,A,3,05,29,30,23,21,16,13,31,10,25,06,,1.6,0.7,1.5*3E
$GPRMC,123440.000,A,6536.5505,N,02051.5840,W,24.15,231.84,040912,,,A*40
$GPGGA,123441.000,6536.5468,N,02051.5956,W,1,11,0.7,50.7,M,60.6,M,,0000*7A
$GPGSA,A,3,05,29,30,23,21,16,13,31,10,25,06,,1.6,0.7,1.5*3E
$GPRMC,123441.000,A,6536.5468,N,02051.5956,W,21.64,232.97,040912,,,A*4F
$GPGGA,123442.000,6536.5436,N,02051.6060,W,1,11,0.7,50.5,M,60.6,M,,0000*7F
$GPGSA,A,3,05,29,30,23,21,16,13,31,10,25,06,,1.6,0.7,1.5*3E
$GPRMC,123442.000,A,6536.5436,N,02051.6060,W,19.24,233.73,040912,,,A*4C
$GPGGA,123443.000,6536.5407,N,02051.6155,W,1,11,0.7,50.3,M,60.6,M,,0000*7D
$GPGSA,A,3,05,29,30,23,21,16,13,31,10,25,06,,1.6,0.7,1.5*3E
$GPRMC,123443.000,A,6536.5407,N,02051.6155,W,17.37,233.88,040912,,,A*40
$GPGGA,123444.000,6536.5378,N,02051.6243,W,1,11,0.7,50.0,M,60.6,M,,0000*72
$GPGSA,A,3,05,29,30,23,21,16,13,31,10,25,06,,1.6,0.7,1.5*3E
$GPGSV,3,1,12,30,69,236,23,29,43,073,27,16,42,264,33,31,36,175,31*78
$GPGSV,3,2,12,23,29,284,37,21,27,135,33,13,26,323,28,06,16,222,29*7C
$GPGSV,3,3,12,05,14,045,31,10,14,351,28,25,12,105,18,02,06,019,32*74
$GPRMC,123444.000,A,6536.5378,N,02051.6243,W,16.43,232.55,040912,,,A*4F
$GPGGA,123445.000,6536.5351,N,02051.6329,W,1,11,0.7,49.4,M,60.6,M,,0000*79
$GPGSA,A,3,05,29,30,23,21,16,13,31,10,25,06,,1.6,0.7,1.5*3E
$GPRMC,123445.000,A,6536.5351,N,02051.6329,W,15.90,232.34,040912,,,A*42
$GPGGA,123446.000,6536.5323,N,02051.6414,W,1,11,0.7,48.5,M,60.6,M,,0000*76
$GPGSA,A,3,05,29,30,23,21,16,13,31,10,25,06,,1.6,0.7,1.5*3E
$GPRMC,123446.000,A,6536.5323,N,02051.6414,W,15.96,232.77,040912,,,A*4C
$GPGGA,123447.000,6536.5296,N,02051.6502,W,1,11,0.7,47.5,M,60.6,M,,0000*71
$GPGSA,A,3,05,29,30,23,21,16,13,31,10,25,06,,1.6,0.7,1.5*3E
$GPRMC,123447.000,A,6536.5296,N,02051.6502,W,16.21,233.59,040912,,,A*46
$GPGGA,123448.000,6536.5266,N,02051.6594,W,1,11,0.7,46.5,M,60.6,M,,0000*7F
$GPGSA,A,3,05,29,30,23,21,16,13,31,10,25,06,,1.6,0.7,1.5*3E
$GPRMC,123448.000,A,6536.5266,N,02051.6594,W,17.32,232.76,040912,,,A*46
$GPGGA,123449.000,6536.5234,N,02051.6693,W,1,10,0.8,45.5,M,60.6,M,,0000*70
$GPGSA,A,3,05,29,30,23,21,16,13,31,25,06,,,1.7,0.8,1.5*31
$GPGSV,3,1,12,30,69,236,32,29,43,073,29,16,42,264,34,31,36,175,31*71
$GPGSV,3,2,12,23,29,284,36,21,27,135,33,13,26,323,22,06,16,222,26*78
$GPGSV,3,3,12,05,14,045,28,10,14,351,,25,12,105,18,02,06,019,32*76
$GPRMC,123449.000,A,6536.5234,N,02051.6693,W,18.74,232.09,040912,,,A*41
$GPGGA,123450.000,6536.5200,N,02051.6798,W,1,11,0.7,44.4,M,60.6,M,,0000*7B
$GPGSA,A,3,05,29,30,23,21,16,13,31,10,25,06,,1.6,0.7,1.5*3E
$GPRMC,123450.000,A,6536.5200,N,02051.6798,W,20.01,232.00,040912,,,A*44
$GPGGA,123451.000,6536.5164,N,02051.6910,W,1,11,0.7,43.4,M,60.6,M,,0000*72
$GPGSA,A,3,05,29,30,23,21,16,13,31,10,25,06,,1.6,0.7,1.5*3E
$GPRMC,123451.000,A,6536.5164,N,02051.6910,W,21.06,232.51,040912,,,A*48
$GPGGA,123452.000,6536.5127,N,02051.7022,W,1,11,0.7,42.5,M,60.6,M,,0000*7F
$GPGSA,A,3,05,29,30,23,21,16,13,31,10,25,06,,1.6,0.7,1.5*3E
$GPRMC,123452.000,A,6536.5127,N,02051.7022,W,21.43,231.86,040912,,,A*4D
$GPGGA,123453.000,6536.5089,N,02051.7135,W,1,11,0.7,41.9,M,60.6,M,,0000*73
$GPGSA,A,3,05,29,30,23,21,16,13,31,10,25,06,,1.6,0.7,1.5*3E
$GPRMC,123453.000,A,6536.5089,N,02051.7135,W,21.81,231.46,040912,,,A*4C
$GPGGA,123454.000,6536.5049,N,02051.7252,W,1,11,0.7,41.3,M,60.6,M,,0000*70
$GPGSA,A,3,05,29,30,23,21,16,13,31,10,25,06,,1.6,0.7,1.5*3E
$GPGSV,3,1,12,30,69,236,29,29,43,073,30,16,42,264,34,31,36,175,31*73
$GPGSV,3,2,12,23,29,284,37,21,27,135,25,13,26,323,29,06,16,222,35*77
$GPGSV,3,3,12,05,14,045,30,10,14,351,29,25,12,105,17,02,06,019,24*7C
$GPRMC,123454.000,A,6536.5049,N,02051.7252,W,22.80,230.27,040912,,,A*41
$GPGGA,123455.000,6536.5006,N,02051.7370,W,1,11,0.7,40.8,M,60.6,M,,0000*71
$GPGSA,A,3,05,29,30,23,21,16,13,31,10,25,06,,1.6,0.7,1.5*3E
$GPRMC,123455.000,A,6536.5006,N,02051.7370,W,23.63,229.05,040912,,,A*4E
$GPGGA,123456.000,6536.4960,N,02051.7489,W,1,11,0.7,40.4,M,60.6,M,,0000*77
$GPGSA,A,3,05,29,30,23,21,16,13,31,10,25,06,,1.6,0.7,1.5*3E
$GPRMC,123456.000,A,6536.4960,N,02051.7489,W,24.29,227.37,040912,,,A*42
$GPGGA,123457.000,6536.4912,N,02051.7608,W,1,11,0.7,40.1,M,60.6,M,,0000*7D
$GPGSA,A,3,05,29,30,23,21,16,13,31,10,25,06,,1.6,0.7,1.5*3E
$GPRMC,123457.000,A,6536.4912,N,02051.7608,W,24.90,226.15,040912,,,A*4E
$GPGGA,123458.000,6536.4862,N,02051.7728,W,1,11,0.7,39.8,M,60.6,M,,0000*70
$GPGSA,A,3,05,29,30,23,21,16,13,31,10,25,06,,1.6,0.7,1.5*3E
$GPRMC,123458.000,A,6536.4862,N,02051.7728,W,25.41,224.77,040912,,,A*4F
$GPGGA,123459.000,6536.4810,N,02051.7847,W,1,11,0.7,39.6,M,60.6,M,,0000*7C
$GPGSA,A,3,05,29,30,23,21,16,13,31,10,25,06,,1.6,0.7,1.5*3E
$GPGSV,3,1,12,30,69,236,30,29,43,073,25,16,42,264,34,31,36,175,23*7C
$GPGSV,3,2,12,23,29,284,36,21,27,135,21,13,26,323,35,06,16,222,37*7D
$GPGSV,3,3,12,05,14,045,31,10,14,351,21,25,12,105,25,02,06,019,34*75
$GPRMC,123459.000,A,6536.4810,N,02051.7847,W,25.90,223.45,040912,,,A*47
$GPGGA,123500.000,6536.4757,N,02051.7967,W,1,11,0.7,39.5,M,60.6,M,,0000*7D
$GPGSA,A,3,05,29,30,23,21,16,13,31,10,25,06,,1.6,0.7,1.5*3E
$GPRMC,123500.000,A,6536.4757,N,02051.7967,W,26.49,222.84,040912,,,A*4E
$GPGGA,123501.000,6536.4701,N,02051.8087,W,1,11,0.7,39.5,M,60.6,M,,0000*77
$GPGSA,A,3,05,29,30,23,21,16,13,31,10,25,06,,1.6,0.7,1.5*3E
$GPRMC,123501.000,A,6536.4701,N,02051.8087,W,26.91,222.03,040912,,,A*4E
$GPGGA,123502.000,6536.4644,N,02051.8207,W,1,11,0.7,39.4,M,60.6,M,,0000*7F
$GPGSA,A,3,05,29,30,23,21,16,13,31,10,25,06,,1.6,0.7,1.5*3E
$GPRMC,123502.000,A,6536.4644,N,02051.8207,W,27.20,220.88,040912,,,A*4D
$GPGGA,123503.000,6536.4587,N,02051.8327,W,1,11,0.7,39.5,M,60.6,M,,0000*70
$GPGSA,A,3,05,29,30,23,21,16,13,31,10,25,06,,1.6,0.7,1.5*3E
$GPRMC,123503.000,A,6536.4587,N,02051.8327,W,27.51,220.66,040912,,,A*45
$GPGGA,123504.000,6536.4528,N,02051.8448,W,1,11,0.7,39.7,M,60.6,M,,0000*7E
$GPGSA,A,3,05,29,30,23,21,16,13,31,10,25,06,,1.6,0.7,1.5*3E
$GPGSV,3,1,12,30,70,236,30,29,43,073,28,16,42,264,34,31,36,175,29*73
$GPGSV,3,2,12,23,29,284,30,21,27,135,27,13,26,323,37,06,16,222,31*79
$GPGSV,3,3,12,05,14,045,32,10,14,351,28,25,11,105,16,02,05,019,28*72
$GPRMC,123504.000,A,6536.4528,N,02051.8448,W,27.74,220.68,040912,,,A*40
$GPGGA,123505.000,6536.4470,N,02051.8570,W,1,11,0.7,40.1,M,60.6,M,,0000*71
$GPGSA,A,3,05,29,30,23,21,16,13,31,10,25,06,,1.6,0.7,1.5*3E
$GPRMC,123505.000,A,6536.4470,N,02051.8570,W,27.84,220.78,040912,,,A*49
$GPGGA,123506.000,6536.4411,N,02051.8691,W,1,11,0.7,40.5,M,60.6,M,,0000*7D
$GPGSA,A,3,05,29,30,23,21,16,13,31,10,25,06,,1.6,0.7,1.5*3E
$GPRMC,123506.000,A,6536.4411,N,02051.8691,W,27.83,220.71,040912,,,A*4F
$GPGGA,123507.000,6536.4353,N,02051.8812,W,1,11,0.7,40.9,M,60.6,M,,0000*74
$GPGSA,A,3,05,29,30,23,21,16,13,31,10,25,06,,1.6,0.7,1.5*3E
$GPRMC,123507.000,A,6536.4353,N,02051.8812,W,27.79,220.34,040912,,,A*4E
$GPGGA,123508.000,6536.4293,N,02051.8933,W,1,11,0.7,41.3,M,60.6,M,,0000*7F
$GPGSA,A,3,05,29,30,23,21,16,13,31,10,25,06,,1.6,0.7,1.5*3E
$GPRMC,123508.000,A,6536.4293,N,02051.8933,W,27.93,220.13,040912,,,A*4F
$GPGGA,123509.000,6536.4233,N,02051.9054,W,1,11,0.7,41.6,M,60.6,M,,0000*78
$GPGSA,A,3,05,29,30,23,21,16,13,31,10,25,06,,1.6,0.7,1.5*3E
$GPGSV,3,1,12,30,70,236,31,29,43,073,30,16,42,264,33,31,36,175,31*75
$GPGSV,3,2,12,23,29,284,29,21,27,135,33,13,26,323,37,06,16,222,31*74
$GPGSV,3,3,12,05,14,045,31,10,14,351,29,25,11,105,14,02,05,019,29*73
$GPRMC,123509.000,A,6536.4233,N,02051.9054,W,28.14,219.79,040912,,,A*4B
$GPGGA,123510.000,6536.4173,N,02051.9177,W,1,11,0.7,42.0,M,60.6,M,,0000*72
$GPGSA,A,3,05,29,30,23,21,16,13,31,10,25,06,,1.6,0.7,1.5*3E
$GPRMC,123510.000,A,6536.4173,N,02051.9177,W,28.43,219.85,040912,,,A*45
$GPGGA,123511.000,6536.4112,N,02051.9300,W,1,11,0.7,42.3,M,60.6,M,,0000*75
$GPGSA,A,3,05,29,30,23,21,16,13,31,10,25,06,,1.6,0.7,1.5*3E
$GPRMC,123511.000,A,6536.4112,N,02051.9300,W,28.59,219.76,040912,,,A*46
$GPGGA,123512.000,6536.4051,N,02051.9423,W,1,11,0.7,42.5,M,60.6,M,,0000*70
$GPGSA,A,3,05,29,30,23,21,16,13,31,10,25,06,,1.6,0.7,1.5*3E
$GPRMC,123512.000,A,6536.4051,N,02051.9423,W,28.52,219.80,040912,,,A*47
$GPGGA,123513.000,6536.3991,N,02051.9546,W,1,11,0.7,42.6,M,60.6,M,,0000*72
$GPGSA,A,3,05,29,30,23,21,16,13,31,10,25,06,,1.6,0.7,1.5*3E
$GPRMC,123513.000,A,6536.3991,N,02051.9546,W,28.47,219.86,040912,,,A*44
$GPGGA,123514.000,6536.3930,N,02051.9669,W,1,11,0.7,42.7,M,60.6,M,,0000*71
$GPGSA,A,3,05,29,30,23,21,16,13,31,10,25,06,,1.6,0.7,1.5*3E
$GPGSV,3,1,12,30,70,236,31,29,43,073,32,16,42,264,33,31,36,175,31*77
$GPGSV,3,2,12,23,29,284,30,21,27,135,33,13,26,323,37,06,16,222,28*74
$GPGSV,3,3,12,05,14,045,26,10,14,351,29,25,11,105,15,02,05,019,31*7D
$GPRMC,123514.000,A,6536.3930,N,02051.9669,W,28.39,219.92,040912,,,A*4A
$GPGGA,123515.000,6536.3870,N,02051.9793,W,1,11,0.7,42.7,M,60.6,M,,0000*71
$GPGSA,A,3,05,29,30,23,21,16,13,31,10,25,06,,1.6,0.7,1.5*3E
$GPRMC,123515.000,A,6536.3870,N,02051.9793,W,28.41,220.08,040912,,,A*4C
$GPGGA,123516.000,6536.3810,N,02051.9916,W,1,11,0.7,42.8,M,60.6,M,,0000*78
$GPGSA,A,3,05,29,30,23,21,16,13,31,10,25,06,,1.6,0.7,1.5*3E
$GPRMC,123516.000,A,6536.3810,N,02051.9916,W,28.32,220.24,040912,,,A*40
$GPGGA,123517.000,6536.3750,N,02052.0040,W,1,11,0.7,42.8,M,60.6,M,,0000*72
$GPGSA,A,3,05,29,30,23,21,16,13,31,10,25,06,,1.6,0.7,1.5*3E
$GPRMC,123517.000,A,6536.3750,N,02052.0040,W,28.34,220.38,040912,,,A*41
$GPGGA,123518.000,6536.3690,N,02052.0165,W,1,11,0.7,42.8,M,60.6,M,,0000*76
$GPGSA,A,3,05,29,30,23,21,16,13,31,10,25,06,,1.6,0.7,1.5*3E
$GPRMC,123518.000,A,6536.3690,N,02052.0165,W,28.42,220.74,040912,,,A*4C
$GPGGA,123519.000,6536.3630,N,02052.0290,W,1,11,0.7,42.8,M,60.6,M,,0000*74
$GPGSA,A,3,05,29,30,23,21,16,13,31,10,25,06,,1.6,0.7,1.5*3E
$GPGSV,3,1,12,30,70,236,30,29,43,073,32,16,42,264,33,31,35,175,30*74
$GPGSV,3,2,12,23,29,284,31,21,27,135,33,13,26,323,37,06,16,222,31*7D
$GPGSV,3,3,12,05,14,045,31,10,14,351,30,25,11,105,14,02,05,018,31*73
$GPRMC,123519.000,A,6536.3630,N,02052.0290,W,28.60,220.45,040912,,,A*4C
$GPGGA,123520.000,6536.3569,N,02052.0417,W,1,11,0.7,42.9,M,60.6,M,,0000*79
$GPGSA,A,3,05,29,30,23,21,16,13,31,10,25,06,,1.6,0.7,1.5*3E
$GPRMC,123520.000,A,6536.3569,N,02052.0417,W,28.88,220.57,040912,,,A*45
$GPGGA,123521.000,6536.3508,N,02052.0545,W,1,10,0.8,42.9,M,60.6,M,,0000*77
$GPGSA,A,3,05,29,30,21,16,13,31,10,25,06,,,1.7,0.8,1.5*31
$GPRMC,123521.000,A,6536.3508,N,02052.0545,W,29.09,220.80,040912,,,A*47
$GPGGA,123522.000,6536.3447,N,02052.0673,W,1,11,0.7,43.2,M,60.6,M,,0000*7C
$GPGSA,A,3,05,29,30,23,21,16,13,31,10,25,06,,1.6,0.7,1.5*3E
$GPRMC,123522.000,A,6536.3447,N,02052.0673,W,29.22,220.52,040912,,,A*4E
$GPGGA,123523.000,6536.3385,N,02052.0800,W,1,11,0.7,43.6,M,60.6,M,,0000*7A
$GPGSA,A,3,05,29,30,23,21,16,13,31,10,25,06,,1.6,0.7,1.5*3E
$GPRMC,123523.000,A,6536.3385,N,02052.0800,W,29.21,220.38,040912,,,A*43
$GPGGA,123524.000,6536.3323,N,02052.0929,W,1,11,0.7,43.8,M,60.6,M,,0000*75
$GPGSA,A,3,05,29,30,23,21,16,13,31,10,25,06,,1.6,0.7,1.5*3E
$GPGSV,3,1,12,30,70,236,31,29,43,073,31,16,42,264,32,31,35,175,28*7E
$GPGSV,3,2,12,23,29,284,30,21,27,135,33,13,26,323,37,06,16,222,32*7F
$GPGSV,3,3,12,05,14,045,30,10,14,351,31,25,11,105,13,02,05,018,30*75
$GPRMC,123524.000,A,6536.3323,N,02052.0929,W,29.31,220.89,040912,,,A*49
$GPGGA,123525.000,6536.3263,N,02052.1062,W,1,11,0.7,44.0,M,60.6,M,,0000*79
$GPGSA,A,3,05,29,30,23,21,16,13,31,10,25,06,,1.6,0.7,1.5*3E
$GPRMC,123525.000,A,6536.3263,N,02052.1062,W,29.50,222.06,040912,,,A*48
$GPGGA,123526.000,6536.3202,N,02052.1196,W,1,11,0.7,44.2,M,60.6,M,,0000*75
$GPGSA,A,3,05,29,30,23,21,16,13,31,10,25,06,,1.6,0.7,1.5*3E
$GPRMC,123526.000,A,6536.3202,N,02052.1196,W,29.61,222.31,040912,,,A*40
$GPGGA,123527.000,6536.3143,N,02052.1335,W,1,11,0.7,44.3,M,60.6,M,,0000*78
$GPGSA,A,3,05,29,30,23,21,16,13,31,10,25,06,,1.6,0.7,1.5*3E
$GPRMC,123527.000,A,6536.3143,N,02052.1335,W,29.58,224.53,040912,,,A*44
$GPGGA,123528.000,6536.3088,N,02052.1479,W,1,11,0.7,44.4,M,60.6,M,,0000*79
$GPGSA,A,3,05,29,30,23,21,16,13,31,10,25,06,,1.6,0.7,1.5*3E
$GPRMC,123528.000,A,6536.3088,N,02052.1479,W,29.24,227.08,040912,,,A*44
$GPGGA,123529.000,6536.3036,N,02052.1626,W,1,11,0.7,44.4,M,60.6,M,,0000*75
$GPGSA,A,3,05,29,30,23,21,16,13,31,10,25,06,,1.6,0.7,1.5*3E
$GPGSV,3,1,12,30,70,236,24,29,43,073,32,16,42,264,33,31,35,175,30*71
$GPGSV,3,2,12,23,29,284,37,21,27,135,26,13,26,323,30,06,16,222,29*71
$GPGSV,3,3,12,05,14,045,31,10,14,351,36,25,11,105,14,02,05,018,31*75
$GPRMC,123529.000,A,6536.3036,N,02052.1626,W,28.69,229.89,040912,,,A*47
$GPGGA,123530.000,6536.2987,N,02052.1773,W,1,10,0.8,44.3,M,60.6,M,,0000*77
$GPGSA,A,3,05,29,30,23,16,13,31,10,25,06,,,1.7,0.8,1.5*33
$GPRMC,123530.000,A,6536.2987,N,02052.1773,W,28.03,231.35,040912,,,A*4E
$GPGGA,123531.000,6536.2941,N,02052.1920,W,1,11,0.7,44.2,M,60.6,M,,0000*7B
$GPGSA,A,3,05,29,30,23,21,16,13,31,10,25,06,,1.6,0.7,1.5*3E
$GPRMC,123531.000,A,6536.2941,N,02052.1920,W,27.44,232.78,040912,,,A*4B
$GPGGA,123532.000,6536.2897,N,02052.2066,W,1,11,0.7,44.0,M,60.6,M,,0000*78
$GPGSA,A,3,05,29,30,23,21,16,13,31,10,25,06,,1.6,0.7,1.5*3E
$GPRMC,123532.000,A,6536.2897,N,02052.2066,W,26.78,234.69,040912,,,A*42
$GPGGA,123533.000,6536.2857,N,02052.2213,W,1,11,0.7,43.7,M,60.6,M,,0000*75
$GPGSA,A,3,05,29,30,23,21,16,13,31,10,25,06,,1.6,0.7,1.5*3E
$GPRMC,123533.000,A,6536.2857,N,02052.2213,W,26.07,237.00,040912,,,A*4B
$GPGGA,123534.000,6536.2821,N,02052.2357,W,1,11,0.7,43.5,M,60.6,M,,0000*70
$GPGSA,A,3,05,29,30,23,21,16,13,31,10,25,06,,1.6,0.7,1.5*3E
$GPGSV,3,1,12,30,70,236,34,29,43,073,28,16,42,264,28,31,35,175,25*75
$GPGSV,3,2,12,23,29,284,28,21,27,135,34,13,26,323,22,06,16,222,30*77
$GPGSV,3,3,12,05,14,045,31,10,14,351,28,25,11,105,16,02,05,018,21*79
$GPRMC,123534.000,A,6536.2821,N,02052.2357,W,24.97,238.82,040912,,,A*42
$GPGGA,123535.000,6536.2788,N,02052.2500,W,1,10,0.8,43.3,M,60.6,M,,0000*71
$GPGSA,A,3,05,30,23,21,16,13,31,10,25,06,,,1.9,0.8,1.7*37
$GPRMC,123535.000,A,6536.2788,N,02052.2500,W,24.15,241.54,040912,,,A*44
$GPGGA,123536.000,6536.2759,N,02052.2642,W,1,11,0.7,42.9,M,60.6,M,,0000*7E
$GPGSA,A,3,05,29,30,23,21,16,13,31,10,25,06,,1.6,0.7,1.5*3E
$GPRMC,123536.000,A,6536.2759,N,02052.2642,W,23.39,244.19,040912,,,A*4B
$GPGGA,123537.000,6536.2734,N,02052.2782,W,1,11,0.7,42.6,M,60.6,M,,0000*76
$GPGSA,A,3,05,29,30,23,21,16,13,31,10,25,06,,1.6,0.7,1.5*3E
$GPRMC,123537.000,A,6536.2734,N,02052.2782,W,22.63,247.20,040912,,,A*4B
$GPGGA,123538.000,6536.2712,N,02052.2921,W,1,11,0.7,42.1,M,60.6,M,,0000*7D
$GPGSA,A,3,05,29,30,23,21,16,13,31,10,25,06,,1.6,0.7,1.5*3E
$GPRMC,123538.000,A,6536.2712,N,02052.2921,W,21.97,249.86,040912,,,A*4D
$GPGGA,123539.000,6536.2694,N,02052.3061,W,1,11,0.7,41.6,M,60.6,M,,0000*7B
$GPGSA,A,3,05,29,30,23,21,16,13,31,10,25,06,,1.6,0.7,1.5*3E
$GPGSV,3,1,12,30,70,236,40,29,43,073,26,16,42,264,33,31,35,175,25*72
$GPGSV,3,2,12,23,29,284,30,21,27,135,25,13,26,323,35,06,16,222,31*79
$GPGSV,3,3,12,05,14,045,20,10,14,351,34,25,11,105,16,02,05,018,26*73
$GPRMC,123539.000,A,6536.2694,N,02052.3061,W,21.78,252.79,040912,,,A*44
$GPGGA,123540.000,6536.2679,N,02052.3201,W,1,11,0.7,41.1,M,60.6,M,,0000*75
$GPGSA,A,3,05,29,30,23,21,16,13,31,10,25,06,,1.6,0.7,1.5*3E
$GPRMC,123540.000,A,6536.2679,N,02052.3201,W,21.51,256.20,040912,,,A*4E
$GPGGA,123541.000,6536.2666,N,02052.3341,W,1,11,0.7,40.4,M,60.6,M,,0000*7B
$GPGSA,A,3,05,29,30,23,21,16,13,31,10,25,06,,1.6,0.7,1.5*3E
$GPRMC,123541.000,A,6536.2666,N,02052.3341,W,21.20,258.27,040912,,,A*4B
$GPGGA,123542.000,6536.2655,N,02052.3482,W,1,11,0.7,39.8,M,60.6,M,,0000*72
$GPGSA,A,3,05,29,30,23,21,16,13,31,10,25,06,,1.6,0.7,1.5*3E
$GPRMC,123542.000,A,6536.2655,N,02052.3482,W,21.21,260.49,040912,,,A*42
$GPGGA,123543.000,6536.2647,N,02052.3622,W,1,11,0.7,39.1,M,60.6,M,,0000*71
$GPGSA,A,3,05,29,30,23,21,16,13,31,10,25,06,,1.6,0.7,1.5*3E
$GPRMC,123543.000,A,6536.2647,N,02052.3622,W,20.90,262.47,040912,,,A*4F
$GPGGA,123544.000,6536.2641,N,02052.3763,W,1,11,0.7,38.5,M,60.6,M,,0000*71
$GPGSA,A,3,05,29,30,23,21,16,13,31,10,25,06,,1.6,0.7,1.5*3E
$GPGSV,3,1,12,30,70,236,39,29,43,073,31,16,42,264,32,31,35,175,35*7A
$GPGSV,3,2,12,23,29,284,37,21,27,135,31,13,26,323,30,06,16,222,27*79
$GPGSV,3,3,12,05,14,045,25,10,14,351,30,25,11,105,16,02,05,018,29*7D
$GPRMC,123544.000,A,6536.2641,N,02052.3763,W,21.15,264.22,040912,,,A*43
$GPGGA,123545.000,6536.2635,N,02052.3907,W,1,10,0.8,37.9,M,60.6,M,,0000*72
$GPGSA,A,3,29,30,23,21,16,13,31,10,25,06,,,1.7,0.8,1.5*35
$GPRMC,123545.000,A,6536.2635,N,02052.3907,W,21.48,264.89,040912,,,A*44
$GPGGA,123546.000,6536.2630,N,02052.4052,W,1,11,0.7,37.4,M,60.6,M,,0000*79
$GPGSA,A,3,05,29,30,23,21,16,13,31,10,25,06,,1.6,0.7,1.5*3E
$GPRMC,123546.000,A,6536.2630,N,02052.4052,W,21.77,265.32,040912,,,A*41
$GPGGA,123547.000,6536.2626,N,02052.4198,W,1,11,0.7,37.0,M,60.6,M,,0000*7C
$GPGSA,A,3,05,29,30,23,21,16,13,31,10,25,06,,1.6,0.7,1.5*3E
$GPRMC,123547.000,A,6536.2626,N,02052.4198,W,21.84,265.64,040912,,,A*4F
$GPGGA,123548.000,6536.2622,N,02052.4343,W,1,11,0.7,36.6,M,60.6,M,,0000*74
$GPGSA,A,3,05,29,30,23,21,16,13,31,10,25,06,,1.6,0.7,1.5*3E
$GPRMC,123548.000,A,6536.2622,N,02052.4343,W,21.69,266.07,040912,,,A*45
$GPGGA,123549.000,6536.2619,N,02052.4487,W,1,11,0.7,36.3,M,60.6,M,,0000*77
$GPGSA,A,3,05,29,30,23,21,16,13,31,10,25,06,,1.6,0.7,1.5*3E
$GPGSV,3,1,12,30,70,235,39,29,43,073,32,16,43,264,30,31,35,175,34*78
$GPGSV,3,2,12,23,29,284,37,21,28,135,30,13,27,322,32,06,16,222,28*7A
$GPGSV,3,3,12,05,14,044,27,10,14,351,31,25,11,105,16,02,05,018,33*74
$GPRMC,123549.000,A,6536.2619,N,02052.4487,W,21.53,266.95,040912,,,A*41
$GPGGA,123550.000,6536.2616,N,02052.4631,W,1,11,0.7,36.0,M,60.6,M,,0000*7C
$GPGSA,A,3,05,29,30,23,21,16,13,31,10,25,06,,1.6,0.7,1.5*3E
$GPRMC,123550.000,A,6536.2616,N,02052.4631,W,21.44,267.35,040912,,,A*44
$GPGGA,123551.000,6536.2614,N,02052.4773,W,1,10,0.9,35.8,M,60.6,M,,0000*7C
$GPGSA,A,3,05,29,30,23,21,16,13,31,10,25,,,2.0,0.9,1.8*3E
$GPRMC,123551.000,A,6536.2614,N,02052.4773,W,21.19,267.28,040912,,,A*44
$GPGGA,123552.000,6536.2610,N,02052.4914,W,1,11,0.7,35.5,M,60.6,M,,0000*76
$GPGSA,A,3,05,29,30,23,21,16,13,31,10,25,06,,1.6,0.7,1.5*3E
$GPRMC,123552.000,A,6536.2610,N,02052.4914,W,21.15,266.34,040912,,,A*4C
$GPGGA,123553.000,6536.2607,N,02052.5054,W,1,11,0.7,35.2,M,60.6,M,,0000*7A
$GPGSA,A,3,05,29,30,23,21,16,13,31,10,25,06,,1.6,0.7,1.5*3E
$GPRMC,123553.000,A,6536.2607,N,02052.5054,W,20.85,266.55,040912,,,A*48
$GPGGA,123554.000,6536.2605,N,02052.5188,W,1,11,0.7,35.0,M,60.6,M,,0000*7D
$GPGSA,A,3,05,29,30,23,21,16,13,31,10,25,06,,1.6,0.7,1.5*3E
$GPGSV,3,1,12,30,70,235,38,29,43,073,30,16,43,264,30,31,35,175,34*7B
$GPGSV,3,2,12,23,29,284,36,21,28,135,30,13,27,322,32,06,16,222,30*72
$GPGSV,3,3,12,05,14,044,28,10,14,351,33,25,11,105,23,02,05,018,25*78
$GPRMC,123554.000,A,6536.2605,N,02052.5188,W,20.05,267.12,040912,,,A*47
$GPGGA,123555.000,6536.2603,N,02052.5314,W,1,11,0.7,34.7,M,60.6,M,,0000*7B
$GPGSA,A,3,05,29,30,23,21,16,13,31,10,25,06,,1.6,0.7,1.5*3E
$GPRMC,123555.000,A,6536.2603,N,02052.5314,W,18.72,267.48,040912,,,A*43
$GPGGA,123556.000,6536.2601,N,02052.5431,W,1,11,0.7,34.5,M,60.6,M,,0000*78
$GPGSA,A,3,05,29,30,23,21,16,13,31,10,25,06,,1.6,0.7,1.5*3E
$GPRMC,123556.000,A,6536.2601,N,02052.5431,W,17.38,267.66,040912,,,A*4F
$GPGGA,123557.000,6536.2600,N,02052.5542,W,1,11,0.7,34.3,M,60.6,M,,0000*7B
$GPGSA,A,3,05,29,30,23,21,16,13,31,10,25,06,,1.6,0.7,1.5*3E
$GPRMC,123557.000,A,6536.2600,N,02052.5542,W,16.37,267.97,040912,,,A*4A
$GPGGA,123558.000,6536.2599,N,02052.5647,W,1,11,0.7,34.2,M,60.6,M,,0000*70
$GPGSA,A,3,05,29,30,23,21,16,13,31,10,25,06,,1.6,0.7,1.5*3E
$GPRMC,123558.000,A,6536.2599,N,02052.5647,W,15.57,268.66,040912,,,A*44
$GPGGA,123559.000,6536.2599,N,02052.5745,W,1,11,0.7,34.0,M,60.6,M,,0000*70
$GPGSA,A,3,05,29,30,23,21,16,13,31,10,25,06,,1.6,0.7,1.5*3E
$GPGSV,3,1,12,30,70,235,38,29,43,073,30,16,43,264,31,31,35,175,34*7A
$GPGSV,3,2,12,23,29,284,30,21,28,135,31,13,27,322,33,06,16,222,31*75
$GPGSV,3,3,12,05,14,044,34,10,14,351,29,25,11,105,30,02,05,018,30*78
$GPRMC,123559.000,A,6536.2599,N,02052.5745,W,14.43,270.20,040912,,,A*49
$GPGGA,123600.000,6536.2599,N,02052.5834,W,1,10,0.8,33.8,M,60.6,M,,0000*77
$GPGSA,A,3,05,29,30,23,21,13,31,10,25,06,,,1.7,0.8,1.5*37
$GPRMC,123600.000,A,6536.2599,N,02052.5834,W,13.15,268.95,040912,,,A*4C
$GPGGA,123601.000,6536.2598,N,02052.5915,W,1,11,0.7,33.7,M,60.6,M,,0000*74
$GPGSA,A,3,05,29,30,23,21,16,13,31,10,25,06,,1.6,0.7,1.5*3E
$GPRMC,123601.000,A,6536.2598,N,02052.5915,W,11.84,267.19,040912,,,A*4F
$GPGGA,123602.000,6536.2596,N,02052.5989,W,1,11,0.7,33.6,M,60.6,M,,0000*7D
$GPGSA,A,3,05,29,30,23,21,16,13,31,10,25,06,,1.6,0.7,1.5*3E
$GPRMC,123602.000,A,6536.2596,N,02052.5989,W,10.88,266.32,040912,,,A*42
$GPGGA,123603.000,6536.2594,N,02052.6058,W,1,11,0.7,33.5,M,60.6,M,,0000*7B
$GPGSA,A,3,05,29,30,23,21,16,13,31,10,25,06,,1.6,0.7,1.5*3E
$GPRMC,123603.000,A,6536.2594,N,02052.6058,W,10.20,266.03,040912,,,A*47
$GPGGA,123604.000,6536.2593,N,02052.6122,W,1,11,0.7,33.4,M,60.6,M,,0000*76
$GPGSA,A,3,05,29,30,23,21,16,13,31,10,25,06,,1.6,0.7,1.5*3E
$GPGSV,3,1,12,30,70,235,38,29,43,073,32,16,43,264,27,31,35,175,34*7F
$GPGSV,3,2,12,23,29,284,35,21,28,135,30,13,27,322,27,06,16,222,32*77
$GPGSV,3,3,12,05,14,044,23,10,14,351,33,25,11,105,21,02,05,018,19*7E
$GPRMC,123604.000,A,6536.2593,N,02052.6122,W,9.47,266.35,040912,,,A*77
$GPGGA,123605.000,6536.2593,N,02052.6179,W,1,11,0.7,33.4,M,60.6,M,,0000*79
$GPGSA,A,3,05,29,30,23,21,16,13,31,10,25,06,,1.6,0.7,1.5*3E
$GPRMC,123605.000,A,6536.2593,N,02052.6179,W,8.45,268.34,040912,,,A*74
$GPGGA,123606.000,6536.2593,N,02052.6227,W,1,11,0.7,33.4,M,60.6,M,,0000*72
$GPGSA,A,3,05,29,30,23,21,16,13,31,10,25,06,,1.6,0.7,1.5*3E
$GPRMC,123606.000,A,6536.2593,N,02052.6227,W,7.08,270.28,040912,,,A*7D
$GPGGA,123607.000,6536.2594,N,02052.6268,W,1,11,0.7,33.4,M,60.6,M,,0000*7F
$GPGSA,A,3,05,29,30,23,21,16,13,31,10,25,06,,1.6,0.7,1.5*3E
$GPRMC,123607.000,A,6536.2594,N,02052.6268,W,6.08,271.22,040912,,,A*7A
$GPGGA,123608.000,6536.2595,N,02052.6304,W,1,11,0.7,33.4,M,60.6,M,,0000*7A
$GPGSA,A,3,05,29,30,23,21,16,13,31,10,25,06,,1.6,0.7,1.5*3E
$GPRMC,123608.000,A,6536.2595,N,02052.6304,W,5.31,272.52,040912,,,A*72
$GPGGA,123609.000,6536.2596,N,02052.6331,W,1,10,0.8,33.3,M,60.6,M,,0000*77
$GPGSA,A,3,05,29,30,23,16,13,31,10,25,06,,,1.7,0.8,1.5*33
$GPGSV,3,1,12,30,70,235,38,29,43,073,26,16,43,264,34,31,35,175,34*78
$GPGSV,3,2,12,23,29,284,27,21,28,135,25,13,27,322,35,06,16,222,28*78
$GPGSV,3,3,12,05,14,044,36,10,14,351,31,25,11,105,29,02,05,018,32*79
$GPRMC,123609.000,A,6536.2596,N,02052.6331,W,3.97,274.90,040912,,,A*74
$GPGGA,123610.000,6536.2597,N,02052.6349,W,1,11,0.7,33.2,M,60.6,M,,0000*7E
$GPGSA,A,3,05,29,30,23,21,16,13,31,10,25,06,,1.6,0.7,1.5*3E
$GPRMC,123610.000,A,6536.2597,N,02052.6349,W,2.60,279.28,040912,,,A*75
$GPGGA,123611.000,6536.2598,N,02052.6361,W,1,11,0.7,33.2,M,60.6,M,,0000*7A
$GPGSA,A,3,05,29,30,23,21,16,13,31,10,25,06,,1.6,0.7,1.5*3E
$GPRMC,123611.000,A,6536.2598,N,02052.6361,W,1.74,281.74,040912,,,A*79
$GPGGA,123612.000,6536.2600,N,02052.6376,W,1,11,0.7,33.1,M,60.6,M,,0000*7E
$GPGSA,A,3,05,29,30,23,21,16,13,31,10,25,06,,1.6,0.7,1.5*3E
$GPRMC,123612.000,A,6536.2600,N,02052.6376,W,2.43,289.65,040912,,,A*71
$GPGGA,123613.000,6536.2606,N,02052.6399,W,1,11,0.7,33.0,M,60.6,M,,0000*79
$GPGSA,A,3,05,29,30,23,21,16,13,31,10,25,06,,1.6,0.7,1.5*3E
$GPRMC,123613.000,A,6536.2606,N,02052.6399,W,3.95,301.00,040912,,,A*7F
$GPGGA,123614.000,6536.2618,N,02052.6422,W,1,09,0.8,32.9,M,60.6,M,,0000*78
$GPGSA,A,3,05,29,30,21,16,13,31,25,06,,,,1.8,0.8,1.6*3C
$GPGSV,3,1,12,30,70,235,39,29,43,073,40,16,43,264,34,31,35,175,33*7E
$GPGSV,3,2,12,23,29,284,,21,28,135,28,13,27,322,27,06,16,222,28*73
$GPGSV,3,3,12,05,14,044,33,10,14,351,,25,11,105,28,02,05,018,25*79
$GPRMC,123614.000,A,6536.2618,N,02052.6422,W,5.57,321.69,040912,,,A*75
$GPGGA,123615.000,6536.2634,N,02052.6440,W,1,08,1.0,32.8,M,60.6,M,,0000*7A
$GPGSA,A,3,05,29,30,23,21,16,31,25,,,,,2.2,1.0,1.9*36
$GPRMC,123615.000,A,6536.2634,N,02052.6440,W,6.48,335.63,040912,,,A*7C
$GPGGA,123616.000,6536.2653,N,02052.6452,W,1,09,0.9,32.7,M,60.6,M,,0000*7D
$GPGSA,A,3,05,29,30,23,21,16,31,10,25,,,,2.1,0.9,1.8*3D
$GPRMC,123616.000,A,6536.2653,N,02052.6452,W,7.23,344.91,040912,,,A*7A
$GPGGA,123617.000,6536.2675,N,02052.6461,W,1,10,0.9,32.6,M,60.6,M,,0000*71
$GPGSA,A,3,05,29,30,23,21,16,13,31,10,25,,,2.0,0.9,1.8*3E
$GPRMC,123617.000,A,6536.2675,N,02052.6461,W,8.14,349.39,040912,,,A*7B
$GPGGA,123618.000,6536.2699,N,02052.6467,W,1,11,0.7,32.5,M,60.6,M,,0000*76
$GPGSA,A,3,05,29,30,23,21,16,13,31,10,25,06,,1.6,0.7,1.5*3E
$GPRMC,123618.000,A,6536.2699,N,02052.6467,W,8.83,353.62,040912,,,A*7B
$GPGGA,123619.000,6536.2724,N,02052.6472,W,1,11,0.7,32.3,M,60.6,M,,0000*72
$GPGSA,A,3,05,29,30,23,21,16,13,31,10,25,06,,1.6,0.7,1.5*3E
$GPGSV,3,1,12,30,70,234,29,16,43,264,38,29,42,073,33,31,35,175,31*75
$GPGSV,3,2,12,23,29,283,26,21,28,135,37,13,27,322,33,06,16,222,21*72
$GPGSV,3,3,12,05,14,044,29,10,14,351,33,25,11,105,24,02,05,018,26*7D
$GPRMC,123619.000,A,6536.2724,N,02052.6472,W,9.19,354.08,040912,,,A*70
$GPGGA,123620.000,6536.2749,N,02052.6477,W,1,11,0.7,32.2,M,60.6,M,,0000*77
$GPGSA,A,3,05,29,30,23,21,16,13,31,10,25,06,,1.6,0.7,1.5*3E
$GPRMC,123620.000,A,6536.2749,N,02052.6477,W,9.41,354.48,040912,,,A*7D
$GPGGA,123621.000,6536.2776,N,02052.6482,W,1,11,0.7,32.1,M,60.6,M,,0000*73
$GPGSA,A,3,05,29,30,23,21,16,13,31,10,25,06,,1.6,0.7,1.5*3E
$GPRMC,123621.000,A,6536.2776,N,02052.6482,W,10.10,354.77,040912,,,A*4A
$GPGGA,123622.000,6536.2807,N,02052.6489,W,1,11,0.7,32.0,M,60.6,M,,0000*73
$GPGSA,A,3,05,29,30,23,21,16,13,31,10,25,06,,1.6,0.7,1.5*3E
$GPRMC,123622.000,A,6536.2807,N,02052.6489,W,11.25,353.96,040912,,,A*44
$GPGGA,123623.000,6536.2840,N,02052.6497,W,1,11,0.7,31.9,M,60.6,M,,0000*74
$GPGSA,A,3,05,29,30,23,21,16,13,31,10,25,06,,1.6,0.7,1.5*3E
$GPRMC,123623.000,A,6536.2840,N,02052.6497,W,12.03,352.86,040912,,,A*4E
$GPGGA,123624.000,6536.2872,N,02052.6507,W,1,11,0.7,31.8,M,60.6,M,,0000*7B
$GPGSA,A,3,05,29,30,23,21,16,13,31,10,25,06,,1.6,0.7,1.5*3E
$GPGSV,3,1,12,30,70,234,30,16,43,264,38,29,42,073,34,31,35,175,32*79
$GPGSV,3,2,12,23,29,283,34,21,28,135,30,13,27,322,33,06,16,222,20*77
$GPGSV,3,3,12,05,14,044,29,10,14,351,34,25,11,105,26,02,05,018,15*78
$GPRMC,123624.000,A,6536.2872,N,02052.6507,W,12.13,352.00,040912,,,A*4F
$GPGGA,123625.000,6536.2906,N,02052.6517,W,1,11,0.7,31.6,M,60.6,M,,0000*77
$GPGSA,A,3,05,29,30,23,21,16,13,31,10,25,06,,1.6,0.7,1.5*3E
$GPRMC,123625.000,A,6536.2906,N,02052.6517,W,12.48,351.48,040912,,,A*4C
$GPGGA,123626.000,6536.2942,N,02052.6525,W,1,11,0.7,31.4,M,60.6,M,,0000*77
$GPGSA,A,3,05,29,30,23,21,16,13,31,10,25,06,,1.6,0.7,1.5*3E
$GPRMC,123626.000,A,6536.2942,N,02052.6525,W,13.18,353.93,040912,,,A*4E
$GPGGA,123627.000,6536.2980,N,02052.6532,W,1,11,0.7,31.2,M,60.6,M,,0000*78
$GPGSA,A,3,05,29,30,23,21,16,13,31,10,25,06,,1.6,0.7,1.5*3E
$GPRMC,123627.000,A,6536.2980,N,02052.6532,W,13.73,355.09,040912,,,A*4F
$GPGGA,123628.000,6536.3020,N,02052.6538,W,1,11,0.7,31.0,M,60.6,M,,0000*7D
$GPGSA,A,3,05,29,30,23,21,16,13,31,10,25,06,,1.6,0.7,1.5*3E
$GPRMC,123628.000,A,6536.3020,N,02052.6538,W,14.39,355.43,040912,,,A*4F
$GPGGA,123629.000,6536.3060,N,02052.6544,W,1,11,0.7,30.9,M,60.6,M,,0000*7B
$GPGSA,A,3,05,29,30,23,21,16,13,31,10,25,06,,1.6,0.7,1.5*3E
$GPGSV,3,1,12,30,70,234,30,16,43,264,38,29,42,073,31,31,35,175,30*7E
$GPGSV,3,2,12,23,29,283,23,21,28,135,36,13,27,322,31,06,16,222,22*77
$GPGSV,3,3,12,05,14,044,27,10,14,351,34,25,11,105,26,02,05,018,25*75
$GPRMC,123629.000,A,6536.3060,N,02052.6544,W,14.72,355.71,040912,,,A*4F
$GPGGA,123630.000,6536.3101,N,02052.6547,W,1,11,0.7,30.7,M,60.6,M,,0000*78
$GPGSA,A,3,05,29,30,23,21,16,13,31,10,25,06,,1.6,0.7,1.5*3E
$GPRMC,123630.000,A,6536.3101,N,02052.6547,W,14.83,357.28,040912,,,A*42
$GPGGA,123631.000,6536.3142,N,02052.6551,W,1,11,0.7,30.5,M,60.6,M,,0000*7B
$GPGSA,A,3,05,29,30,23,21,16,13,31,10,25,06,,1.6,0.7,1.5*3E
$GPRMC,123631.000,A,6536.3142,N,02052.6551,W,14.95,357.01,040912,,,A*4F
$GPGGA,123632.000,6536.3183,N,02052.6557,W,1,11,0.7,30.3,M,60.6,M,,0000*75
$GPGSA,A,3,05,29,30,23,21,16,13,31,10,25,06,,1.6,0.7,1.5*3E
$GPRMC,123632.000,A,6536.3183,N,02052.6557,W,14.94,355.90,040912,,,A*4C
$GPGGA,123633.000,6536.3225,N,02052.6563,W,1,11,0.7,30.0,M,60.6,M,,0000*7F
$GPGSA,A,3,05,29,30,23,21,16,13,31,10,25,06,,1.6,0.7,1.5*3E
$GPRMC,123633.000,A,6536.3225,N,02052.6563,W,14.91,355.94,040912,,,A*44
$GPGGA,123634.000,6536.3266,N,02052.6569,W,1,11,0.7,29.8,M,60.6,M,,0000*75
$GPGSA,A,3,05,29,30,23,21,16,13,31,10,25,06,,1.6,0.7,1.5*3E
$GPGSV,3,1,12,30,70,234,36,16,43,264,38,29,42,073,31,31,35,175,23*7A
$GPGSV,3,2,12,23,29,283,23,21,28,135,38,13,27,322,32,06,16,222,28*70
$GPGSV,3,3,12,05,14,044,31,10,14,351,33,25,11,105,27,02,05,018,23*72
$GPRMC,123634.000,A,6536.3266,N,02052.6569,W,14.95,356.05,040912,,,A*41
$GPGGA,123635.000,6536.3307,N,02052.6574,W,1,11,0.7,29.5,M,60.6,M,,0000*73
$GPGSA,A,3,05,29,30,23,21,16,13,31,10,25,06,,1.6,0.7,1.5*3E
$GPRMC,123635.000,A,6536.3307,N,02052.6574,W,14.94,356.51,040912,,,A*4A
$GPGGA,123636.000,6536.3349,N,02052.6579,W,1,11,0.7,29.3,M,60.6,M,,0000*71
$GPGSA,A,3,05,29,30,23,21,16,13,31,10,25,06,,1.6,0.7,1.5*3E
$GPRMC,123636.000,A,6536.3349,N,02052.6579,W,14.98,356.68,040912,,,A*48
$GPGGA,123637.000,6536.3390,N,02052.6584,W,1,11,0.7,29.2,M,60.6,M,,0000*77
$GPGSA,A,3,05,29,30,23,21,16,13,31,10,25,06,,1.6,0.7,1.5*3E
$GPRMC,123637.000,A,6536.3390,N,02052.6584,W,15.08,356.90,040912,,,A*40
$GPGGA,123638.000,6536.3433,N,02052.6588,W,1,11,0.7,29.0,M,60.6,M,,0000*78
$GPGSA,A,3,05,29,30,23,21,16,13,31,10,25,06,,1.6,0.7,1.5*3E
$GPRMC,123638.000,A,6536.3433,N,02052.6588,W,15.27,357.06,040912,,,A*4E
$GPGGA,123639.000,6536.3476,N,02052.6592,W,1,11,0.7,28.8,M,60.6,M,,0000*7A
$GPGSA,A,3,05,29,30,23,21,16,13,31,10,25,06,,1.6,0.7,1.5*3E
$GPGSV,3,1,12,30,70,234,28,16,43,264,37,29,42,073,32,31,35,175,34*7F
$GPGSV,3,2,12,23,29,283,29,21,28,135,39,13,27,322,19,06,16,222,28*72
$GPGSV,3,3,12,05,14,044,31,10,14,351,33,25,11,105,33,02,05,018,19*7E
$GPRMC,123639.000,A,6536.3476,N,02052.6592,W,15.42,357.53,040912,,,A*46
$GPGGA,123640.000,6536.3519,N,02052.6595,W,1,11,0.7,28.6,M,60.6,M,,0000*75
$GPGSA,A,3,05,29,30,23,21,16,13,31,10,25,06,,1.6,0.7,1.5*3E
$GPRMC,123640.000,A,6536.3519,N,02052.6595,W,15.67,357.53,040912,,,A*40
$GPGGA,123641.000,6536.3563,N,02052.6599,W,1,11,0.7,28.4,M,60.6,M,,0000*77
$GPGSA,A,3,05,29,30,23,21,16,13,31,10,25,06,,1.6,0.7,1.5*3E
$GPRMC,123641.000,A,6536.3563,N,02052.6599,W,15.82,357.39,040912,,,A*47
$GPGGA,123642.000,6536.3608,N,02052.6604,W,1,11,0.7,28.3,M,60.6,M,,0000*7A
$GPGSA,A,3,05,29,30,23,21,16,13,31,10,25,06,,1.6,0.7,1.5*3E
$GPRMC,123642.000,A,6536.3608,N,02052.6604,W,16.02,357.14,040912,,,A*49
$GPGGA,123643.000,6536.3653,N,02052.6608,W,1,11,0.7,28.0,M,60.6,M,,0000*7A
$GPGSA,A,3,05,29,30,23,21,16,13,31,10,25,06,,1.6,0.7,1.5*3E
$GPRMC,123643.000,A,6536.3653,N,02052.6608,W,16.21,357.29,040912,,,A*45
$GPGGA,123644.000,6536.3698,N,02052.6612,W,1,11,0.7,27.8,M,60.6,M,,0000*76
$GPGSA,A,3,05,29,30,23,21,16,13,31,10,25,06,,1.6,0.7,1.5*3E
$GPGSV,3,1,12,30,70,234,28,16,43,264,36,29,42,073,36,31,35,175,34*7A
$GPGSV,3,2,12,23,29,283,29,21,28,135,40,13,27,322,18,06,16,222,28*7D
$GPGSV,3,3,12,05,14,044,31,10,14,351,32,25,11,105,32,02,05,018,31*74
$GPRMC,123644.000,A,6536.3698,N,02052.6612,W,16.38,357.66,040912,,,A*4D
$GPGGA,123645.000,6536.3744,N,02052.6615,W,1,11,0.7,27.6,M,60.6,M,,0000*7E
$GPGSA,A,3,05,29,30,23,21,16,13,31,10,25,06,,1.6,0.7,1.5*3E
$GPRMC,123645.000,A,6536.3744,N,02052.6615,W,16.37,358.13,040912,,,A*49
$GPGGA,123646.000,6536.3789,N,02052.6620,W,1,11,0.7,27.4,M,60.6,M,,0000*78
$GPGSA,A,3,05,29,30,23,21,16,13,31,10,25,06,,1.6,0.7,1.5*3E
$GPRMC,123646.000,A,6536.3789,N,02052.6620,W,16.35,357.23,040912,,,A*43
$GPGGA,123647.000,6536.3835,N,02052.6624,W,1,11,0.7,27.2,M,60.6,M,,0000*73
$GPGSA,A,3,05,29,30,23,21,16,13,31,10,25,06,,1.6,0.7,1.5*3E
$GPRMC,123647.000,A,6536.3835,N,02052.6624,W,16.47,357.69,040912,,,A*45
$GPGGA,123648.000,6536.3880,N,02052.6628,W,1,11,0.7,27.0,M,60.6,M,,0000*7C
$GPGSA,A,3,05,29,30,23,21,16,13,31,10,25,06,,1.6,0.7,1.5*3E
$GPRMC,123648.000,A,6536.3880,N,02052.6628,W,16.06,357.62,040912,,,A*46
$GPGGA,123649.000,6536.3922,N,02052.6630,W,1,11,0.7,26.8,M,60.6,M,,0000*74
$GPGSA,A,3,05,29,30,23,21,16,13,31,10,25,06,,1.6,0.7,1.5*3E
$GPGSV,3,1,12,30,70,234,29,16,43,264,36,29,42,073,28,31,35,175,33*73
$GPGSV,3,2,12,23,29,283,25,21,28,135,40,13,27,322,27,06,16,222,29*7C
$GPGSV,3,3,12,05,14,044,29,10,14,351,32,25,11,105,31,02,05,018,28*76
$GPRMC,123649.000,A,6536.3922,N,02052.6630,W,15.08,358.23,040912,,,A*40
$GPGGA,123650.000,6536.3959,N,02052.6633,W,1,11,0.7,26.6,M,60.6,M,,0000*7D
$GPGSA,A,3,05,29,30,23,21,16,13,31,10,25,06,,1.6,0.7,1.5*3E
$GPRMC,123650.000,A,6536.3959,N,02052.6633,W,13.49,358.47,040912,,,A*46
$GPGGA,123651.000,6536.3992,N,02052.6635,W,1,11,0.7,26.5,M,60.6,M,,0000*7E
$GPGSA,A,3,05,29,30,23,21,16,13,31,10,25,06,,1.6,0.7,1.5*3E
$GPRMC,123651.000,A,6536.3992,N,02052.6635,W,11.58,357.79,040912,,,A*46
