$GPGGA,072242.000,5230.0656,N,01322.4546,E,1,05,1.8,34.9,M,44.8,M,,0000*67
$GPGSA,A,3,17,27,22,14,25,,,,,,,,3.6,1.8,3.1*3D
$GPRMC,072242.000,A,5230.0656,N,01322.4546,E,22.61,7.13,100912,,,A*56
$GPGGA,072243.000,5230.0719,N,01322.4561,E,1,05,1.8,33.8,M,44.8,M,,0000*6F
$GPGSA,A,3,17,27,22,14,25,,,,,,,,3.6,1.8,3.1*3D
$GPRMC,072243.000,A,5230.0719,N,01322.4561,E,22.79,7.75,100912,,,A*51
$GPGGA,072244.000,5230.0782,N,01322.4577,E,1,04,1.8,33.1,M,44.8,M,,0000*65
$GPGSA,A,3,27,22,14,25,,,,,,,,,2.0,1.8,1.0*3F
$GPRMC,072244.000,A,5230.0782,N,01322.4577,E,22.94,8.49,100912,,,A*50
$GPGGA,072245.000,5230.0844,N,01322.4589,E,1,05,1.8,33.6,M,44.8,M,,0000*66
$GPGSA,A,3,17,27,22,14,25,,,,,,,,3.6,1.8,3.1*3D
$GPRMC,072245.000,A,5230.0844,N,01322.4589,E,22.78,7.31,100912,,,A*57
$GPGGA,072246.000,5230.0906,N,01322.4598,E,1,05,1.8,34.5,M,44.8,M,,0000*66
$GPGSA,A,3,17,27,22,14,25,,,,,,,,3.6,1.8,3.1*3D
$GPGSV,3,1,11,27,67,124,17,17,32,052,15,14,25,315,34,25,16,249,29*7C
$GPGSV,3,2,11,22,10,287,35,09,79,125,17,12,55,248,37,15,23,185,27*70
$GPGSV,3,3,11,04,10,102,,18,02,250,,01,00,005,*47
$GPRMC,072246.000,A,5230.0906,N,01322.4598,E,22.51,6.62,100912,,,A*5F
$GPGGA,072247.000,5230.0969,N,01322.4608,E,1,03,6.3,35.3,M,44.8,M,,0000*69
$GPGSA,A,2,22,14,25,,,,,,,,,,6.4,6.3,1.0*37
$GPRMC,072247.000,A,5230.0969,N,01322.4608,E,22.67,6.98,100912,,,A*5D
$GPGGA,072248.000,5230.1033,N,01322.4619,E,1,03,6.3,36.0,M,44.8,M,,0000*61
$GPGSA,A,2,22,14,25,,,,,,,,,,6.4,6.3,1.0*37
$GPRMC,072248.000,A,5230.1033,N,01322.4619,E,23.26,7.16,100912,,,A*56
$GPGGA,072249.000,5230.1099,N,01322.4627,E,1,05,1.8,36.7,M,44.8,M,,0000*60
$GPGSA,A,3,17,27,22,14,25,,,,,,,,3.6,1.8,3.1*3D
$GPRMC,072249.000,A,5230.1099,N,01322.4627,E,23.69,6.68,100912,,,A*59
$GPGGA,072250.000,5230.1165,N,01322.4636,E,1,04,1.8,37.4,M,44.8,M,,0000*69
$GPGSA,A,3,27,22,14,25,,,,,,,,,2.0,1.8,1.0*3F
$GPRMC,072250.000,A,5230.1165,N,01322.4636,E,23.70,7.38,100912,,,A*5F
$GPGGA,072251.000,5230.1231,N,01322.4651,E,1,05,1.8,37.8,M,44.8,M,,0000*66
$GPGSA,A,3,17,27,22,14,25,,,,,,,,3.6,1.8,3.1*3D
$GPGSV,3,1,11,27,67,124,27,17,32,052,34,14,25,315,30,25,16,249,30*70
$GPGSV,3,2,11,22,10,287,35,09,79,125,26,12,55,248,26,15,23,185,19*7F
$GPGSV,3,3,11,04,10,102,,18,02,250,,01,00,005,*47
$GPRMC,072251.000,A,5230.1231,N,01322.4651,E,24.38,9.49,100912,,,A*5E
$GPGGA,072252.000,5230.1298,N,01322.4668,E,1,05,1.8,37.6,M,44.8,M,,0000*62
$GPGSA,A,3,17,27,22,14,25,,,,,,,,3.6,1.8,3.1*3D
$GPRMC,072252.000,A,5230.1298,N,01322.4668,E,24.36,9.70,100912,,,A*50
$GPGGA,072253.000,5230.1366,N,01322.4686,E,1,05,1.8,37.3,M,44.8,M,,0000*66
$GPGSA,A,3,17,27,22,14,25,,,,,,,,3.6,1.8,3.1*3D
$GPRMC,072253.000,A,5230.1366,N,01322.4686,E,24.47,10.08,100912,,,A*60
$GPGGA,072254.000,5230.1434,N,01322.4709,E,1,05,1.8,36.5,M,44.8,M,,0000*60
$GPGSA,A,3,17,27,22,14,25,,,,,,,,3.6,1.8,3.1*3D
$GPRMC,072254.000,A,5230.1434,N,01322.4709,E,24.70,11.33,100912,,,A*6C
$GPGGA,072255.000,5230.1502,N,01322.4731,E,1,05,1.8,35.6,M,44.8,M,,0000*6E
$GPGSA,A,3,17,27,22,14,25,,,,,,,,3.6,1.8,3.1*3D
$GPRMC,072255.000,A,5230.1502,N,01322.4731,E,24.76,11.22,100912,,,A*64
$GPGGA,072256.000,5230.1571,N,01322.4751,E,1,05,1.8,34.7,M,44.8,M,,0000*6F
$GPGSA,A,3,17,27,22,14,25,,,,,,,,3.6,1.8,3.1*3D
$GPGSV,3,1,11,27,67,124,24,17,32,052,33,14,25,315,31,25,16,249,27*73
$GPGSV,3,2,11,22,10,287,27,09,79,125,26,12,55,248,29,15,23,185,23*7A
$GPGSV,3,3,11,04,10,102,30,18,02,250,07,01,00,005,*43
$GPRMC,072256.000,A,5230.1571,N,01322.4751,E,25.01,9.63,100912,,,A*58
$GPGGA,072257.000,5230.1640,N,01322.4772,E,1,05,1.8,33.5,M,44.8,M,,0000*6B
$GPGSA,A,3,17,27,22,14,25,,,,,,,,3.6,1.8,3.1*3D
$GPRMC,072257.000,A,5230.1640,N,01322.4772,E,24.92,10.55,100912,,,A*6F
$GPGGA,072258.000,5230.1707,N,01322.4797,E,1,05,1.8,32.4,M,44.8,M,,0000*6D
$GPGSA,A,3,17,27,22,14,25,,,,,,,,3.6,1.8,3.1*3D
$GPRMC,072258.000,A,5230.1707,N,01322.4797,E,24.65,11.95,100912,,,A*6C
$GPGGA,072259.000,5230.1773,N,01322.4820,E,1,05,1.8,31.4,M,44.8,M,,0000*6F
$GPGSA,A,3,17,27,22,14,25,,,,,,,,3.6,1.8,3.1*3D
$GPRMC,072259.000,A,5230.1773,N,01322.4820,E,24.09,11.64,100912,,,A*69
$GPGGA,072300.000,5230.1836,N,01322.4841,E,1,05,1.8,30.7,M,44.8,M,,0000*69
$GPGSA,A,3,17,27,22,14,25,,,,,,,,3.6,1.8,3.1*3D
$GPRMC,072300.000,A,5230.1836,N,01322.4841,E,22.98,10.96,100912,,,A*6F
$GPGGA,072301.000,5230.1896,N,01322.4860,E,1,05,1.8,29.9,M,44.8,M,,0000*67
$GPGSA,A,3,17,27,22,14,25,,,,,,,,3.6,1.8,3.1*3D
$GPGSV,3,1,11,27,67,124,24,17,32,052,32,14,25,315,30,25,16,249,27*73
$GPGSV,3,2,11,22,10,287,26,09,79,125,21,12,55,248,30,15,23,185,25*72
$GPGSV,3,3,11,04,10,102,32,18,02,250,,01,00,005,*46
$GPRMC,072301.000,A,5230.1896,N,01322.4860,E,21.88,10.19,100912,,,A*62
$GPGGA,072302.000,5230.1952,N,01322.4879,E,1,05,1.8,29.2,M,44.8,M,,0000*6E
$GPGSA,A,3,17,27,22,14,25,,,,,,,,3.6,1.8,3.1*3D
$GPRMC,072302.000,A,5230.1952,N,01322.4879,E,20.37,11.63,100912,,,A*69
$GPGGA,072303.000,5230.2003,N,01322.4897,E,1,04,3.4,28.6,M,44.8,M,,0000*6B
$GPGSA,A,3,17,27,22,25,,,,,,,,,6.0,3.4,4.9*3A
$GPRMC,072303.000,A,5230.2003,N,01322.4897,E,18.70,11.98,100912,,,A*6A
$GPGGA,072304.000,5230.2053,N,01322.4910,E,1,05,1.8,28.1,M,44.8,M,,0000*6F
$GPGSA,A,3,17,27,22,14,25,,,,,,,,3.6,1.8,3.1*3D
$GPRMC,072304.000,A,5230.2053,N,01322.4910,E,18.16,8.51,100912,,,A*5B
$GPGGA,072305.000,5230.2101,N,01322.4917,E,1,04,3.4,27.5,M,44.8,M,,0000*6B
$GPGSA,A,3,17,27,22,25,,,,,,,,,6.0,3.4,5.0*32
$GPRMC,072305.000,A,5230.2101,N,01322.4917,E,17.56,4.30,100912,,,A*5B
$GPGGA,072306.000,5230.2150,N,01322.4915,E,1,05,1.8,26.8,M,44.8,M,,0000*6D
$GPGSA,A,3,17,27,22,14,25,,,,,,,,3.6,1.8,3.1*3D
$GPGSV,3,1,11,27,67,124,13,17,32,052,22,14,25,315,18,25,16,249,13*7B
$GPGSV,3,2,11,22,10,287,22,09,79,125,13,12,55,248,14,15,23,185,*76
$GPGSV,3,3,11,04,10,102,19,18,02,250,14,01,00,005,*4A
$GPRMC,072306.000,A,5230.2150,N,01322.4915,E,17.31,357.38,100912,,,A*52
$GPGGA,072307.000,5230.2194,N,01322.4914,E,1,05,1.8,26.0,M,44.8,M,,0000*6D
$GPGSA,A,3,17,27,22,14,25,,,,,,,,3.6,1.8,3.1*3D
$GPRMC,072307.000,A,5230.2194,N,01322.4914,E,16.15,358.91,100912,,,A*51
$GPGGA,072308.000,5230.2237,N,01322.4911,E,1,05,1.8,25.0,M,44.8,M,,0000*6E
$GPGSA,A,3,17,27,22,14,25,,,,,,,,3.6,1.8,3.1*3D
$GPRMC,072308.000,A,5230.2237,N,01322.4911,E,15.62,356.96,100912,,,A*5B
$GPGGA,072309.000,5230.2277,N,01322.4905,E,1,04,2.2,23.9,M,44.8,M,,0000*69
$GPGSA,A,3,17,22,14,25,,,,,,,,,8.0,2.2,7.7*3E
$GPRMC,072309.000,A,5230.2277,N,01322.4905,E,14.49,353.76,100912,,,A*58
$GPGGA,072310.000,5230.2310,N,01322.4905,E,1,04,2.2,22.7,M,44.8,M,,0000*6E
$GPGSA,A,3,17,22,14,25,,,,,,,,,8.0,2.2,7.7*3E
$GPRMC,072310.000,A,5230.2310,N,01322.4905,E,12.91,358.59,100912,,,A*55
$GPGGA,072311.000,5230.2332,N,01322.4907,E,1,04,2.2,21.3,M,44.8,M,,0000*6A
$GPGSA,A,3,17,22,14,25,,,,,,,,,8.0,2.2,7.7*3E
$GPGSV,3,1,11,27,67,124,,17,32,052,26,14,25,315,21,25,16,249,18*7C
$GPGSV,3,2,11,22,10,287,23,09,79,125,26,12,55,248,30,15,23,185,19*7F
$GPGSV,3,3,11,04,10,102,27,18,02,250,,01,00,005,*42
$GPRMC,072311.000,A,5230.2332,N,01322.4907,E,9.35,359.06,100912,,,A*69
$GPGGA,072312.000,5230.2346,N,01322.4910,E,1,04,2.2,19.9,M,44.8,M,,0000*6D
$GPGSA,A,3,17,22,14,25,,,,,,,,,8.0,2.2,7.7*3E
$GPRMC,072312.000,A,5230.2346,N,01322.4910,E,6.60,359.14,100912,,,A*63
$GPGGA,072313.000,5230.2348,N,01322.4912,E,1,03,2.4,18.8,M,44.8,M,,0000*61
$GPGSA,A,2,17,22,25,,,,,,,,,,2.6,2.4,1.0*31
$GPRMC,072313.000,A,5230.2348,N,01322.4912,E,3.37,354.72,100912,,,A*64
$GPGGA,072314.000,5230.2351,N,01322.4914,E,0,00,,17.9,M,44.8,M,,0000*4C
$GPGSA,A,1,,,,,,,,,,,,,,,*1E
$GPRMC,072316.000,A,5230.2343,N,01322.4924,E,1.18,118.06,100912,,,A*69
$GPGGA,072317.000,5230.2334,N,01322.4932,E,1,03,2.4,15.8,M,44.8,M,,0000*61
$GPGSA,A,2,17,22,25,,,,,,,,,,2.6,2.4,1.0*31
$GPRMC,072317.000,A,5230.2334,N,01322.4932,E,0.83,117.22,100912,,,A*65
$GPGGA,072318.000,5230.2326,N,01322.4940,E,1,04,3.5,15.6,M,44.8,M,,0000*61
$GPGSA,A,3,17,27,22,25,,,,,,,,,6.1,3.5,5.0*32
$GPRMC,072319.000,A,5230.2318,N,01322.4951,E,0.93,83.39,100912,,,A*57
$GPGGA,072320.000,5230.2308,N,01322.4956,E,1,04,3.5,16.1,M,44.8,M,,0000*65
$GPGSA,A,3,17,27,22,25,,,,,,,,,6.1,3.5,5.0*32
$GPRMC,072325.000,A,5230.2276,N,01322.4972,E,0.87,287.04,100912,,,A*6D
$GPGGA,072326.000,5230.2276,N,01322.4971,E,1,05,1.8,14.3,M,44.8,M,,0000*60
$GPGSA,A,3,14,17,27,22,25,,,,,,,,3.6,1.8,3.2*3E
$GPGSV,3,1,11,27,67,124,21,17,32,052,25,14,25,315,18,25,16,249,18*76
$GPGSV,3,2,11,22,10,287,21,09,79,125,25,12,55,248,28,15,23,185,20*7D
$GPGSV,3,3,11,04,10,102,21,18,02,250,,01,00,005,*44
$GPRMC,072326.000,A,5230.2276,N,01322.4971,E,1.90,334.71,100912,,,A*61
$GPGGA,072327.000,5230.2279,N,01322.4973,E,1,05,1.8,14.7,M,44.8,M,,0000*68
$GPGSA,A,3,14,17,27,22,25,,,,,,,,3.6,1.8,3.2*3E
$GPRMC,072327.000,A,5230.2279,N,01322.4973,E,2.44,4.19,100912,,,A*69
$GPGGA,072328.000,5230.2282,N,01322.4979,E,1,05,1.8,15.1,M,44.8,M,,0000*6E
$GPGSA,A,3,14,17,27,22,25,,,,,,,,3.6,1.8,3.2*3E
$GPRMC,072328.000,A,5230.2282,N,01322.4979,E,2.82,15.59,100912,,,A*56
$GPGGA,072329.000,5230.2285,N,01322.4984,E,1,05,1.8,15.7,M,44.8,M,,0000*6C
$GPGSA,A,3,14,17,27,22,25,,,,,,,,3.6,1.8,3.2*3E
$GPRMC,072329.000,A,5230.2285,N,01322.4984,E,2.79,18.22,100912,,,A*57
$GPGGA,072330.000,5230.2292,N,01322.4988,E,1,05,1.8,16.3,M,44.8,M,,0000*69
$GPGSA,A,3,14,17,27,22,25,,,,,,,,3.6,1.8,3.2*3E
$GPRMC,072330.000,A,5230.2292,N,01322.4988,E,3.87,12.95,100912,,,A*53
$GPGGA,072331.000,5230.2300,N,01322.4994,E,1,05,1.8,17.4,M,44.8,M,,0000*69
$GPGSA,A,3,14,17,27,22,25,,,,,,,,3.6,1.8,3.2*3E
$GPGSV,3,1,11,27,67,124,21,17,32,052,26,14,25,315,25,25,16,249,22*72
$GPGSV,3,2,11,22,10,287,22,09,79,125,24,12,55,248,26,15,23,185,20*71
$GPGSV,3,3,11,04,10,102,25,18,02,250,,01,00,005,*40
$GPRMC,072331.000,A,5230.2300,N,01322.4994,E,4.57,19.69,100912,,,A*57
$GPGGA,072332.000,5230.2311,N,01322.5003,E,1,05,1.8,18.8,M,44.8,M,,0000*6F
$GPGSA,A,3,14,17,27,22,25,,,,,,,,3.6,1.8,3.2*3E
$GPRMC,072332.000,A,5230.2311,N,01322.5003,E,5.21,23.28,100912,,,A*5E
$GPGGA,072333.000,5230.2328,N,01322.5014,E,1,05,1.8,20.3,M,44.8,M,,0000*62
$GPGSA,A,3,14,17,27,22,25,,,,,,,,3.6,1.8,3.2*3E
$GPRMC,072333.000,A,5230.2328,N,01322.5014,E,7.28,22.14,100912,,,A*56
$GPGGA,072334.000,5230.2352,N,01322.5030,E,1,05,1.8,21.8,M,44.8,M,,0000*64
$GPGSA,A,3,14,17,27,22,25,,,,,,,,3.6,1.8,3.2*3E
$GPRMC,072334.000,A,5230.2352,N,01322.5030,E,9.57,22.47,100912,,,A*5A
$GPGGA,072335.000,5230.2378,N,01322.5049,E,1,05,1.8,23.3,M,44.8,M,,0000*6A
$GPGSA,A,3,14,17,27,22,25,,,,,,,,3.6,1.8,3.2*3E
$GPRMC,072335.000,A,5230.2378,N,01322.5049,E,10.25,25.10,100912,,,A*65
$GPGGA,072336.000,5230.2407,N,01322.5071,E,1,05,1.8,24.2,M,44.8,M,,0000*6B
$GPGSA,A,3,14,17,27,22,25,,,,,,,,3.6,1.8,3.2*3E
$GPGSV,3,1,11,27,67,124,21,17,32,052,14,14,25,315,17,25,16,249,21*71
$GPGSV,3,2,11,22,10,287,23,09,79,125,18,12,55,248,26,15,23,185,19*75
$GPGSV,3,3,11,04,10,102,16,18,02,250,,01,00,005,*40
$GPRMC,072336.000,A,5230.2407,N,01322.5071,E,11.54,24.73,100912,,,A*61
$GPGGA,072337.000,5230.2436,N,01322.5094,E,0,00,,25.1,M,44.8,M,,0000*42
$GPGSA,A,1,,,,,,,,,,,,,,,*1E
$GPRMC,072601.000,A,5230.6529,N,01322.8125,E,1.56,97.59,100912,,,A*57
$GPGGA,072602.000,5230.6419,N,01322.7994,E,1,03,2.8,83.4,M,44.8,M,,0000*6C
$GPGSA,A,2,25,17,27,,,,,,,,,,3.0,2.8,1.0*3F
$GPRMC,072602.000,A,5230.6419,N,01322.7994,E,2.67,141.82,100912,,,A*66
$GPGGA,072603.000,5230.6316,N,01322.7877,E,1,03,2.8,80.4,M,44.8,M,,0000*6A
$GPGSA,A,2,25,17,27,,,,,,,,,,2.9,2.8,1.0*37
$GPRMC,072603.000,A,5230.6316,N,01322.7877,E,3.82,141.95,100912,,,A*6F
$GPGGA,072604.000,5230.6220,N,01322.7771,E,1,03,2.8,77.5,M,44.8,M,,0000*69
$GPGSA,A,2,25,17,27,,,,,,,,,,2.9,2.8,1.0*37
$GPRMC,072604.000,A,5230.6220,N,01322.7771,E,4.23,146.54,100912,,,A*63
$GPGGA,072605.000,5230.6131,N,01322.7674,E,0,00,,74.9,M,44.8,M,,0000*46
$GPGSA,A,1,,,,,,,,,,,,,,,*1E
$GPRMC,072606.000,A,5230.6040,N,01322.7581,E,5.95,169.28,100912,,,A*62
$GPGGA,072607.000,5230.5957,N,01322.7498,E,1,03,2.8,69.7,M,44.8,M,,0000*6B
$GPGSA,A,2,25,17,27,,,,,,,,,,2.9,2.8,1.0*37
$GPRMC,072607.000,A,5230.5957,N,01322.7498,E,4.97,159.47,100912,,,A*6F
$GPGGA,072608.000,5230.5878,N,01322.7422,E,1,03,2.8,67.3,M,44.8,M,,0000*63
$GPGSA,A,2,25,17,27,,,,,,,,,,2.9,2.8,1.0*37
$GPRMC,072608.000,A,5230.5878,N,01322.7422,E,5.15,165.35,100912,,,A*6C
$GPGGA,072609.000,5230.5808,N,01322.7354,E,1,03,2.8,65.0,M,44.8,M,,0000*62
$GPGSA,A,2,25,17,27,,,,,,,,,,2.9,2.8,1.0*37
$GPRMC,072609.000,A,5230.5808,N,01322.7354,E,3.53,158.34,100912,,,A*67
$GPGGA,072610.000,5230.5744,N,01322.7291,E,0,00,,62.9,M,44.8,M,,0000*4D
$GPGSA,A,1,,,,,,,,,,,,,,,*1E
$GPRMC,072611.000,A,5230.5681,N,01322.7222,E,6.49,172.83,100912,,,A*6B
$GPGGA,072612.000,5230.5622,N,01322.7156,E,1,04,1.8,64.4,M,44.8,M,,0000*6F
$GPGSA,A,3,25,17,14,27,,,,,,,,,3.8,1.8,3.4*36
$GPRMC,072612.000,A,5230.5622,N,01322.7156,E,7.28,170.83,100912,,,A*65
$GPGGA,072613.000,5230.5571,N,01322.7095,E,1,04,1.8,65.8,M,44.8,M,,0000*68
$GPGSA,A,3,25,17,14,27,,,,,,,,,3.8,1.8,3.4*36
$GPRMC,072613.000,A,5230.5571,N,01322.7095,E,5.63,167.87,100912,,,A*60
$GPGGA,072614.000,5230.5531,N,01322.7039,E,1,04,1.8,67.4,M,44.8,M,,0000*63
$GPGSA,A,3,25,17,14,27,,,,,,,,,3.8,1.8,3.4*36
$GPRMC,072614.000,A,5230.5531,N,01322.7039,E,3.23,159.33,100912,,,A*65
$GPGGA,072615.000,5230.5499,N,01322.6990,E,1,04,1.8,68.6,M,44.8,M,,0000*67
$GPGSA,A,3,25,17,14,27,,,,,,,,,3.8,1.8,3.4*36
$GPRMC,072615.000,A,5230.5499,N,01322.6990,E,1.69,139.31,100912,,,A*64
$GPGGA,072616.000,5230.5469,N,01322.6941,E,1,04,1.8,70.0,M,44.8,M,,0000*68
$GPGSA,A,3,25,17,14,27,,,,,,,,,3.8,1.8,3.4*36
$GPGSV,3,1,11,09,78,126,07,27,66,125,13,12,56,248,08,17,32,051,24*7D
$GPGSV,3,2,11,14,25,314,10,15,22,185,15,25,17,249,21,04,11,102,20*79
$GPGSV,3,3,11,22,09,286,14,18,01,249,,01,00,004,*4B
$GPRMC,072616.000,A,5230.5469,N,01322.6941,E,1.51,165.27,100912,,,A*61
$GPGGA,072617.000,5230.5441,N,01322.6896,E,1,04,1.8,71.9,M,44.8,M,,0000*60
$GPGSA,A,3,25,17,14,27,,,,,,,,,3.8,1.8,3.4*36
$GPRMC,072617.000,A,5230.5441,N,01322.6896,E,1.81,160.44,100912,,,A*6C
$GPGGA,072618.000,5230.5415,N,01322.6853,E,1,03,1.9,74.2,M,44.8,M,,0000*6F
$GPGSA,A,2,25,17,14,,,,,,,,,,2.2,1.9,1.0*3E
$GPRMC,072618.000,A,5230.5415,N,01322.6853,E,2.07,162.07,100912,,,A*63
$GPGGA,072619.000,5230.5393,N,01322.6811,E,1,03,1.9,76.4,M,44.8,M,,0000*65
$GPGSA,A,2,25,17,14,,,,,,,,,,2.2,1.9,1.0*3E
$GPRMC,072619.000,A,5230.5393,N,01322.6811,E,1.76,171.36,100912,,,A*68
$GPGGA,072620.000,5230.5371,N,01322.6770,E,1,03,1.9,78.4,M,44.8,M,,0000*65
$GPGSA,A,2,25,17,14,,,,,,,,,,2.2,1.9,1.0*3E
$GPRMC,072620.000,A,5230.5371,N,01322.6770,E,1.95,191.46,100912,,,A*62
$GPGGA,072621.000,5230.5350,N,01322.6735,E,1,03,1.9,79.8,M,44.8,M,,0000*6B
$GPGSA,A,2,25,17,14,,,,,,,,,,2.2,1.9,1.0*3E
$GPGSV,3,1,11,09,78,126,,27,66,125,14,12,56,248,,17,32,051,21*70
$GPGSV,3,2,11,14,25,314,14,15,22,185,17,25,17,249,25,04,11,102,23*78
$GPGSV,3,3,11,22,09,286,,18,01,249,,01,00,004,*4E
$GPRMC,072621.000,A,5230.5350,N,01322.6735,E,1.49,182.86,100912,,,A*6E
$GPGGA,072622.000,5230.5329,N,01322.6705,E,1,04,1.8,81.1,M,44.8,M,,0000*6D
$GPGSA,A,3,25,17,14,27,,,,,,,,,3.8,1.8,3.4*36
$GPRMC,072622.000,A,5230.5329,N,01322.6705,E,1.47,177.32,100912,,,A*6B
$GPGGA,072623.000,5230.5310,N,01322.6676,E,0,00,,82.3,M,44.8,M,,0000*40
$GPGSA,A,1,,,,,,,,,,,,,,,*1E
$GPRMC,072624.000,A,5230.5287,N,01322.6648,E,2.97,188.79,100912,,,A*61
$GPGGA,072625.000,5230.5268,N,01322.6618,E,1,03,2.8,84.0,M,44.8,M,,0000*63
$GPGSA,A,2,17,27,25,,,,,,,,,,2.9,2.8,1.0*37
$GPRMC,072625.000,A,5230.5268,N,01322.6618,E,1.91,214.83,100912,,,A*62
$GPGGA,072626.000,5230.5252,N,01322.6591,E,1,04,1.8,84.7,M,44.8,M,,0000*68
$GPGSA,A,3,17,14,27,25,,,,,,,,,3.8,1.8,3.4*36
$GPGSV,3,1,11,09,78,126,,27,66,125,16,12,56,248,,17,32,051,21*72
$GPGSV,3,2,11,14,25,314,16,15,22,185,20,25,17,249,31,04,11,102,29*71
$GPGSV,3,3,11,22,09,286,,18,01,249,,01,00,004,*4E
$GPRMC,072626.000,A,5230.5252,N,01322.6591,E,0.99,233.10,100912,,,A*6C
$GPGGA,072627.000,5230.5238,N,01322.6567,E,1,04,1.8,85.5,M,44.8,M,,0000*6F
$GPGSA,A,3,17,14,27,25,,,,,,,,,3.8,1.8,3.4*36
$GPRMC,072632.000,A,5230.5171,N,01322.6478,E,1.62,191.50,100912,,,A*67
$GPGGA,072633.000,5230.5163,N,01322.6459,E,1,03,1.9,89.9,M,44.8,M,,0000*6D
$GPGSA,A,2,17,14,25,,,,,,,,,,2.2,1.9,1.0*3E
$GPRMC,072634.000,A,5230.5157,N,01322.6441,E,0.89,324.97,100912,,,A*6C
$GPGGA,072635.000,5230.5152,N,01322.6425,E,0,00,,91.1,M,44.8,M,,0000*47
$GPGSA,A,1,,,,,,,,,,,,,,,*1E
$GPRMC,072643.000,A,5230.5080,N,01322.6348,E,1.13,78.28,100912,,,A*55
$GPGGA,072644.000,5230.5073,N,01322.6342,E,1,04,1.8,91.1,M,44.8,M,,0000*67
$GPGSA,A,3,14,27,17,25,,,,,,,,,3.8,1.8,3.4*36
$GPRMC,072644.000,A,5230.5073,N,01322.6342,E,0.89,70.76,100912,,,A*55
$GPGGA,072645.000,5230.5066,N,01322.6335,E,1,03,1.9,91.0,M,44.8,M,,0000*65
$GPGSA,A,2,14,17,25,,,,,,,,,,2.2,1.9,1.0*3E
$GPRMC,072648.000,A,5230.5040,N,01322.6317,E,1.03,193.26,100912,,,A*63
$GPGGA,072649.000,5230.5032,N,01322.6311,E,1,04,1.8,87.7,M,44.8,M,,0000*68
$GPGSA,A,3,14,27,17,25,,,,,,,,,3.8,1.8,3.4*36
$GPRMC,072651.000,A,5230.5017,N,01322.6302,E,1.09,198.82,100912,,,A*62
$GPGGA,072652.000,5230.5007,N,01322.6300,E,1,04,1.8,79.7,M,44.8,M,,0000*65
$GPGSA,A,3,14,27,17,25,,,,,,,,,3.8,1.8,3.4*36
$GPRMC,072652.000,A,5230.5007,N,01322.6300,E,1.40,186.39,100912,,,A*60
$GPGGA,072653.000,5230.4996,N,01322.6300,E,1,04,1.8,76.0,M,44.8,M,,0000*6C
$GPGSA,A,3,14,27,17,25,,,,,,,,,3.8,1.8,3.4*36
$GPRMC,072653.000,A,5230.4996,N,01322.6300,E,1.75,175.22,100912,,,A*61
$GPGGA,072654.000,5230.4983,N,01322.6302,E,1,04,1.8,71.9,M,44.8,M,,0000*63
$GPGSA,A,3,14,27,17,25,,,,,,,,,3.8,1.8,3.4*36
$GPRMC,072654.000,A,5230.4983,N,01322.6302,E,2.08,177.41,100912,,,A*6E
$GPGGA,072655.000,5230.4969,N,01322.6305,E,1,04,1.8,67.6,M,44.8,M,,0000*69
$GPGSA,A,3,14,27,17,25,,,,,,,,,3.8,1.8,3.4*36
$GPRMC,072655.000,A,5230.4969,N,01322.6305,E,2.48,174.56,100912,,,A*6D
$GPGGA,072656.000,5230.4955,N,01322.6308,E,1,04,1.8,63.3,M,44.8,M,,0000*69
$GPGSA,A,3,14,27,17,25,,,,,,,,,3.8,1.8,3.4*36
$GPGSV,3,1,11,09,78,126,37,27,66,125,37,12,56,248,30,17,32,051,34*72
$GPGSV,3,2,11,14,25,314,24,15,22,185,25,25,17,249,37,04,11,102,32*79
$GPGSV,3,3,11,22,09,286,25,18,01,249,,01,00,004,*49
$GPRMC,072656.000,A,5230.4955,N,01322.6308,E,2.44,177.80,100912,,,A*68
$GPGGA,072657.000,5230.4944,N,01322.6312,E,1,04,1.8,59.0,M,44.8,M,,0000*69
$GPGSA,A,3,14,27,17,25,,,,,,,,,3.8,1.8,3.4*36
$GPRMC,072657.000,A,5230.4944,N,01322.6312,E,1.39,153.09,100912,,,A*6C
$GPGGA,072658.000,5230.4933,N,01322.6315,E,1,04,1.8,55.3,M,44.8,M,,0000*6E
$GPGSA,A,3,14,27,17,25,,,,,,,,,3.8,1.8,3.4*36
$GPRMC,072658.000,A,5230.4933,N,01322.6315,E,1.89,167.05,100912,,,A*64
$GPGGA,072659.000,5230.4921,N,01322.6318,E,1,04,1.8,51.8,M,44.8,M,,0000*6E
$GPGSA,A,3,14,27,17,25,,,,,,,,,3.8,1.8,3.4*36
$GPRMC,072659.000,A,5230.4921,N,01322.6318,E,2.35,160.07,100912,,,A*6A
$GPGGA,072700.000,5230.4912,N,01322.6320,E,1,04,1.8,48.7,M,44.8,M,,0000*6F
$GPGSA,A,3,14,27,17,25,,,,,,,,,3.8,1.8,3.4*36
$GPRMC,072700.000,A,5230.4912,N,01322.6320,E,1.72,163.14,100912,,,A*6D
$GPGGA,072701.000,5230.4903,N,01322.6326,E,1,03,2.0,45.9,M,44.8,M,,0000*67
$GPGSA,A,2,14,27,17,,,,,,,,,,2.3,2.0,1.0*37
$GPGSV,3,1,11,09,78,126,37,27,66,125,37,12,56,248,31,17,32,051,32*75
$GPGSV,3,2,11,14,25,314,24,15,22,185,30,25,17,249,,04,11,102,32*79
$GPGSV,3,3,11,22,09,286,25,18,01,249,,01,00,004,*49
$GPRMC,072701.000,A,5230.4903,N,01322.6326,E,2.09,140.45,100912,,,A*60
$GPGGA,072702.000,5230.4897,N,01322.6322,E,1,04,1.8,43.4,M,44.8,M,,0000*6B
$GPGSA,A,3,14,27,17,25,,,,,,,,,3.8,1.8,3.4*36
$GPRMC,072702.000,A,5230.4897,N,01322.6322,E,1.13,203.06,100912,,,A*60
$GPGGA,072703.000,5230.4891,N,01322.6320,E,1,04,1.8,41.1,M,44.8,M,,0000*69
$GPGSA,A,3,14,27,17,25,,,,,,,,,3.8,1.8,3.4*36
$GPRMC,072703.000,A,5230.4891,N,01322.6320,E,1.36,175.81,100912,,,A*6F
$GPGGA,072704.000,5230.4887,N,01322.6317,E,1,04,1.8,39.0,M,44.8,M,,0000*63
$GPGSA,A,3,14,27,17,25,,,,,,,,,3.8,1.8,3.4*36
$GPRMC,072704.000,A,5230.4887,N,01322.6317,E,0.91,193.86,100912,,,A*68
$GPGGA,072705.000,5230.4883,N,01322.6315,E,1,04,1.8,36.8,M,44.8,M,,0000*63
$GPGSA,A,3,14,27,17,25,,,,,,,,,3.8,1.8,3.4*36
$GPRMC,072721.000,A,5230.4910,N,01322.6216,E,1.86,21.54,100912,,,A*50
$GPGGA,072722.000,5230.4919,N,01322.6206,E,1,04,1.8,39.3,M,44.8,M,,0000*63
$GPGSA,A,3,14,27,17,25,,,,,,,,,3.8,1.8,3.4*36
$GPRMC,072722.000,A,5230.4919,N,01322.6206,E,1.85,338.14,100912,,,A*67
$GPGGA,072723.000,5230.4927,N,01322.6195,E,1,04,1.8,40.6,M,44.8,M,,0000*6D
$GPGSA,A,3,14,27,17,25,,,,,,,,,3.8,1.8,3.4*36
$GPRMC,072723.000,A,5230.4927,N,01322.6195,E,1.56,328.60,100912,,,A*6E
$GPGGA,072724.000,5230.4939,N,01322.6184,E,1,04,1.8,42.2,M,44.8,M,,0000*63
$GPGSA,A,3,14,27,17,25,,,,,,,,,3.8,1.8,3.4*36
$GPRMC,072724.000,A,5230.4939,N,01322.6184,E,3.12,337.32,100912,,,A*6D
$GPGGA,072725.000,5230.4950,N,01322.6174,E,1,04,1.8,43.8,M,44.8,M,,0000*69
$GPGSA,A,3,14,27,17,25,,,,,,,,,3.8,1.8,3.4*36
$GPRMC,072725.000,A,5230.4950,N,01322.6174,E,2.78,341.50,100912,,,A*64
$GPGGA,072726.000,5230.4960,N,01322.6165,E,1,04,1.8,45.5,M,44.8,M,,0000*62
$GPGSA,A,3,14,27,17,25,,,,,,,,,3.8,1.8,3.4*36
$GPGSV,3,1,11,09,76,127,37,27,65,126,40,12,57,249,34,17,31,050,32*7D
$GPGSV,3,2,11,14,26,314,25,15,21,185,40,25,18,250,27,04,12,101,32*7D
$GPGSV,3,3,11,22,09,285,21,18,01,249,15,02,00,135,*4A
$GPRMC,072726.000,A,5230.4960,N,01322.6165,E,2.63,340.96,100912,,,A*65
$GPGGA,072727.000,5230.4971,N,01322.6158,E,1,04,1.8,46.9,M,44.8,M,,0000*62
$GPGSA,A,3,14,27,17,25,,,,,,,,,3.9,1.8,3.4*37
$GPRMC,072727.000,A,5230.4971,N,01322.6158,E,2.60,345.31,100912,,,A*61
$GPGGA,072728.000,5230.4980,N,01322.6151,E,1,04,1.8,48.1,M,44.8,M,,0000*6C
$GPGSA,A,3,14,27,17,25,,,,,,,,,3.9,1.8,3.4*37
$GPRMC,072728.000,A,5230.4980,N,01322.6151,E,2.30,345.13,100912,,,A*6C
$GPGGA,072729.000,5230.4989,N,01322.6147,E,1,04,1.8,48.8,M,44.8,M,,0000*6A
$GPGSA,A,3,14,27,17,25,,,,,,,,,3.9,1.8,3.4*37
$GPRMC,072729.000,A,5230.4989,N,01322.6147,E,2.09,348.96,100912,,,A*69
$GPGGA,072730.000,5230.4999,N,01322.6142,E,1,04,1.8,49.5,M,44.8,M,,0000*6A
$GPGSA,A,3,14,27,17,25,,,,,,,,,3.9,1.8,3.4*37
$GPRMC,072730.000,A,5230.4999,N,01322.6142,E,2.50,345.79,100912,,,A*65
$GPGGA,072731.000,5230.5008,N,01322.6138,E,1,04,1.8,50.3,M,44.8,M,,0000*68
$GPGSA,A,3,14,27,17,25,,,,,,,,,3.9,1.8,3.4*37
$GPGSV,3,1,11,09,76,127,37,27,65,126,39,12,57,249,36,17,31,050,27*75
$GPGSV,3,2,11,14,26,314,22,15,21,185,26,25,18,250,22,04,12,101,25*79
$GPGSV,3,3,11,22,09,285,17,18,01,249,14,02,00,135,*4E
$GPRMC,072731.000,A,5230.5008,N,01322.6138,E,2.02,347.20,100912,,,A*60
$GPGGA,072732.000,5230.5016,N,01322.6135,E,1,04,1.8,51.2,M,44.8,M,,0000*69
$GPGSA,A,3,14,27,17,25,,,,,,,,,3.9,1.8,3.4*37
$GPRMC,072732.000,A,5230.5016,N,01322.6135,E,1.96,357.68,100912,,,A*62
$GPGGA,072733.000,5230.5024,N,01322.6133,E,1,04,1.8,51.8,M,44.8,M,,0000*65
$GPGSA,A,3,14,27,17,25,,,,,,,,,3.9,1.8,3.4*37
$GPRMC,072733.000,A,5230.5024,N,01322.6133,E,1.96,356.54,100912,,,A*6A
$GPGGA,072734.000,5230.5036,N,01322.6134,E,1,04,1.8,52.2,M,44.8,M,,0000*6F
$GPGSA,A,3,14,27,17,25,,,,,,,,,3.9,1.8,3.4*37
$GPRMC,072734.000,A,5230.5036,N,01322.6134,E,3.52,5.47,100912,,,A*64
$GPGGA,072735.000,5230.5048,N,01322.6133,E,1,04,1.8,52.4,M,44.8,M,,0000*66
$GPGSA,A,3,14,27,17,25,,,,,,,,,3.9,1.8,3.4*37
$GPRMC,072735.000,A,5230.5048,N,01322.6133,E,3.30,354.98,100912,,,A*6A
$GPGGA,072736.000,5230.5057,N,01322.6131,E,1,04,1.8,52.5,M,44.8,M,,0000*68
$GPGSA,A,3,14,27,17,25,,,,,,,,,3.9,1.8,3.4*37
$GPGSV,3,1,11,09,76,127,37,27,65,126,38,12,57,249,30,17,31,050,23*76
$GPGSV,3,2,11,14,26,314,22,15,21,185,27,25,18,250,21,04,12,101,19*74
$GPGSV,3,3,11,22,09,285,14,18,01,249,13,02,00,135,*4A
$GPRMC,072736.000,A,5230.5057,N,01322.6131,E,2.31,345.59,100912,,,A*68
$GPGGA,072737.000,5230.5065,N,01322.6129,E,0,00,,52.6,M,44.8,M,,0000*40
$GPGSA,A,1,,,,,,,,,,,,,,,*1E
$GPRMC,073606.000,A,5230.9649,N,01322.8354,E,1.98,348.06,100912,,,A*66
$GPGGA,073607.000,5230.9653,N,01322.8360,E,1,04,1.8,-26.5,M,44.8,M,,0000*42
$GPGSA,A,3,27,17,14,25,,,,,,,,,4.1,1.8,3.7*3B
$GPRMC,073607.000,A,5230.9653,N,01322.8360,E,2.32,331.98,100912,,,A*61
$GPGGA,073608.000,5230.9657,N,01322.8356,E,1,04,1.8,-25.3,M,44.8,M,,0000*49
$GPGSA,A,3,27,17,14,25,,,,,,,,,4.1,1.8,3.7*3B
$GPRMC,073608.000,A,5230.9657,N,01322.8356,E,2.50,321.79,100912,,,A*65
$GPGGA,073609.000,5230.9661,N,01322.8352,E,0,00,,-24.0,M,44.8,M,,0000*69
$GPGSA,A,1,,,,,,,,,,,,,,,*1E
$GPRMC,073610.000,A,5230.9663,N,01322.8359,E,1.45,20.52,100912,,,A*58
$GPGGA,073611.000,5230.9660,N,01322.8369,E,1,04,1.8,-25.1,M,44.8,M,,0000*4B
$GPGSA,A,3,27,17,14,25,,,,,,,,,4.1,1.8,3.7*3B
$GPGSV,3,1,10,09,73,128,27,27,62,127,27,12,60,251,31,17,29,049,31*7A
$GPGSV,3,2,10,14,28,312,19,25,20,251,28,15,18,184,25,04,13,099,34*71
$GPGSV,3,3,10,22,07,283,21,02,02,134,*73
$GPRMC,073613.000,A,5230.9655,N,01322.8400,E,2.72,91.87,100912,,,A*50
$GPGGA,073614.000,5230.9651,N,01322.8409,E,1,03,2.1,-30.7,M,44.8,M,,0000*42
$GPGSA,A,2,17,14,25,,,,,,,,,,2.3,2.1,1.0*34
$GPRMC,073614.000,A,5230.9651,N,01322.8409,E,1.14,146.95,100912,,,A*61
$GPGGA,073615.000,5230.9646,N,01322.8418,E,1,03,2.1,-32.2,M,44.8,M,,0000*42
$GPGSA,A,2,17,14,25,,,,,,,,,,2.3,2.1,1.0*34
$GPRMC,073615.000,A,5230.9646,N,01322.8418,E,0.96,143.19,100912,,,A*6C
$GPGGA,073616.000,5230.9642,N,01322.8424,E,1,04,1.8,-33.6,M,44.8,M,,0000*42
$GPGSA,A,3,27,17,14,25,,,,,,,,,4.1,1.8,3.7*3B
$GPGSV,3,1,10,09,73,128,27,27,62,127,25,12,60,251,29,17,29,049,29*78
$GPGSV,3,2,10,14,28,312,20,25,20,251,33,15,18,184,25,04,13,099,31*74
$GPGSV,3,3,10,22,07,283,27,02,02,134,*75
$GPRMC,073624.000,A,5230.9622,N,01322.8460,E,1.08,335.88,100912,,,A*6E
$GPGGA,073625.000,5230.9618,N,01322.8463,E,1,04,1.8,-51.5,M,44.8,M,,0000*49
$GPGSA,A,3,27,17,14,25,,,,,,,,,4.1,1.8,3.7*3B
$GPRMC,073626.000,A,5230.9613,N,01322.8471,E,1.28,131.88,100912,,,A*6A
$GPGGA,073627.000,5230.9608,N,01322.8474,E,1,04,1.8,-54.4,M,44.8,M,,0000*48
$GPGSA,A,3,27,17,14,25,,,,,,,,,4.1,1.8,3.7*3B
$GPRMC,073629.000,A,5230.9602,N,01322.8470,E,1.16,255.94,100912,,,A*65
$GPGGA,073630.000,5230.9602,N,01322.8465,E,1,04,1.8,-54.3,M,44.8,M,,0000*43
$GPGSA,A,3,27,17,14,25,,,,,,,,,4.1,1.8,3.7*3B
$GPRMC,073630.000,A,5230.9602,N,01322.8465,E,0.90,286.99,100912,,,A*65
$GPGGA,073631.000,5230.9602,N,01322.8463,E,1,04,1.8,-53.7,M,44.8,M,,0000*47
$GPGSA,A,3,27,17,14,25,,,,,,,,,4.1,1.8,3.7*3B
$GPGSV,3,1,10,09,72,129,33,12,61,252,33,27,61,128,33,14,29,311,24*7F
$GPGSV,3,2,10,17,28,048,29,25,22,252,29,15,17,184,26,04,14,098,37*74
$GPGSV,3,3,10,22,07,282,34,02,03,133,*70
$GPRMC,073633.000,A,5230.9601,N,01322.8455,E,0.92,269.81,100912,,,A*6C
$GPGGA,073634.000,5230.9602,N,01322.8446,E,1,04,1.8,-52.0,M,44.8,M,,0000*43
$GPGSA,A,3,27,17,14,25,,,,,,,,,4.1,1.8,3.7*3B
$GPRMC,073634.000,A,5230.9602,N,01322.8446,E,1.56,284.04,100912,,,A*6D
$GPGGA,073635.000,5230.9601,N,01322.8436,E,1,04,1.8,-51.4,M,44.8,M,,0000*41
$GPGSA,A,3,27,17,14,25,,,,,,,,,4.1,1.8,3.7*3B
$GPRMC,073635.000,A,5230.9601,N,01322.8436,E,1.99,267.63,100912,,,A*67
$GPGGA,073636.000,5230.9602,N,01322.8425,E,1,04,1.8,-50.9,M,44.8,M,,0000*4F
$GPGSA,A,3,27,17,14,25,,,,,,,,,4.1,1.8,3.7*3B
$GPGSV,3,1,10,09,72,129,33,12,61,252,36,27,61,128,34,14,29,311,27*7E
$GPGSV,3,2,10,17,28,048,33,25,22,252,30,15,17,184,,04,14,098,40*73
$GPGSV,3,3,10,22,07,282,31,02,03,133,*75
$GPRMC,073636.000,A,5230.9602,N,01322.8425,E,1.88,282.50,100912,,,A*6E
$GPGGA,073637.000,5230.9602,N,01322.8414,E,1,04,1.8,-50.2,M,44.8,M,,0000*47
$GPGSA,A,3,27,17,14,25,,,,,,,,,4.1,1.8,3.7*3B
$GPRMC,073637.000,A,5230.9602,N,01322.8414,E,1.88,266.50,100912,,,A*67
$GPGGA,073638.000,5230.9603,N,01322.8402,E,1,04,1.8,-49.3,M,44.8,M,,0000*47
$GPGSA,A,3,27,17,14,25,,,,,,,,,4.1,1.8,3.7*3B
$GPRMC,073638.000,A,5230.9603,N,01322.8402,E,1.90,276.43,100912,,,A*64
$GPGGA,073639.000,5230.9604,N,01322.8392,E,1,04,1.8,-48.4,M,44.8,M,,0000*49
$GPGSA,A,3,27,17,14,25,,,,,,,,,4.1,1.8,3.7*3B
$GPRMC,073639.000,A,5230.9604,N,01322.8392,E,1.57,268.26,100912,,,A*6B
$GPGGA,073640.000,5230.9607,N,01322.8380,E,1,04,1.8,-47.3,M,44.8,M,,0000*4F
$GPGSA,A,3,27,17,14,25,,,,,,,,,4.1,1.8,3.7*3B
$GPRMC,073640.000,A,5230.9607,N,01322.8380,E,1.90,295.29,100912,,,A*63
$GPGGA,073641.000,5230.9610,N,01322.8367,E,1,04,1.8,-46.1,M,44.8,M,,0000*42
$GPGSA,A,3,27,17,14,25,,,,,,,,,4.1,1.8,3.7*3B
$GPGSV,3,1,10,09,72,129,34,12,61,252,29,27,61,128,34,14,29,311,27*77
$GPGSV,3,2,10,17,28,048,33,25,22,252,31,15,17,184,32,04,14,098,39*7D
$GPGSV,3,3,10,22,07,282,34,02,03,133,*70
$GPRMC,073641.000,A,5230.9610,N,01322.8367,E,1.90,287.59,100912,,,A*69
$GPGGA,073642.000,5230.9612,N,01322.8356,E,1,04,1.8,-45.0,M,44.8,M,,0000*43
$GPGSA,A,3,27,17,14,25,,,,,,,,,4.1,1.8,3.7*3B
$GPRMC,073642.000,A,5230.9612,N,01322.8356,E,1.41,280.87,100912,,,A*62
$GPGGA,073643.000,5230.9613,N,01322.8347,E,1,04,1.8,-43.8,M,44.8,M,,0000*4D
$GPGSA,A,3,27,17,14,25,,,,,,,,,4.1,1.8,3.7*3B
$GPRMC,073643.000,A,5230.9613,N,01322.8347,E,1.13,279.26,100912,,,A*68
$GPGGA,073644.000,5230.9616,N,01322.8339,E,1,04,1.8,-42.5,M,44.8,M,,0000*4A
$GPGSA,A,3,27,17,14,25,,,,,,,,,4.1,1.8,3.7*3B
$GPRMC,073644.000,A,5230.9616,N,01322.8339,E,0.88,321.34,100912,,,A*6F
$GPGGA,073645.000,5230.9619,N,01322.8333,E,1,04,1.8,-41.1,M,44.8,M,,0000*49
$GPGSA,A,3,27,17,14,25,,,,,,,,,4.1,1.8,3.7*3B
$GPRMC,073655.000,A,5230.9647,N,01322.8268,E,1.41,318.72,100912,,,A*62
$GPGGA,073656.000,5230.9651,N,01322.8260,E,1,04,1.8,-21.4,M,44.8,M,,0000*43
$GPGSA,A,3,27,17,14,25,,,,,,,,,4.1,1.8,3.7*3B
$GPGSV,3,1,10,09,72,129,36,12,61,252,32,27,61,128,35,14,29,311,26*7F
$GPGSV,3,2,10,17,28,048,32,25,22,252,39,15,17,184,,04,14,098,35*79
$GPGSV,3,3,10,22,07,282,33,02,03,133,*77
$GPRMC,073656.000,A,5230.9651,N,01322.8260,E,1.32,312.58,100912,,,A*68
$GPGGA,073657.000,5230.9655,N,01322.8252,E,1,04,1.8,-19.0,M,44.8,M,,0000*48
$GPGSA,A,3,27,17,14,25,,,,,,,,,4.1,1.8,3.7*3B
$GPRMC,073657.000,A,5230.9655,N,01322.8252,E,1.00,305.37,100912,,,A*62
$GPGGA,073658.000,5230.9658,N,01322.8243,E,1,04,1.8,-16.3,M,44.8,M,,0000*46
$GPGSA,A,3,27,17,14,25,,,,,,,,,4.1,1.8,3.7*3B
$GPRMC,073658.000,A,5230.9658,N,01322.8243,E,0.98,300.40,100912,,,A*65
$GPGGA,073659.000,5230.9658,N,01322.8236,E,1,04,1.8,-14.0,M,44.8,M,,0000*44
$GPGSA,A,3,27,17,14,25,,,,,,,,,4.1,1.8,3.7*3B
$GPRMC,073704.000,A,5230.9656,N,01322.8213,E,0.88,280.27,100912,,,A*6F
$GPGGA,073705.000,5230.9656,N,01322.8207,E,1,03,1.9,-4.2,M,44.8,M,,0000*75
$GPGSA,A,2,27,14,25,,,,,,,,,,2.2,1.9,1.0*3D
$GPRMC,073705.000,A,5230.9656,N,01322.8207,E,0.96,263.14,100912,,,A*69
$GPGGA,073706.000,5230.9657,N,01322.8199,E,1,03,1.9,-2.5,M,44.8,M,,0000*72
$GPGSA,A,2,27,14,25,,,,,,,,,,2.2,1.9,1.0*3D
$GPGSV,3,1,10,09,72,129,39,12,61,252,34,27,61,128,35,14,29,311,28*78
$GPGSV,3,2,10,17,28,048,16,25,22,252,37,15,17,184,33,04,14,098,35*71
$GPGSV,3,3,10,22,07,282,32,02,03,133,*76
$GPRMC,073706.000,A,5230.9657,N,01322.8199,E,0.96,260.51,100912,,,A*6D
$GPGGA,073707.000,5230.9658,N,01322.8193,E,1,03,1.9,-0.9,M,44.8,M,,0000*78
$GPGSA,A,2,27,14,25,,,,,,,,,,2.2,1.9,1.0*3D
$GPRMC,073711.000,A,5230.9666,N,01322.8170,E,0.85,259.27,100912,,,A*67
$GPGGA,073712.000,5230.9667,N,01322.8162,E,1,04,1.8,7.2,M,44.8,M,,0000*59
$GPGSA,A,3,17,27,14,25,,,,,,,,,4.1,1.8,3.7*3B
$GPRMC,073712.000,A,5230.9667,N,01322.8162,E,0.95,257.84,100912,,,A*60
$GPGGA,073713.000,5230.9670,N,01322.8155,E,1,04,1.8,9.2,M,44.8,M,,0000*54
$GPGSA,A,3,17,27,14,25,,,,,,,,,4.1,1.8,3.7*3B
$GPRMC,073722.000,A,5230.9696,N,01322.8095,E,0.85,277.64,100912,,,A*69
$GPGGA,073723.000,5230.9698,N,01322.8087,E,1,04,1.8,29.9,M,44.8,M,,0000*66
$GPGSA,A,3,17,27,14,25,,,,,,,,,4.2,1.8,3.8*37
$GPRMC,073723.000,A,5230.9698,N,01322.8087,E,0.84,286.57,100912,,,A*6A
$GPGGA,073724.000,5230.9701,N,01322.8079,E,1,04,1.8,32.3,M,44.8,M,,0000*61
$GPGSA,A,3,17,27,14,25,,,,,,,,,4.2,1.8,3.8*37
$GPRMC,073724.000,A,5230.9701,N,01322.8079,E,0.86,284.30,100912,,,A*6C
$GPGGA,073725.000,5230.9703,N,01322.8069,E,1,04,1.8,35.2,M,44.8,M,,0000*65
$GPGSA,A,3,17,27,14,25,,,,,,,,,4.2,1.8,3.8*37
$GPRMC,073725.000,A,5230.9703,N,01322.8069,E,0.96,283.65,100912,,,A*68
$GPGGA,073726.000,5230.9704,N,01322.8063,E,1,05,1.3,37.3,M,44.8,M,,0000*62
$GPGSA,A,3,17,27,04,14,25,,,,,,,,2.5,1.3,2.2*32
$GPGSV,3,1,10,09,71,129,43,12,62,253,28,27,61,128,37,14,29,311,29*7A
$GPGSV,3,2,10,17,27,048,22,25,22,252,39,15,17,184,31,04,15,097,37*79
$GPGSV,3,3,10,22,07,282,32,02,03,133,16*71
$GPRMC,073817.000,A,5230.9779,N,01322.8034,E,1.51,265.55,100912,,,A*62
$GPGGA,073818.000,5230.9779,N,01322.8030,E,1,08,1.0,41.1,M,44.8,M,,0000*61
$GPGSA,A,3,17,27,12,04,09,14,25,15,,,,,1.6,1.0,1.3*3D
$GPRMC,073818.000,A,5230.9779,N,01322.8030,E,0.99,263.16,100912,,,A*6D
$GPGGA,073819.000,5230.9779,N,01322.8023,E,1,08,1.0,41.0,M,44.8,M,,0000*63
$GPGSA,A,3,17,27,12,04,09,14,25,15,,,,,1.6,1.0,1.3*3D
$GPRMC,073819.000,A,5230.9779,N,01322.8023,E,1.39,271.61,100912,,,A*66
$GPGGA,073820.000,5230.9782,N,01322.8021,E,1,08,1.0,40.8,M,44.8,M,,0000*66
$GPGSA,A,3,17,27,12,04,09,14,25,15,,,,,1.6,1.0,1.3*3D
$GPRMC,073820.000,A,5230.9782,N,01322.8021,E,0.90,329.75,100912,,,A*61
$GPGGA,073821.000,5230.9785,N,01322.8024,E,1,08,1.0,40.3,M,44.8,M,,0000*6E
$GPGSA,A,3,17,27,12,04,09,14,25,15,,,,,1.6,1.0,1.3*3D
$GPGSV,3,1,10,09,71,130,37,12,62,253,38,27,60,129,37,14,30,310,40*76
$GPGSV,3,2,10,17,27,048,39,25,22,252,38,15,16,184,32,04,15,097,40*70
$GPGSV,3,3,10,22,06,281,32,02,03,133,19*7C
$GPRMC,073821.000,A,5230.9785,N,01322.8024,E,1.17,46.63,100912,,,A*51
$GPGGA,073822.000,5230.9786,N,01322.8023,E,1,08,1.0,39.9,M,44.8,M,,0000*6D
$GPGSA,A,3,17,27,12,04,09,14,25,15,,,,,1.6,1.0,1.3*3D
$GPRMC,073829.000,A,5230.9801,N,01322.8005,E,1.62,261.74,100912,,,A*6A
$GPGGA,073830.000,5230.9803,N,01322.7999,E,1,08,1.0,36.5,M,44.8,M,,0000*68
$GPGSA,A,3,17,27,12,04,09,14,25,15,,,,,1.6,1.0,1.3*3D
$GPRMC,073830.000,A,5230.9803,N,01322.7999,E,0.90,266.89,100912,,,A*6A
$GPGGA,073831.000,5230.9806,N,01322.7997,E,1,08,1.0,36.0,M,44.8,M,,0000*67
$GPGSA,A,3,17,27,12,04,09,14,25,15,,,,,1.6,1.0,1.3*3D
$GPGSV,3,1,10,09,71,130,22,12,62,253,34,27,60,129,33,14,30,310,32*7F
$GPGSV,3,2,10,17,27,048,21,25,22,252,45,15,16,184,32,04,15,097,30*74
$GPGSV,3,3,10,22,06,281,29,02,04,133,17*7F
$GPRMC,073835.000,A,5230.9816,N,01322.7980,E,1.42,262.59,100912,,,A*64
$GPGGA,073836.000,5230.9818,N,01322.7968,E,1,08,1.0,34.7,M,44.8,M,,0000*6A
$GPGSA,A,3,17,27,12,04,09,14,25,15,,,,,1.7,1.0,1.3*3C
$GPGSV,3,1,10,09,71,130,40,12,62,253,48,27,60,129,38,14,30,310,45*7B
$GPGSV,3,2,10,17,27,048,30,25,22,252,44,15,16,184,33,04,15,097,35*71
$GPGSV,3,3,10,22,06,281,33,02,04,133,18*7B
$GPRMC,073836.000,A,5230.9818,N,01322.7968,E,2.21,268.07,100912,,,A*68
$GPGGA,073837.000,5230.9820,N,01322.7956,E,1,08,1.0,34.3,M,44.8,M,,0000*69
$GPGSA,A,3,17,27,12,04,09,14,25,15,,,,,1.7,1.0,1.3*3C
$GPRMC,073837.000,A,5230.9820,N,01322.7956,E,2.38,269.39,100912,,,A*6B
$GPGGA,073838.000,5230.9823,N,01322.7943,E,1,08,1.0,34.2,M,44.8,M,,0000*60
$GPGSA,A,3,17,27,12,04,09,14,25,15,,,,,1.7,1.0,1.3*3C
$GPRMC,073838.000,A,5230.9823,N,01322.7943,E,2.50,270.17,100912,,,A*69
$GPGGA,073839.000,5230.9826,N,01322.7931,E,1,08,1.0,34.1,M,44.8,M,,0000*62
$GPGSA,A,3,17,27,12,04,09,14,25,15,,,,,1.7,1.0,1.3*3C
$GPRMC,073839.000,A,5230.9826,N,01322.7931,E,2.24,269.23,100912,,,A*64
$GPGGA,073840.000,5230.9828,N,01322.7917,E,1,08,1.0,34.0,M,44.8,M,,0000*67
$GPGSA,A,3,17,27,12,04,09,14,25,15,,,,,1.7,1.0,1.3*3C
$GPRMC,073840.000,A,5230.9828,N,01322.7917,E,2.65,270.71,100912,,,A*6A
$GPGGA,073841.000,5230.9831,N,01322.7904,E,1,08,1.0,33.8,M,44.8,M,,0000*63
$GPGSA,A,3,17,27,12,04,09,14,25,15,,,,,1.7,1.0,1.3*3C
$GPGSV,3,1,10,09,71,130,40,12,62,253,49,27,60,129,39,14,30,310,46*78
$GPGSV,3,2,10,17,27,048,29,25,22,252,44,15,16,184,35,04,15,097,33*79
$GPGSV,3,3,10,22,06,281,35,02,04,133,18*7D
$GPRMC,073841.000,A,5230.9831,N,01322.7904,E,2.56,271.64,100912,,,A*64
$GPGGA,073842.000,5230.9832,N,01322.7891,E,1,08,1.0,33.6,M,44.8,M,,0000*60
$GPGSA,A,3,17,27,12,04,09,14,25,15,,,,,1.7,1.0,1.3*3C
$GPRMC,073842.000,A,5230.9832,N,01322.7891,E,2.53,265.15,100912,,,A*6F
$GPGGA,073843.000,5230.9835,N,01322.7879,E,1,08,1.0,33.5,M,44.8,M,,0000*63
$GPGSA,A,3,17,27,12,04,09,14,25,15,,,,,1.7,1.0,1.3*3C
$GPRMC,073843.000,A,5230.9835,N,01322.7879,E,2.40,268.44,100912,,,A*64
$GPGGA,073844.000,5230.9836,N,01322.7866,E,1,08,1.0,33.5,M,44.8,M,,0000*69
$GPGSA,A,3,17,27,12,04,09,14,25,15,,,,,1.7,1.0,1.3*3C
$GPRMC,073844.000,A,5230.9836,N,01322.7866,E,2.68,262.33,100912,,,A*6E
$GPGGA,073845.000,5230.9838,N,01322.7852,E,1,08,1.0,33.5,M,44.8,M,,0000*61
$GPGSA,A,3,17,27,12,04,09,14,25,15,,,,,1.7,1.0,1.3*3C
$GPRMC,073845.000,A,5230.9838,N,01322.7852,E,2.64,266.17,100912,,,A*68
$GPGGA,073846.000,5230.9839,N,01322.7840,E,1,08,1.0,33.5,M,44.8,M,,0000*60
$GPGSA,A,3,17,27,12,04,09,14,25,15,,,,,1.7,1.0,1.3*3C
$GPGSV,3,1,10,09,71,130,40,12,62,253,49,27,60,129,35,14,30,310,46*74
$GPGSV,3,2,10,17,27,048,28,25,22,253,44,15,16,184,41,04,15,097,34*7D
$GPGSV,3,3,10,22,06,281,34,02,04,133,19*7D
$GPRMC,073846.000,A,5230.9839,N,01322.7840,E,2.50,261.81,100912,,,A*66
$GPGGA,073847.000,5230.9841,N,01322.7827,E,1,08,1.0,33.5,M,44.8,M,,0000*6F
$GPGSA,A,3,17,27,12,04,09,14,25,15,,,,,1.7,1.0,1.3*3C
$GPRMC,073847.000,A,5230.9841,N,01322.7827,E,2.50,264.30,100912,,,A*66
$GPGGA,073848.000,5230.9842,N,01322.7813,E,1,08,1.0,33.6,M,44.8,M,,0000*67
$GPGSA,A,3,17,27,12,04,09,14,25,15,,,,,1.7,1.0,1.3*3C
$GPRMC,073848.000,A,5230.9842,N,01322.7813,E,2.79,262.23,100912,,,A*62
$GPGGA,073849.000,5230.9842,N,01322.7800,E,1,08,1.0,33.7,M,44.8,M,,0000*65
$GPGSA,A,3,17,27,12,04,09,14,25,15,,,,,1.7,1.0,1.3*3C
$GPRMC,073849.000,A,5230.9842,N,01322.7800,E,2.74,260.95,100912,,,A*63
$GPGGA,073850.000,5230.9843,N,01322.7787,E,1,08,1.0,33.9,M,44.8,M,,0000*62
$GPGSA,A,3,17,27,12,04,09,14,25,15,,,,,1.7,1.0,1.3*3C
$GPRMC,073850.000,A,5230.9843,N,01322.7787,E,2.48,261.44,100912,,,A*68
$GPGGA,073851.000,5230.9844,N,01322.7775,E,1,08,1.0,34.1,M,44.8,M,,0000*66
$GPGSA,A,3,17,27,12,04,09,14,25,15,,,,,1.7,1.0,1.3*3C
$GPGSV,3,1,10,09,71,130,40,12,62,253,49,27,60,129,36,14,30,310,46*77
$GPGSV,3,2,10,17,27,048,28,25,22,253,44,15,16,184,38,04,15,097,28*7E
$GPGSV,3,3,10,22,06,281,35,02,04,133,19*7C
$GPRMC,073851.000,A,5230.9844,N,01322.7775,E,2.43,257.32,100912,,,A*6C
$GPGGA,073852.000,5230.9844,N,01322.7764,E,1,08,1.0,34.4,M,44.8,M,,0000*60
$GPGSA,A,3,17,27,12,04,09,14,25,15,,,,,1.7,1.0,1.3*3C
$GPRMC,073852.000,A,5230.9844,N,01322.7764,E,2.33,254.12,100912,,,A*69
$GPGGA,073853.000,5230.9844,N,01322.7753,E,1,08,1.0,34.7,M,44.8,M,,0000*66
$GPGSA,A,3,17,27,12,04,09,14,25,15,,,,,1.7,1.0,1.3*3C
$GPRMC,073853.000,A,5230.9844,N,01322.7753,E,2.18,255.48,100912,,,A*6B
$GPGGA,073854.000,5230.9846,N,01322.7748,E,1,07,1.1,35.0,M,44.8,M,,0000*61
$GPGSA,A,3,17,27,12,09,14,25,15,,,,,,1.9,1.1,1.6*32
$GPRMC,073854.000,A,5230.9846,N,01322.7748,E,0.97,254.69,100912,,,A*63
$GPGGA,073855.000,5230.9848,N,01322.7747,E,1,08,1.0,35.3,M,44.8,M,,0000*6C
$GPGSA,A,3,17,27,12,04,09,14,25,15,,,,,1.7,1.0,1.3*3C
$GPRMC,073927.000,A,5230.9871,N,01322.7726,E,1.65,264.72,100912,,,A*6F
$GPGGA,073928.000,5230.9870,N,01322.7714,E,1,08,1.0,36.1,M,44.8,M,,0000*6B
$GPGSA,A,3,17,27,12,04,09,14,25,15,,,,,1.7,1.0,1.3*3C
$GPRMC,073928.000,A,5230.9870,N,01322.7714,E,2.56,265.25,100912,,,A*60
$GPGGA,073929.000,5230.9870,N,01322.7703,E,1,07,1.1,36.0,M,44.8,M,,0000*63
$GPGSA,A,3,17,27,12,09,14,25,15,,,,,,1.9,1.1,1.6*32
$GPRMC,073929.000,A,5230.9870,N,01322.7703,E,2.57,267.83,100912,,,A*68
$GPGGA,073930.000,5230.9869,N,01322.7690,E,1,08,1.0,35.9,M,44.8,M,,0000*6C
$GPGSA,A,3,17,27,12,04,09,14,25,15,,,,,1.7,1.0,1.3*3C
$GPRMC,073930.000,A,5230.9869,N,01322.7690,E,2.74,268.71,100912,,,A*60
$GPGGA,073931.000,5230.9869,N,01322.7678,E,1,08,1.0,35.8,M,44.8,M,,0000*6A
$GPGSA,A,3,17,27,12,04,09,14,25,15,,,,,1.7,1.0,1.3*3C
$GPGSV,3,1,10,09,70,130,38,12,62,254,49,27,60,129,35,14,30,310,46*7D
$GPGSV,3,2,10,17,27,047,26,25,23,253,45,15,16,184,34,04,15,097,35*7F
$GPGSV,3,3,10,22,06,281,33,02,04,133,19*7A
$GPRMC,073931.000,A,5230.9869,N,01322.7678,E,2.68,266.68,100912,,,A*6C
$GPGGA,073932.000,5230.9868,N,01322.7667,E,1,07,1.2,35.7,M,44.8,M,,0000*64
$GPGSA,A,3,27,12,04,09,14,25,15,,,,,,1.8,1.2,1.4*30
$GPRMC,073932.000,A,5230.9868,N,01322.7667,E,2.57,262.34,100912,,,A*61
$GPGGA,073933.000,5230.9866,N,01322.7654,E,1,07,1.2,35.7,M,44.8,M,,0000*6B
$GPGSA,A,3,27,12,04,09,14,25,15,,,,,,1.8,1.2,1.4*30
$GPRMC,073933.000,A,5230.9866,N,01322.7654,E,2.78,257.15,100912,,,A*66
$GPGGA,073934.000,5230.9864,N,01322.7646,E,1,08,1.0,35.7,M,44.8,M,,0000*60
$GPGSA,A,3,17,27,12,04,09,14,25,15,,,,,1.7,1.0,1.3*3C
$GPRMC,073934.000,A,5230.9864,N,01322.7646,E,1.95,248.58,100912,,,A*67
$GPGGA,073935.000,5230.9863,N,01322.7636,E,1,08,1.0,35.7,M,44.8,M,,0000*61
$GPGSA,A,3,17,27,12,04,09,14,25,15,,,,,1.7,1.0,1.3*3C
$GPRMC,073935.000,A,5230.9863,N,01322.7636,E,2.12,258.07,100912,,,A*61
$GPGGA,073936.000,5230.9861,N,01322.7626,E,1,08,1.0,35.7,M,44.8,M,,0000*61
$GPGSA,A,3,17,27,12,04,09,14,25,15,,,,,1.7,1.0,1.3*3C
$GPGSV,3,1,10,09,70,130,43,12,62,254,49,27,60,129,37,14,30,310,46*73
$GPGSV,3,2,10,17,27,047,27,25,23,253,44,15,16,184,34,04,15,097,34*7E
$GPGSV,3,3,10,22,06,281,40,02,04,133,19*7E
$GPRMC,073936.000,A,5230.9861,N,01322.7626,E,2.33,260.37,100912,,,A*6A
$GPGGA,073937.000,5230.9860,N,01322.7616,E,1,08,1.0,35.6,M,44.8,M,,0000*63
$GPGSA,A,3,17,27,12,04,09,14,25,15,,,,,1.7,1.0,1.3*3C
$GPRMC,073937.000,A,5230.9860,N,01322.7616,E,2.31,259.87,100912,,,A*6A
$GPGGA,073938.000,5230.9859,N,01322.7606,E,1,08,1.0,35.6,M,44.8,M,,0000*67
$GPGSA,A,3,17,27,12,04,09,14,25,15,,,,,1.7,1.0,1.3*3C
$GPRMC,073938.000,A,5230.9859,N,01322.7606,E,2.21,260.54,100912,,,A*6B
$GPGGA,073939.000,5230.9858,N,01322.7595,E,1,08,1.0,35.6,M,44.8,M,,0000*6E
$GPGSA,A,3,17,27,12,04,09,14,25,15,,,,,1.7,1.0,1.3*3C
$GPRMC,073939.000,A,5230.9858,N,01322.7595,E,2.38,260.18,100912,,,A*62
$GPGGA,073940.000,5230.9857,N,01322.7585,E,1,08,1.0,35.7,M,44.8,M,,0000*6F
$GPGSA,A,3,17,27,12,04,09,14,25,15,,,,,1.7,1.0,1.3*3C
$GPRMC,073940.000,A,5230.9857,N,01322.7585,E,2.18,260.61,100912,,,A*6E
$GPGGA,073941.000,5230.9856,N,01322.7577,E,1,08,1.0,35.7,M,44.8,M,,0000*62
$GPGSA,A,3,17,27,12,04,09,14,25,15,,,,,1.7,1.0,1.3*3C
$GPGSV,3,1,10,09,70,130,42,12,62,254,49,27,60,129,37,14,30,310,46*72
$GPGSV,3,2,10,17,27,047,26,25,23,253,44,15,16,184,36,04,15,097,31*78
$GPGSV,3,3,10,22,06,281,28,02,04,133,19*70
$GPRMC,073941.000,A,5230.9856,N,01322.7577,E,1.78,258.88,100912,,,A*6A
$GPGGA,073942.000,5230.9855,N,01322.7574,E,1,08,1.0,35.8,M,44.8,M,,0000*6E
$GPGSA,A,3,17,27,12,04,09,14,25,15,,,,,1.7,1.0,1.3*3C
$GPRMC,074030.000,A,5230.9858,N,01322.7573,E,1.16,259.80,100912,,,A*69
$GPGGA,074031.000,5230.9859,N,01322.7567,E,1,08,1.0,45.1,M,44.8,M,,0000*64
$GPGSA,A,3,17,27,12,04,09,14,25,15,,,,,1.7,1.0,1.3*3C
$GPGSV,3,1,10,09,70,130,42,12,63,254,48,27,59,129,41,14,30,310,45*7A
$GPGSV,3,2,10,17,26,047,30,25,23,253,41,15,16,184,37,04,15,096,40*7D
$GPGSV,3,3,10,22,06,281,29,02,04,132,19*70
$GPRMC,074031.000,A,5230.9859,N,01322.7567,E,1.48,260.33,100912,,,A*65
$GPGGA,074032.000,5230.9859,N,01322.7559,E,1,08,1.0,45.3,M,44.8,M,,0000*68
$GPGSA,A,3,17,27,12,04,09,14,25,15,,,,,1.7,1.0,1.3*3C
$GPRMC,074032.000,A,5230.9859,N,01322.7559,E,1.75,263.91,100912,,,A*6E
$GPGGA,074033.000,5230.9859,N,01322.7551,E,1,08,1.0,45.5,M,44.8,M,,0000*67
$GPGSA,A,3,17,27,12,04,09,14,25,15,,,,,1.7,1.0,1.3*3C
$GPRMC,074033.000,A,5230.9859,N,01322.7551,E,2.00,266.92,100912,,,A*60
$GPGGA,074034.000,5230.9860,N,01322.7542,E,1,08,1.0,45.7,M,44.8,M,,0000*6A
$GPGSA,A,3,17,27,12,04,09,14,25,15,,,,,1.7,1.0,1.3*3C
$GPRMC,074034.000,A,5230.9860,N,01322.7542,E,2.06,267.68,100912,,,A*6D
$GPGGA,074035.000,5230.9860,N,01322.7532,E,1,08,1.0,45.9,M,44.8,M,,0000*62
$GPGSA,A,3,17,27,12,04,09,14,25,15,,,,,1.7,1.0,1.3*3C
$GPRMC,074035.000,A,5230.9860,N,01322.7532,E,2.23,268.53,100912,,,A*6B
$GPGGA,074036.000,5230.9861,N,01322.7523,E,1,08,1.0,46.1,M,44.8,M,,0000*6B
$GPGSA,A,3,17,27,12,04,09,14,25,15,,,,,1.7,1.0,1.3*3C
$GPGSV,3,1,10,09,70,130,42,12,63,254,49,27,59,129,40,14,30,310,45*7A
$GPGSV,3,2,10,17,26,047,29,25,23,253,42,15,16,184,37,04,15,096,33*72
$GPGSV,3,3,10,22,06,281,29,02,04,132,22*78
$GPRMC,074036.000,A,5230.9861,N,01322.7523,E,2.18,272.19,100912,,,A*64
$GPGGA,074037.000,5230.9862,N,01322.7513,E,1,08,1.0,46.3,M,44.8,M,,0000*68
$GPGSA,A,3,17,27,12,04,09,14,25,15,,,,,1.7,1.0,1.3*3C
$GPRMC,074037.000,A,5230.9862,N,01322.7513,E,2.11,272.64,100912,,,A*66
$GPGGA,074038.000,5230.9863,N,01322.7504,E,1,08,1.0,46.5,M,44.8,M,,0000*66
$GPGSA,A,3,17,27,12,04,09,14,25,15,,,,,1.7,1.0,1.4*3B
$GPRMC,074038.000,A,5230.9863,N,01322.7504,E,2.04,271.71,100912,,,A*6D
$GPGGA,074039.000,5230.9864,N,01322.7495,E,1,08,1.0,46.6,M,44.8,M,,0000*6A
$GPGSA,A,3,17,27,12,04,09,14,25,15,,,,,1.7,1.0,1.4*3B
$GPRMC,074039.000,A,5230.9864,N,01322.7495,E,2.10,273.69,100912,,,A*6C
$GPGGA,074040.000,5230.9865,N,01322.7486,E,1,08,1.0,46.8,M,44.8,M,,0000*69
$GPGSA,A,3,17,27,12,04,09,14,25,15,,,,,1.7,1.0,1.4*3B
$GPRMC,074040.000,A,5230.9865,N,01322.7486,E,2.06,273.65,100912,,,A*6A
$GPGGA,074041.000,5230.9866,N,01322.7476,E,1,08,1.0,47.0,M,44.8,M,,0000*6D
$GPGSA,A,3,17,27,12,04,09,14,25,15,,,,,1.7,1.0,1.4*3B
$GPGSV,3,1,10,09,70,130,41,12,63,254,49,27,59,129,39,14,30,310,46*74
$GPGSV,3,2,10,17,26,047,27,25,23,253,42,04,15,096,32,15,15,184,38*71
$GPGSV,3,3,10,22,06,280,32,02,04,132,21*70
$GPRMC,074041.000,A,5230.9866,N,01322.7476,E,2.12,273.80,100912,,,A*69
$GPGGA,074042.000,5230.9867,N,01322.7467,E,1,08,1.0,47.1,M,44.8,M,,0000*6E
$GPGSA,A,3,17,27,12,04,09,14,25,15,,,,,1.7,1.0,1.4*3B
$GPRMC,074042.000,A,5230.9867,N,01322.7467,E,2.06,272.32,100912,,,A*66
$GPGGA,074043.000,5230.9868,N,01322.7458,E,1,08,1.0,47.3,M,44.8,M,,0000*6E
$GPGSA,A,3,17,27,12,04,09,14,25,15,,,,,1.7,1.0,1.4*3B
$GPRMC,074043.000,A,5230.9868,N,01322.7458,E,2.10,268.93,100912,,,A*63
$GPGGA,074044.000,5230.9868,N,01322.7448,E,1,08,1.0,47.4,M,44.8,M,,0000*6F
$GPGSA,A,3,17,27,12,04,09,14,25,15,,,,,1.7,1.0,1.4*3B
$GPRMC,074044.000,A,5230.9868,N,01322.7448,E,2.02,263.84,100912,,,A*6B
$GPGGA,074045.000,5230.9867,N,01322.7440,E,1,07,1.2,47.5,M,44.8,M,,0000*65
$GPGSA,A,3,27,12,04,09,14,25,15,,,,,,1.8,1.2,1.4*30
$GPRMC,074045.000,A,5230.9867,N,01322.7440,E,1.99,260.04,100912,,,A*67
$GPGGA,074046.000,5230.9867,N,01322.7431,E,1,08,1.0,47.7,M,44.8,M,,0000*6F
$GPGSA,A,3,17,27,12,04,09,14,25,15,,,,,1.7,1.0,1.4*3B
$GPGSV,3,1,10,09,70,130,41,12,63,254,49,27,59,129,38,14,30,310,46*75
$GPGSV,3,2,10,17,26,047,34,25,23,253,42,04,15,096,33,15,15,184,38*72
$GPGSV,3,3,10,22,06,280,33,02,04,132,22*72
$GPRMC,074046.000,A,5230.9867,N,01322.7431,E,1.94,257.44,100912,,,A*6F
$GPGGA,074047.000,5230.9866,N,01322.7422,E,1,08,1.0,47.9,M,44.8,M,,0000*63
$GPGSA,A,3,17,27,12,04,09,14,25,15,,,,,1.7,1.0,1.4*3B
$GPRMC,074047.000,A,5230.9866,N,01322.7422,E,2.03,260.19,100912,,,A*6C
$GPGGA,074048.000,5230.9866,N,01322.7412,E,1,08,1.0,48.0,M,44.8,M,,0000*69
$GPGSA,A,3,17,27,12,04,09,14,25,15,,,,,1.7,1.0,1.4*3B
$GPRMC,074048.000,A,5230.9866,N,01322.7412,E,2.08,261.62,100912,,,A*66
$GPGGA,074049.000,5230.9866,N,01322.7403,E,1,08,1.0,48.2,M,44.8,M,,0000*6A
$GPGSA,A,3,17,27,12,04,09,14,25,15,,,,,1.7,1.0,1.4*3B
$GPRMC,074049.000,A,5230.9866,N,01322.7403,E,2.06,267.43,100912,,,A*6C
$GPGGA,074050.000,5230.9867,N,01322.7392,E,1,08,1.0,48.3,M,44.8,M,,0000*6D
$GPGSA,A,3,17,27,12,04,09,14,25,15,,,,,1.7,1.0,1.4*3B
$GPRMC,074050.000,A,5230.9867,N,01322.7392,E,2.15,274.30,100912,,,A*6E
$GPGGA,074051.000,5230.9868,N,01322.7383,E,1,08,1.0,48.4,M,44.8,M,,0000*64
$GPGSA,A,3,17,27,12,04,09,14,25,15,,,,,1.7,1.0,1.4*3B
$GPGSV,3,1,10,09,70,130,41,12,63,254,49,27,59,129,38,14,30,310,46*75
$GPGSV,3,2,10,17,26,047,36,25,23,253,42,04,15,096,33,15,15,184,38*70
$GPGSV,3,3,10,22,06,280,33,02,04,132,23*73
$GPRMC,074051.000,A,5230.9868,N,01322.7383,E,2.08,274.28,100912,,,A*65
$GPGGA,074052.000,5230.9868,N,01322.7373,E,1,08,1.0,48.5,M,44.8,M,,0000*69
$GPGSA,A,3,17,27,12,04,09,14,25,15,,,,,1.7,1.0,1.4*3B
$GPRMC,074052.000,A,5230.9868,N,01322.7373,E,2.12,273.18,100912,,,A*66
$GPGGA,074053.000,5230.9869,N,01322.7363,E,1,08,1.0,48.6,M,44.8,M,,0000*6B
$GPGSA,A,3,17,27,12,04,09,14,25,15,,,,,1.7,1.0,1.4*3B
$GPRMC,074053.000,A,5230.9869,N,01322.7363,E,2.13,274.91,100912,,,A*60
$GPGGA,074054.000,5230.9869,N,01322.7352,E,1,08,1.0,48.8,M,44.8,M,,0000*60
$GPGSA,A,3,17,27,12,04,09,14,25,15,,,,,1.7,1.0,1.4*3B
$GPRMC,074054.000,A,5230.9869,N,01322.7352,E,2.12,269.48,100912,,,A*6C
$GPGGA,074055.000,5230.9869,N,01322.7342,E,1,08,1.0,48.9,M,44.8,M,,0000*61
$GPGSA,A,3,17,27,12,04,09,14,25,15,,,,,1.7,1.0,1.4*3B
$GPRMC,074055.000,A,5230.9869,N,01322.7342,E,2.11,270.16,100912,,,A*6C
$GPGGA,074056.000,5230.9869,N,01322.7332,E,1,08,1.0,48.9,M,44.8,M,,0000*65
$GPGSA,A,3,17,27,12,04,09,14,25,15,,,,,1.7,1.0,1.4*3B
$GPGSV,3,1,10,09,70,130,41,12,63,254,49,27,59,129,37,14,30,310,46*7A
$GPGSV,3,2,10,17,26,047,36,25,23,253,42,04,15,096,32,15,15,184,39*70
$GPGSV,3,3,10,22,06,280,29,02,04,132,23*78
$GPRMC,074056.000,A,5230.9869,N,01322.7332,E,2.15,267.63,100912,,,A*68
$GPGGA,074057.000,5230.9869,N,01322.7322,E,1,08,1.0,49.0,M,44.8,M,,0000*6D
$GPGSA,A,3,17,27,12,04,09,14,25,15,,,,,1.7,1.0,1.4*3B
$GPRMC,074057.000,A,5230.9869,N,01322.7322,E,2.14,263.41,100912,,,A*6D
$GPGGA,074058.000,5230.9868,N,01322.7312,E,1,08,1.0,49.1,M,44.8,M,,0000*61
$GPGSA,A,3,17,27,12,04,09,14,25,15,,,,,1.7,1.0,1.4*3B
$GPRMC,074058.000,A,5230.9868,N,01322.7312,E,2.21,263.45,100912,,,A*62
$GPGGA,074059.000,5230.9867,N,01322.7301,E,1,08,1.0,49.1,M,44.8,M,,0000*6D
$GPGSA,A,3,17,27,12,04,09,14,25,15,,,,,1.7,1.0,1.4*3B
$GPRMC,074059.000,A,5230.9867,N,01322.7301,E,2.14,261.51,100912,,,A*6F
$GPGGA,074100.000,5230.9866,N,01322.7291,E,1,08,1.0,49.2,M,44.8,M,,0000*6A
$GPGSA,A,3,17,27,12,04,09,14,25,15,,,,,1.7,1.0,1.4*3B
$GPRMC,074100.000,A,5230.9866,N,01322.7291,E,2.14,260.82,100912,,,A*64
$GPGGA,074101.000,5230.9865,N,01322.7282,E,1,08,1.0,49.3,M,44.8,M,,0000*6B
$GPGSA,A,3,17,27,12,04,09,14,25,15,,,,,1.7,1.0,1.4*3B
$GPGSV,3,1,10,09,70,130,41,12,63,254,49,27,59,129,37,14,30,310,46*7A
$GPGSV,3,2,10,17,26,047,36,25,23,253,42,04,15,096,39,15,15,184,39*7B
$GPGSV,3,3,10,22,06,280,35,02,04,132,23*75
$GPRMC,074101.000,A,5230.9865,N,01322.7282,E,2.06,256.61,100912,,,A*6F
$GPGGA,074102.000,5230.9863,N,01322.7272,E,1,08,1.0,49.4,M,44.8,M,,0000*66
$GPGSA,A,3,17,27,12,04,09,14,25,15,,,,,1.7,1.0,1.4*3B
$GPRMC,074102.000,A,5230.9863,N,01322.7272,E,2.06,254.81,100912,,,A*69
$GPGGA,074103.000,5230.9862,N,01322.7262,E,1,08,1.0,49.5,M,44.8,M,,0000*66
$GPGSA,A,3,17,27,12,04,09,14,25,15,,,,,1.7,1.0,1.4*3B
$GPRMC,074103.000,A,5230.9862,N,01322.7262,E,2.16,257.68,100912,,,A*6D
$GPGGA,074104.000,5230.9861,N,01322.7252,E,1,08,1.0,49.5,M,44.8,M,,0000*61
$GPGSA,A,3,17,27,12,04,09,14,25,15,,,,,1.7,1.0,1.4*3B
$GPRMC,074104.000,A,5230.9861,N,01322.7252,E,2.20,259.77,100912,,,A*6F
$GPGGA,074105.000,5230.9860,N,01322.7241,E,1,08,1.0,49.5,M,44.8,M,,0000*63
$GPGSA,A,3,17,27,12,04,09,14,25,15,,,,,1.7,1.0,1.4*3B
$GPRMC,074105.000,A,5230.9860,N,01322.7241,E,2.20,262.46,100912,,,A*67
$GPGGA,074106.000,5230.9859,N,01322.7231,E,1,08,1.0,49.6,M,44.8,M,,0000*6E
$GPGSA,A,3,17,27,12,04,09,14,25,15,,,,,1.7,1.0,1.4*3B
$GPGSV,3,1,10,09,70,130,41,12,63,254,48,27,59,129,37,14,30,310,45*78
$GPGSV,3,2,10,17,26,047,35,25,23,253,41,04,15,096,37,15,15,184,37*7B
$GPGSV,3,3,10,22,06,280,33,02,04,132,24*74
$GPRMC,074106.000,A,5230.9859,N,01322.7231,E,2.19,263.71,100912,,,A*66
$GPGGA,074107.000,5230.9858,N,01322.7220,E,1,08,1.0,49.5,M,44.8,M,,0000*6D
$GPGSA,A,3,17,27,12,04,09,14,25,15,,,,,1.7,1.0,1.4*3B
$GPRMC,074107.000,A,5230.9858,N,01322.7220,E,2.31,264.77,100912,,,A*6D
$GPGGA,074108.000,5230.9857,N,01322.7209,E,1,08,1.0,49.5,M,44.8,M,,0000*66
$GPGSA,A,3,17,27,12,04,09,14,25,15,,,,,1.7,1.0,1.4*3B
$GPRMC,074108.000,A,5230.9857,N,01322.7209,E,2.31,266.09,100912,,,A*6D
$GPGGA,074109.000,5230.9856,N,01322.7198,E,1,08,1.0,49.5,M,44.8,M,,0000*6D
$GPGSA,A,3,17,27,12,04,09,14,25,15,,,,,1.7,1.0,1.4*3B
$GPRMC,074109.000,A,5230.9856,N,01322.7198,E,2.35,266.60,100912,,,A*6D
$GPGGA,074110.000,5230.9855,N,01322.7188,E,1,08,1.0,49.4,M,44.8,M,,0000*66
$GPGSA,A,3,17,27,12,04,09,14,25,15,,,,,1.7,1.0,1.4*3B
$GPRMC,074110.000,A,5230.9855,N,01322.7188,E,2.28,264.81,100912,,,A*66
$GPGGA,074111.000,5230.9855,N,01322.7177,E,1,08,1.0,49.5,M,44.8,M,,0000*66
$GPGSA,A,3,17,27,12,04,09,14,25,15,,,,,1.7,1.0,1.4*3B
$GPGSV,3,1,10,09,69,130,42,12,63,254,48,27,59,129,37,14,31,309,45*7A
$GPGSV,3,2,10,17,26,047,36,25,23,253,41,04,16,096,36,15,15,184,41*7B
$GPGSV,3,3,10,22,06,280,33,02,04,132,24*74
$GPRMC,074111.000,A,5230.9855,N,01322.7177,E,2.28,264.08,100912,,,A*66
$GPGGA,074112.000,5230.9854,N,01322.7167,E,1,08,1.0,49.4,M,44.8,M,,0000*64
$GPGSA,A,3,17,27,12,04,09,14,25,15,,,,,1.7,1.0,1.4*3B
$GPRMC,074112.000,A,5230.9854,N,01322.7167,E,2.15,263.74,100912,,,A*67
$GPGGA,074113.000,5230.9853,N,01322.7156,E,1,08,1.0,49.4,M,44.8,M,,0000*60
$GPGSA,A,3,17,27,12,04,09,14,25,15,,,,,1.7,1.0,1.4*3B
$GPRMC,074113.000,A,5230.9853,N,01322.7156,E,2.36,262.12,100912,,,A*63
$GPGGA,074114.000,5230.9852,N,01322.7145,E,1,08,1.0,49.4,M,44.8,M,,0000*64
$GPGSA,A,3,17,27,12,04,09,14,25,15,,,,,1.7,1.0,1.4*3B
$GPRMC,074114.000,A,5230.9852,N,01322.7145,E,2.24,265.36,100912,,,A*65
$GPGGA,074115.000,5230.9851,N,01322.7135,E,1,08,1.0,49.4,M,44.8,M,,0000*61
$GPGSA,A,3,17,27,12,04,09,14,25,15,,,,,1.7,1.0,1.4*3B
$GPRMC,074115.000,A,5230.9851,N,01322.7135,E,2.20,262.99,100912,,,A*66
$GPGGA,074116.000,5230.9851,N,01322.7124,E,1,08,1.0,49.3,M,44.8,M,,0000*65
$GPGSA,A,3,17,27,12,04,09,14,25,15,,,,,1.7,1.0,1.4*3B
$GPGSV,3,1,10,09,69,130,42,12,63,254,48,27,59,129,38,14,31,309,45*75
$GPGSV,3,2,10,17,26,047,35,25,23,253,41,04,16,096,35,15,15,184,39*74
$GPGSV,3,3,10,22,06,280,28,02,05,132,23*78
$GPRMC,074116.000,A,5230.9851,N,01322.7124,E,2.31,274.06,100912,,,A*64
$GPGGA,074117.000,5230.9852,N,01322.7113,E,1,08,1.0,49.3,M,44.8,M,,0000*63
$GPGSA,A,3,17,27,12,04,09,14,25,15,,,,,1.7,1.0,1.4*3B
$GPRMC,074117.000,A,5230.9852,N,01322.7113,E,2.46,278.07,100912,,,A*6F
$GPGGA,074118.000,5230.9853,N,01322.7101,E,1,07,1.1,49.4,M,44.8,M,,0000*67
$GPGSA,A,3,17,27,12,09,14,25,15,,,,,,1.9,1.1,1.5*31
$GPRMC,074118.000,A,5230.9853,N,01322.7101,E,2.48,280.23,100912,,,A*6D
$GPGGA,074119.000,5230.9854,N,01322.7089,E,1,07,1.1,49.4,M,44.8,M,,0000*60
$GPGSA,A,3,17,27,12,09,14,25,15,,,,,,1.9,1.1,1.5*31
$GPRMC,074119.000,A,5230.9854,N,01322.7089,E,2.50,275.55,100912,,,A*68
$GPGGA,074120.000,5230.9855,N,01322.7078,E,1,08,1.0,49.4,M,44.8,M,,0000*6B
$GPGSA,A,3,17,27,12,04,09,14,25,15,,,,,1.7,1.0,1.4*3B
$GPRMC,074120.000,A,5230.9855,N,01322.7078,E,2.44,275.41,100912,,,A*6D
$GPGGA,074121.000,5230.9855,N,01322.7067,E,1,08,1.0,49.4,M,44.8,M,,0000*64
$GPGSA,A,3,17,27,12,04,09,14,25,15,,,,,1.7,1.0,1.4*3B
$GPGSV,3,1,10,09,69,130,42,12,63,254,48,27,59,129,37,14,31,309,46*79
$GPGSV,3,2,10,17,26,047,36,25,23,253,35,04,16,096,34,15,15,184,39*75
$GPGSV,3,3,10,22,06,280,27,02,05,132,23*77
$GPRMC,074121.000,A,5230.9855,N,01322.7067,E,2.24,269.53,100912,,,A*6A
$GPGGA,074122.000,5230.9855,N,01322.7057,E,1,08,1.0,49.5,M,44.8,M,,0000*65
$GPGSA,A,3,17,27,12,04,09,14,25,15,,,,,1.7,1.0,1.4*3B
$GPRMC,074122.000,A,5230.9855,N,01322.7057,E,2.11,266.23,100912,,,A*64
$GPGGA,074123.000,5230.9854,N,01322.7047,E,1,08,1.0,49.6,M,44.8,M,,0000*67
$GPGSA,A,3,17,27,12,04,09,14,25,15,,,,,1.7,1.0,1.4*3B
$GPRMC,074123.000,A,5230.9854,N,01322.7047,E,2.12,264.00,100912,,,A*65
$GPGGA,074124.000,5230.9854,N,01322.7037,E,1,08,1.0,49.7,M,44.8,M,,0000*66
$GPGSA,A,3,17,27,12,04,09,14,25,15,,,,,1.7,1.0,1.4*3B
$GPRMC,074124.000,A,5230.9854,N,01322.7037,E,2.11,262.89,100912,,,A*61
$GPGGA,074125.000,5230.9853,N,01322.7027,E,1,08,1.0,49.8,M,44.8,M,,0000*6E
$GPGSA,A,3,17,27,12,04,09,14,25,15,,,,,1.7,1.0,1.4*3B
$GPRMC,074125.000,A,5230.9853,N,01322.7027,E,2.12,261.66,100912,,,A*67
$GPGGA,074126.000,5230.9852,N,01322.7018,E,1,08,1.0,49.8,M,44.8,M,,0000*60
$GPGSA,A,3,17,27,12,04,09,14,25,15,,,,,1.7,1.0,1.4*3B
$GPGSV,3,1,10,09,69,130,42,12,63,254,48,27,59,129,38,14,31,309,45*75
$GPGSV,3,2,10,17,26,047,36,25,23,253,27,04,16,096,34,15,15,184,34*7B
$GPGSV,3,3,10,22,06,280,30,02,05,132,24*76
$GPRMC,074126.000,A,5230.9852,N,01322.7018,E,1.86,261.58,100912,,,A*6A
$GPGGA,074127.000,5230.9852,N,01322.7011,E,1,08,1.0,49.9,M,44.8,M,,0000*69
$GPGSA,A,3,17,27,12,04,09,14,25,15,,,,,1.7,1.0,1.4*3B
$GPRMC,074127.000,A,5230.9852,N,01322.7011,E,1.52,260.97,100912,,,A*69
$GPGGA,074128.000,5230.9852,N,01322.7005,E,1,08,1.0,50.0,M,44.8,M,,0000*62
$GPGSA,A,3,17,27,12,04,09,14,25,15,,,,,1.7,1.0,1.4*3B
$GPRMC,074128.000,A,5230.9852,N,01322.7005,E,1.21,267.70,100912,,,A*69
$GPGGA,074129.000,5230.9851,N,01322.6998,E,1,08,1.0,50.0,M,44.8,M,,0000*6C
$GPGSA,A,3,17,27,12,04,09,14,25,15,,,,,1.7,1.0,1.4*3B
$GPRMC,074129.000,A,5230.9851,N,01322.6998,E,1.52,257.70,100912,,,A*60
$GPGGA,074130.000,5230.9850,N,01322.6991,E,1,08,1.0,50.1,M,44.8,M,,0000*6D
$GPGSA,A,3,17,27,12,04,09,14,25,15,,,,,1.7,1.0,1.4*3B
$GPRMC,074130.000,A,5230.9850,N,01322.6991,E,1.69,257.69,100912,,,A*60
$GPGGA,074131.000,5230.9849,N,01322.6983,E,1,08,1.0,50.1,M,44.8,M,,0000*67
$GPGSA,A,3,17,27,12,04,09,14,25,15,,,,,1.7,1.0,1.4*3B
$GPGSV,3,1,10,09,69,130,42,12,63,254,48,27,59,129,39,14,31,309,44*75
$GPGSV,3,2,10,17,26,047,32,25,23,253,25,04,16,096,37,15,15,184,33*79
$GPGSV,3,3,10,22,06,280,30,02,05,132,24*76
$GPRMC,074131.000,A,5230.9849,N,01322.6983,E,1.68,256.42,100912,,,A*63
$GPGGA,074132.000,5230.9847,N,01322.6975,E,1,08,1.0,50.2,M,44.8,M,,0000*60
$GPGSA,A,3,17,27,12,04,09,14,25,15,,,,,1.7,1.0,1.4*3B
$GPRMC,074132.000,A,5230.9847,N,01322.6975,E,1.89,253.30,100912,,,A*68
$GPGGA,074133.000,5230.9847,N,01322.6966,E,1,08,1.0,50.3,M,44.8,M,,0000*62
$GPGSA,A,3,17,27,12,04,09,14,25,15,,,,,1.7,1.0,1.4*3B
$GPRMC,074133.000,A,5230.9847,N,01322.6966,E,2.04,267.59,100912,,,A*65
$GPGGA,074134.000,5230.9847,N,01322.6956,E,1,07,1.3,50.3,M,44.8,M,,0000*6A
$GPGSA,A,3,17,27,12,04,09,14,25,,,,,,2.1,1.3,1.6*3B
$GPRMC,074134.000,A,5230.9847,N,01322.6956,E,2.04,273.36,100912,,,A*6D
$GPGGA,074135.000,5230.9848,N,01322.6948,E,1,07,1.1,50.2,M,44.8,M,,0000*68
$GPGSA,A,3,17,27,12,09,14,25,15,,,,,,1.9,1.1,1.5*31
$GPRMC,074135.000,A,5230.9848,N,01322.6948,E,1.92,275.26,100912,,,A*67
$GPGGA,074136.000,5230.9848,N,01322.6938,E,1,06,1.2,50.1,M,44.8,M,,0000*6D
$GPGSA,A,3,17,27,12,09,14,15,,,,,,,2.0,1.2,1.6*3C
$GPGSV,3,1,10,09,69,130,42,12,63,254,48,27,59,129,38,14,31,309,43*73
$GPGSV,3,2,10,17,26,047,39,25,23,253,,04,16,096,,15,15,184,38*7A
$GPGSV,3,3,10,22,06,280,33,02,05,132,26*77
$GPRMC,074136.000,A,5230.9848,N,01322.6938,E,2.06,274.18,100912,,,A*61
$GPGGA,074137.000,5230.9848,N,01322.6928,E,1,08,1.0,50.0,M,44.8,M,,0000*60
$GPGSA,A,3,17,27,12,25,09,14,04,15,,,,,1.7,1.0,1.4*3B
$GPRMC,074137.000,A,5230.9848,N,01322.6928,E,2.18,270.29,100912,,,A*68
$GPGGA,074138.000,5230.9848,N,01322.6918,E,1,08,1.0,50.0,M,44.8,M,,0000*6C
$GPGSA,A,3,17,27,12,25,09,14,04,15,,,,,1.7,1.0,1.4*3B
$GPRMC,074138.000,A,5230.9848,N,01322.6918,E,2.20,269.42,100912,,,A*6A
$GPGGA,074139.000,5230.9848,N,01322.6908,E,1,08,1.0,49.9,M,44.8,M,,0000*6D
$GPGSA,A,3,17,27,12,25,09,14,04,15,,,,,1.7,1.0,1.4*3B
$GPRMC,074139.000,A,5230.9848,N,01322.6908,E,2.17,271.12,100912,,,A*62
$GPGGA,074140.000,5230.9847,N,01322.6899,E,1,07,1.3,49.8,M,44.8,M,,0000*68
$GPGSA,A,3,17,27,12,25,09,14,04,,,,,,2.1,1.3,1.6*3B
$GPRMC,074140.000,A,5230.9847,N,01322.6899,E,2.05,265.78,100912,,,A*60
$GPGGA,074141.000,5230.9848,N,01322.6890,E,1,07,1.3,49.7,M,44.8,M,,0000*60
$GPGSA,A,3,17,27,12,25,09,14,04,,,,,,2.1,1.3,1.6*3B
$GPGSV,3,1,10,09,69,130,42,12,64,255,48,27,59,130,38,14,31,309,44*7A
$GPGSV,3,2,10,17,26,047,37,25,24,253,31,04,16,096,34,15,15,184,*7D
$GPGSV,3,3,10,22,06,280,31,02,05,132,26*75
$GPRMC,074141.000,A,5230.9848,N,01322.6890,E,2.08,280.87,100912,,,A*61
$GPGGA,074142.000,5230.9847,N,01322.6881,E,1,08,1.0,49.5,M,44.8,M,,0000*62
$GPGSA,A,3,17,27,12,25,09,14,04,15,,,,,1.7,1.0,1.4*3B
$GPRMC,074142.000,A,5230.9847,N,01322.6881,E,1.85,265.92,100912,,,A*64
$GPGGA,074143.000,5230.9846,N,01322.6873,E,1,08,1.0,49.3,M,44.8,M,,0000*69
$GPGSA,A,3,17,27,12,25,09,14,04,15,,,,,1.7,1.0,1.4*3B
$GPRMC,074143.000,A,5230.9846,N,01322.6873,E,1.84,263.12,100912,,,A*66
