$GPRMC,064423.000,A,5229.6235,N,01319.4643,E,1.20,71.38,110912,,,A*5C
$GPGGA,064424.000,5229.6237,N,01319.4650,E,1,06,1.5,44.7,M,44.8,M,,0000*60
$GPGSA,A,3,14,22,27,09,17,15,,,,,,,2.4,1.5,1.9*33
$GPRMC,064424.000,A,5229.6237,N,01319.4650,E,1.62,71.31,110912,,,A*54
$GPGGA,064425.000,5229.6239,N,01319.4659,E,1,06,1.5,44.8,M,44.8,M,,0000*69
$GPGSA,A,3,14,22,27,09,17,15,,,,,,,2.4,1.5,1.9*33
$GPRMC,064425.000,A,5229.6239,N,01319.4659,E,2.09,71.41,110912,,,A*5B
$GPGGA,064426.000,5229.6241,N,01319.4669,E,1,06,1.5,44.6,M,44.8,M,,0000*68
$GPGSA,A,3,14,22,27,09,17,15,,,,,,,2.4,1.5,1.9*33
$GPGSV,3,1,12,09,83,303,19,27,82,105,13,17,41,066,13,12,40,238,*74
$GPGSV,3,2,12,15,39,188,28,22,15,300,31,14,12,320,37,18,12,261,20*75
$GPGSV,3,3,12,28,12,060,,26,09,160,,01,06,016,22,25,03,241,*7C
$GPRMC,064426.000,A,5229.6241,N,01319.4669,E,2.22,73.07,110912,,,A*5D
$GPGGA,064427.000,5229.6243,N,01319.4681,E,1,05,4.2,44.2,M,44.8,M,,0000*68
$GPGSA,A,3,14,22,27,09,15,,,,,,,,5.5,4.2,3.6*3C
$GPRMC,064427.000,A,5229.6243,N,01319.4681,E,2.55,75.75,110912,,,A*5B
$GPGGA,064428.000,5229.6245,N,01319.4694,E,1,05,4.2,43.6,M,44.8,M,,0000*66
$GPGSA,A,3,14,22,27,09,15,,,,,,,,5.5,4.2,3.6*3C
$GPRMC,064428.000,A,5229.6245,N,01319.4694,E,2.82,75.21,110912,,,A*5D
$GPGGA,064429.000,5229.6247,N,01319.4708,E,1,05,4.2,43.1,M,44.8,M,,0000*66
$GPGSA,A,3,14,22,27,09,15,,,,,,,,5.5,4.2,3.6*3C
$GPRMC,064429.000,A,5229.6247,N,01319.4708,E,3.04,74.33,110912,,,A*57
$GPGGA,064430.000,5229.6250,N,01319.4723,E,1,06,1.5,42.5,M,44.8,M,,0000*65
$GPGSA,A,3,14,22,27,09,17,15,,,,,,,2.4,1.5,1.9*33
$GPRMC,064430.000,A,5229.6250,N,01319.4723,E,3.34,73.90,110912,,,A*5D
$GPGGA,064431.000,5229.6253,N,01319.4739,E,1,06,1.5,41.9,M,44.8,M,,0000*63
$GPGSA,A,3,14,22,27,09,17,15,,,,,,,2.4,1.5,1.9*33
$GPGSV,3,1,12,09,83,303,17,27,82,105,17,17,41,066,12,12,40,238,*7F
$GPGSV,3,2,12,15,39,188,27,22,15,300,30,14,12,320,34,18,12,261,21*79
$GPGSV,3,3,12,28,12,060,,26,09,160,,01,06,016,22,25,03,241,*7C
$GPRMC,064431.000,A,5229.6253,N,01319.4739,E,3.46,71.78,110912,,,A*55
$GPGGA,064432.000,5229.6255,N,01319.4750,E,1,06,1.5,41.5,M,44.8,M,,0000*65
$GPGSA,A,3,14,22,27,09,17,15,,,,,,,2.4,1.5,1.9*33
$GPRMC,064432.000,A,5229.6255,N,01319.4750,E,2.76,72.36,110912,,,A*54
$GPGGA,064433.000,5229.6256,N,01319.4757,E,1,06,1.5,41.1,M,44.8,M,,0000*64
$GPGSA,A,3,14,22,27,09,17,15,,,,,,,2.4,1.5,1.9*33
$GPRMC,064433.000,A,5229.6256,N,01319.4757,E,1.54,74.66,110912,,,A*51
$GPGGA,064434.000,5229.6255,N,01319.4753,E,1,06,1.5,41.0,M,44.8,M,,0000*65
$GPGSA,A,3,14,22,27,09,17,15,,,,,,,2.4,1.5,1.9*33
$GPRMC,064549.000,A,5229.6248,N,01319.4656,E,0.84,75.89,110912,,,A*5E
$GPGGA,064550.000,5229.6250,N,01319.4665,E,1,06,1.5,51.7,M,44.8,M,,0000*61
$GPGSA,A,3,14,22,27,09,17,15,,,,,,,2.4,1.5,1.9*33
$GPRMC,064550.000,A,5229.6250,N,01319.4665,E,0.82,79.91,110912,,,A*5C
$GPGGA,064551.000,5229.6251,N,01319.4672,E,1,06,1.5,51.2,M,44.8,M,,0000*62
$GPGSA,A,3,14,22,27,09,17,15,,,,,,,2.4,1.5,1.9*33
$GPGSV,3,1,12,09,84,304,30,27,82,107,25,17,40,066,23,12,40,238,*7A
$GPGSV,3,2,12,15,38,188,28,22,15,299,32,14,13,320,33,18,12,260,*70
$GPGSV,3,3,12,28,11,060,18,26,09,160,,01,06,016,19,25,04,241,*79
$GPRMC,064552.000,A,5229.6252,N,01319.4682,E,0.85,84.61,110912,,,A*5F
$GPGGA,064553.000,5229.6255,N,01319.4694,E,1,06,1.5,49.7,M,44.8,M,,0000*60
$GPGSA,A,3,14,22,27,09,17,15,,,,,,,2.4,1.5,1.9*33
$GPRMC,064553.000,A,5229.6255,N,01319.4694,E,1.50,78.21,110912,,,A*50
$GPGGA,064554.000,5229.6256,N,01319.4705,E,1,06,1.5,48.8,M,44.8,M,,0000*63
$GPGSA,A,3,14,22,27,09,17,15,,,,,,,2.4,1.5,1.9*33
$GPRMC,064554.000,A,5229.6256,N,01319.4705,E,1.02,86.65,110912,,,A*5B
$GPGGA,064555.000,5229.6256,N,01319.4712,E,1,06,1.5,48.1,M,44.8,M,,0000*6D
$GPGSA,A,3,14,22,27,09,17,15,,,,,,,2.4,1.5,1.9*33
$GPRMC,064624.000,A,5229.6253,N,01319.4736,E,0.97,221.82,110912,,,A*61
$GPGGA,064625.000,5229.6250,N,01319.4730,E,1,06,1.5,44.2,M,44.8,M,,0000*60
$GPGSA,A,3,14,22,27,09,17,15,,,,,,,2.4,1.5,1.9*33
$GPRMC,064625.000,A,5229.6250,N,01319.4730,E,1.45,230.40,110912,,,A*65
$GPGGA,064626.000,5229.6247,N,01319.4724,E,1,06,1.5,44.1,M,44.8,M,,0000*63
$GPGSA,A,3,14,22,27,09,17,15,,,,,,,2.4,1.5,1.9*33
$GPGSV,3,1,12,09,84,304,30,27,82,107,29,12,40,238,,17,40,065,14*71
$GPGSV,3,2,12,15,38,188,27,22,15,299,33,14,13,320,33,18,12,260,*7E
$GPGSV,3,3,12,28,11,060,17,26,09,160,,01,06,015,21,25,04,242,*7D
$GPRMC,064626.000,A,5229.6247,N,01319.4724,E,1.49,233.66,110912,,,A*6E
$GPGGA,064627.000,5229.6244,N,01319.4718,E,1,06,1.5,44.1,M,44.8,M,,0000*6E
$GPGSA,A,3,14,22,27,09,17,15,,,,,,,2.4,1.5,1.9*33
$GPRMC,064627.000,A,5229.6244,N,01319.4718,E,1.32,233.92,110912,,,A*64
$GPGGA,064628.000,5229.6241,N,01319.4712,E,1,06,1.5,44.2,M,44.8,M,,0000*6D
$GPGSA,A,3,14,22,27,09,17,15,,,,,,,2.4,1.5,1.9*33
$GPRMC,064628.000,A,5229.6241,N,01319.4712,E,1.09,236.59,110912,,,A*6E
$GPGGA,064629.000,5229.6239,N,01319.4707,E,1,06,1.5,44.3,M,44.8,M,,0000*66
$GPGSA,A,3,14,22,27,09,17,15,,,,,,,2.4,1.5,1.9*33
$GPRMC,064646.000,A,5229.6250,N,01319.4664,E,0.95,59.04,110912,,,A*51
$GPGGA,064647.000,5229.6252,N,01319.4668,E,1,05,4.2,52.9,M,44.8,M,,0000*67
$GPGSA,A,3,14,22,27,09,15,,,,,,,,5.6,4.2,3.7*3E
$GPRMC,064647.000,A,5229.6252,N,01319.4668,E,1.05,64.19,110912,,,A*54
$GPGGA,064648.000,5229.6253,N,01319.4671,E,1,05,4.2,52.8,M,44.8,M,,0000*60
$GPGSA,A,3,14,22,27,09,15,,,,,,,,5.6,4.2,3.7*3E
$GPRMC,064653.000,A,5229.6252,N,01319.4662,E,0.95,235.14,110912,,,A*68
$GPGGA,064654.000,5229.6252,N,01319.4661,E,1,05,4.2,52.3,M,44.8,M,,0000*66
$GPGSA,A,3,14,22,27,09,15,,,,,,,,5.6,4.2,3.7*3E
$GPRMC,064715.000,A,5229.6250,N,01319.4646,E,1.19,244.74,110912,,,A*6A
$GPGGA,064716.000,5229.6248,N,01319.4638,E,1,06,1.5,52.9,M,44.8,M,,0000*6D
$GPGSA,A,3,14,22,27,09,17,15,,,,,,,2.4,1.5,1.9*33
$GPGSV,3,1,12,09,84,304,32,27,82,107,30,12,40,238,,17,40,065,20*7C
$GPGSV,3,2,12,15,38,188,27,22,15,299,32,14,13,320,34,18,12,260,*78
$GPGSV,3,3,12,28,11,060,15,26,09,160,,01,06,015,21,25,04,242,*7F
$GPRMC,064716.000,A,5229.6248,N,01319.4638,E,1.49,243.37,110912,,,A*6C
$GPGGA,064717.000,5229.6247,N,01319.4633,E,1,06,1.5,53.4,M,44.8,M,,0000*64
$GPGSA,A,3,14,22,27,09,17,15,,,,,,,2.4,1.5,1.9*33
$GPRMC,064752.000,A,5229.6237,N,01319.4615,E,0.84,73.14,110912,,,A*5B
$GPGGA,064753.000,5229.6238,N,01319.4619,E,1,05,4.2,53.9,M,44.8,M,,0000*68
$GPGSA,A,3,14,22,27,09,15,,,,,,,,5.7,4.2,3.8*30
$GPRMC,064824.000,A,5229.6229,N,01319.4599,E,0.96,78.16,110912,,,A*57
$GPGGA,064825.000,5229.6230,N,01319.4606,E,1,06,1.5,54.2,M,44.8,M,,0000*6D
$GPGSA,A,3,14,22,27,09,17,15,,,,,,,2.4,1.5,1.9*33
$GPRMC,064825.000,A,5229.6230,N,01319.4606,E,0.94,80.97,110912,,,A*57
$GPGGA,064826.000,5229.6231,N,01319.4612,E,1,06,1.5,53.5,M,44.8,M,,0000*6A
$GPGSA,A,3,14,22,27,09,17,15,,,,,,,2.4,1.5,1.9*33
$GPGSV,3,1,12,09,85,306,31,27,81,109,32,12,41,239,,17,40,064,22*70
$GPGSV,3,2,12,15,37,188,27,22,14,298,30,14,14,320,36,18,11,259,19*71
$GPGSV,3,3,12,28,11,061,18,26,08,160,,01,05,015,17,25,05,242,*75
$GPRMC,064827.000,A,5229.6232,N,01319.4620,E,1.15,81.57,110912,,,A*56
$GPGGA,064828.000,5229.6233,N,01319.4628,E,1,06,1.4,52.0,M,44.8,M,,0000*6A
$GPGSA,A,3,14,22,27,09,17,15,,,,,,,2.4,1.4,1.9*32
$GPRMC,064828.000,A,5229.6233,N,01319.4628,E,0.90,87.33,110912,,,A*58
$GPGGA,064829.000,5229.6234,N,01319.4633,E,1,06,1.4,51.4,M,44.8,M,,0000*61
$GPGSA,A,3,14,22,27,09,17,15,,,,,,,2.4,1.4,1.9*32
$GPRMC,064841.000,A,5229.6235,N,01319.4630,E,1.00,250.82,110912,,,A*62
$GPGGA,064842.000,5229.6233,N,01319.4619,E,1,06,1.4,52.5,M,44.8,M,,0000*61
$GPGSA,A,3,14,22,27,09,17,15,,,,,,,2.4,1.4,1.9*32
$GPRMC,064842.000,A,5229.6233,N,01319.4619,E,1.20,253.82,110912,,,A*6D
$GPGGA,064843.000,5229.6233,N,01319.4609,E,1,06,1.4,53.6,M,44.8,M,,0000*63
$GPGSA,A,3,14,22,27,09,17,15,,,,,,,2.4,1.4,1.9*32
$GPRMC,064843.000,A,5229.6233,N,01319.4609,E,1.02,259.43,110912,,,A*6A
$GPGGA,064844.000,5229.6232,N,01319.4600,E,1,06,1.4,54.7,M,44.8,M,,0000*6A
$GPGSA,A,3,14,22,27,09,17,15,,,,,,,2.4,1.4,1.9*32
$GPRMC,064845.000,A,5229.6232,N,01319.4591,E,0.87,264.94,110912,,,A*67
$GPGGA,064846.000,5229.6231,N,01319.4581,E,1,06,1.4,57.0,M,44.8,M,,0000*65
$GPGSA,A,3,14,22,27,09,17,15,,,,,,,2.4,1.4,1.9*32
$GPGSV,3,1,12,09,85,306,32,27,81,110,32,12,42,239,,17,40,064,23*79
$GPGSV,3,2,12,15,37,188,27,22,14,298,30,14,14,320,36,18,11,259,19*71
$GPGSV,3,3,12,28,10,061,19,26,08,160,,01,05,015,19,25,05,242,*7B
$GPRMC,064846.000,A,5229.6231,N,01319.4581,E,0.87,268.22,110912,,,A*67
$GPGGA,064847.000,5229.6231,N,01319.4572,E,1,06,1.4,58.1,M,44.8,M,,0000*66
$GPGSA,A,3,14,22,27,09,17,15,,,,,,,2.4,1.4,1.9*32
$GPRMC,064848.000,A,5229.6230,N,01319.4564,E,0.90,264.63,110912,,,A*6C
$GPGGA,064849.000,5229.6230,N,01319.4559,E,1,06,1.4,59.8,M,44.8,M,,0000*68
$GPGSA,A,3,14,22,27,09,17,15,,,,,,,2.4,1.4,1.9*32
$GPRMC,064903.000,A,5229.6231,N,01319.4560,E,0.81,80.58,110912,,,A*57
$GPGGA,064904.000,5229.6232,N,01319.4567,E,1,05,4.2,59.1,M,44.8,M,,0000*66
$GPGSA,A,3,14,22,27,09,15,,,,,,,,5.7,4.2,3.9*31
$GPRMC,064904.000,A,5229.6232,N,01319.4567,E,1.13,78.68,110912,,,A*5A
$GPGGA,064905.000,5229.6233,N,01319.4577,E,1,06,1.4,58.2,M,44.8,M,,0000*65
$GPGSA,A,3,14,22,27,09,17,15,,,,,,,2.4,1.4,1.9*32
$GPRMC,064905.000,A,5229.6233,N,01319.4577,E,1.46,79.34,110912,,,A*53
$GPGGA,064906.000,5229.6234,N,01319.4586,E,1,05,4.2,57.3,M,44.8,M,,0000*61
$GPGSA,A,3,14,22,27,09,15,,,,,,,,5.7,4.2,3.9*31
$GPGSV,3,1,12,09,85,306,32,27,81,110,32,12,42,239,,17,40,064,15*7C
$GPGSV,3,2,12,15,37,188,26,22,14,298,31,14,14,320,36,18,11,259,18*70
$GPGSV,3,3,12,28,10,061,19,26,08,160,,01,05,015,21,25,05,242,*70
$GPRMC,064906.000,A,5229.6234,N,01319.4586,E,1.20,84.99,110912,,,A*5C
$GPGGA,064907.000,5229.6235,N,01319.4594,E,1,05,4.2,56.4,M,44.8,M,,0000*64
$GPGSA,A,3,14,22,27,09,15,,,,,,,,5.7,4.2,3.9*31
$GPRMC,064907.000,A,5229.6235,N,01319.4594,E,1.03,90.40,110912,,,A*5F
$GPGGA,064908.000,5229.6235,N,01319.4601,E,1,05,4.2,55.5,M,44.8,M,,0000*66
$GPGSA,A,3,14,22,27,09,15,,,,,,,,5.7,4.2,3.9*31
$GPRMC,064919.000,A,5229.6230,N,01319.4615,E,0.85,234.40,110912,,,A*6C
$GPGGA,064920.000,5229.6229,N,01319.4609,E,1,06,1.4,52.3,M,44.8,M,,0000*68
$GPGSA,A,3,14,22,27,09,17,15,,,,,,,2.4,1.4,1.9*32
$GPRMC,064920.000,A,5229.6229,N,01319.4609,E,0.92,239.39,110912,,,A*66
$GPGGA,064921.000,5229.6227,N,01319.4600,E,1,06,1.4,52.8,M,44.8,M,,0000*65
$GPGSA,A,3,14,22,27,09,17,15,,,,,,,2.4,1.4,1.9*32
$GPGSV,3,1,12,09,85,307,32,27,80,110,32,12,42,239,,17,40,064,19*70
$GPGSV,3,2,12,15,36,188,27,14,14,320,36,22,14,298,30,18,11,259,18*71
$GPGSV,3,3,12,28,10,061,18,26,07,160,,01,05,014,23,25,05,242,*7D
$GPRMC,064921.000,A,5229.6227,N,01319.4600,E,1.35,241.02,110912,,,A*6B
$GPGGA,064922.000,5229.6225,N,01319.4592,E,1,06,1.4,53.4,M,44.8,M,,0000*61
$GPGSA,A,3,14,22,27,09,17,15,,,,,,,2.4,1.4,1.9*32
$GPRMC,064922.000,A,5229.6225,N,01319.4592,E,1.11,242.89,110912,,,A*64
$GPGGA,064923.000,5229.6223,N,01319.4585,E,1,06,1.4,53.9,M,44.8,M,,0000*6D
$GPGSA,A,3,14,22,27,09,17,15,,,,,,,2.4,1.4,1.9*32
$GPRMC,064932.000,A,5229.6215,N,01319.4573,E,0.89,235.29,110912,,,A*63
$GPGGA,064933.000,5229.6213,N,01319.4570,E,1,05,4.2,54.1,M,44.8,M,,0000*6A
$GPGSA,A,3,14,22,27,09,15,,,,,,,,5.8,4.2,3.9*3E
$GPRMC,064936.000,A,5229.6209,N,01319.4558,E,0.99,242.93,110912,,,A*63
$GPGGA,064937.000,5229.6207,N,01319.4553,E,1,05,4.2,54.8,M,44.8,M,,0000*63
$GPGSA,A,3,14,22,27,09,15,,,,,,,,5.8,4.2,3.9*3E
$GPRMC,064937.000,A,5229.6207,N,01319.4553,E,1.20,242.98,110912,,,A*6F
$GPGGA,064938.000,5229.6206,N,01319.4548,E,1,05,4.2,55.1,M,44.8,M,,0000*6F
$GPGSA,A,3,14,22,27,09,15,,,,,,,,5.8,4.2,3.9*3E
$GPRMC,064938.000,A,5229.6206,N,01319.4548,E,1.01,246.05,110912,,,A*68
$GPGGA,064939.000,5229.6205,N,01319.4544,E,1,05,4.2,55.4,M,44.8,M,,0000*64
$GPGSA,A,3,14,22,27,09,15,,,,,,,,5.8,4.2,3.9*3E
$GPRMC,064939.000,A,5229.6205,N,01319.4544,E,1.01,247.20,110912,,,A*60
$GPGGA,064940.000,5229.6204,N,01319.4539,E,1,05,4.2,55.7,M,44.8,M,,0000*62
$GPGSA,A,3,14,22,27,09,15,,,,,,,,5.8,4.2,3.9*3E
$GPRMC,064940.000,A,5229.6204,N,01319.4539,E,1.08,247.87,110912,,,A*61
$GPGGA,064941.000,5229.6203,N,01319.4536,E,1,05,4.2,56.0,M,44.8,M,,0000*6F
$GPGSA,A,3,14,22,27,09,15,,,,,,,,5.8,4.2,3.9*3E
$GPGSV,3,1,12,09,85,307,32,27,80,110,32,12,42,239,,17,40,064,*78
$GPGSV,3,2,12,15,36,188,27,14,14,319,36,22,14,298,31,18,11,259,19*7B
$GPGSV,3,3,12,28,10,061,17,26,07,160,,25,05,242,,01,05,014,24*75
$GPRMC,065027.000,A,5229.6233,N,01319.4722,E,0.81,77.08,110912,,,A*52
$GPGGA,065028.000,5229.6234,N,01319.4727,E,1,05,4.3,39.3,M,44.8,M,,0000*65
$GPGSA,A,3,14,22,27,09,15,,,,,,,,5.8,4.3,4.0*31
$GPRMC,065029.000,A,5229.6235,N,01319.4733,E,0.91,77.42,110912,,,A*55
$GPGGA,065030.000,5229.6237,N,01319.4740,E,1,05,4.3,38.6,M,44.8,M,,0000*6A
$GPGSA,A,3,14,22,27,09,15,,,,,,,,5.8,4.3,4.0*31
$GPRMC,065030.000,A,5229.6237,N,01319.4740,E,1.13,73.72,110912,,,A*57
$GPGGA,065031.000,5229.6239,N,01319.4746,E,1,05,4.3,38.2,M,44.8,M,,0000*67
$GPGSA,A,3,14,22,27,09,15,,,,,,,,5.8,4.3,4.0*31
$GPGSV,3,1,12,09,86,308,33,27,80,111,32,12,42,239,,17,40,063,13*71
$GPGSV,3,2,12,15,36,188,27,14,15,319,37,22,14,298,32,18,11,259,19*78
$GPGSV,3,3,12,28,10,061,18,26,07,160,,25,05,242,,01,05,014,26*78
$GPRMC,065031.000,A,5229.6239,N,01319.4746,E,1.10,75.19,110912,,,A*56
$GPGGA,065032.000,5229.6240,N,01319.4751,E,1,05,4.3,37.8,M,44.8,M,,0000*69
$GPGSA,A,3,14,22,27,09,15,,,,,,,,5.8,4.3,4.0*31
$GPRMC,065032.000,A,5229.6240,N,01319.4751,E,0.93,78.24,110912,,,A*54
$GPGGA,065033.000,5229.6242,N,01319.4757,E,1,05,4.3,37.4,M,44.8,M,,0000*60
$GPGSA,A,3,14,22,27,09,15,,,,,,,,5.8,4.3,4.0*31
$GPRMC,065033.000,A,5229.6242,N,01319.4757,E,0.98,78.83,110912,,,A*57
$GPGGA,065034.000,5229.6243,N,01319.4761,E,1,05,4.3,37.1,M,44.8,M,,0000*66
$GPGSA,A,3,14,22,27,09,15,,,,,,,,5.8,4.3,4.0*31
$GPRMC,065055.000,A,5229.6254,N,01319.4777,E,0.86,72.98,110912,,,A*5D
$GPGGA,065056.000,5229.6256,N,01319.4781,E,1,05,4.3,37.0,M,44.8,M,,0000*69
$GPGSA,A,3,14,22,27,09,15,,,,,,,,5.8,4.3,4.0*31
$GPGSV,3,1,12,09,86,308,33,27,80,111,32,12,42,239,16,17,39,063,16*7D
$GPGSV,3,2,12,15,36,188,27,14,15,319,37,22,14,297,31,18,10,258,16*7B
$GPGSV,3,3,12,28,10,061,18,26,07,160,,25,06,243,,01,05,014,26*7A
$GPRMC,065056.000,A,5229.6256,N,01319.4781,E,1.05,71.15,110912,,,A*59
$GPGGA,065057.000,5229.6256,N,01319.4784,E,1,05,4.3,36.8,M,44.8,M,,0000*64
$GPGSA,A,3,14,22,27,09,15,,,,,,,,5.8,4.3,4.0*31
$GPRMC,065107.000,A,5229.6250,N,01319.4758,E,1.05,240.54,110912,,,A*6B
$GPGGA,065108.000,5229.6249,N,01319.4749,E,1,06,1.4,38.9,M,44.8,M,,0000*6E
$GPGSA,A,3,14,22,27,09,17,15,,,,,,,2.4,1.4,1.9*32
$GPRMC,065140.000,A,5229.6234,N,01319.4624,E,0.85,81.37,110912,,,A*53
$GPGGA,065141.000,5229.6235,N,01319.4630,E,1,06,1.4,51.6,M,44.8,M,,0000*67
$GPGSA,A,3,14,22,27,09,17,15,,,,,,,2.4,1.4,1.9*32
$GPGSV,3,1,12,09,86,310,33,27,79,112,32,12,43,240,22,17,39,063,20*7C
$GPGSV,3,2,12,15,35,187,27,14,15,319,38,22,14,297,29,18,10,258,13*74
$GPGSV,3,3,12,28,09,061,18,26,06,160,,25,06,243,,01,05,013,27*75
$GPRMC,065147.000,A,5229.6233,N,01319.4643,E,0.84,227.41,110912,,,A*6C
$GPGGA,065148.000,5229.6233,N,01319.4642,E,1,06,1.4,48.8,M,44.8,M,,0000*6B
$GPGSA,A,3,14,22,27,09,17,15,,,,,,,2.4,1.4,1.9*32
$GPRMC,065154.000,A,5229.6229,N,01319.4623,E,0.94,239.58,110912,,,A*65
$GPGGA,065155.000,5229.6228,N,01319.4617,E,1,06,1.4,51.4,M,44.8,M,,0000*69
$GPGSA,A,3,14,22,27,09,17,15,,,,,,,2.4,1.4,2.0*38
$GPRMC,065158.000,A,5229.6223,N,01319.4599,E,0.82,250.07,110912,,,A*63
$GPGGA,065159.000,5229.6222,N,01319.4593,E,1,06,1.4,53.9,M,44.8,M,,0000*6F
$GPGSA,A,3,14,22,27,09,17,15,,,,,,,2.4,1.4,2.0*38
$GPRMC,065222.000,A,5229.6216,N,01319.4598,E,0.82,242.96,110912,,,A*61
$GPGGA,065223.000,5229.6215,N,01319.4594,E,1,06,1.4,52.5,M,44.8,M,,0000*6F
$GPGSA,A,3,14,22,27,09,17,15,,,,,,,2.4,1.4,2.0*38
$GPRMC,065237.000,A,5229.6217,N,01319.4585,E,1.15,74.04,110912,,,A*5B
$GPGGA,065238.000,5229.6218,N,01319.4590,E,1,06,1.4,54.6,M,44.8,M,,0000*69
$GPGSA,A,3,14,22,27,09,17,15,,,,,,,2.4,1.4,2.0*38
$GPRMC,065238.000,A,5229.6218,N,01319.4590,E,0.99,75.92,110912,,,A*54
$GPGGA,065239.000,5229.6219,N,01319.4594,E,1,06,1.4,54.2,M,44.8,M,,0000*69
$GPGSA,A,3,14,22,27,09,17,15,,,,,,,2.4,1.4,2.0*38
$GPRMC,065248.000,A,5229.6223,N,01319.4622,E,1.02,75.28,110912,,,A*53
$GPGGA,065249.000,5229.6224,N,01319.4626,E,1,05,4.3,50.6,M,44.8,M,,0000*6B
$GPGSA,A,3,14,22,27,09,15,,,,,,,,6.0,4.3,4.1*3B
$GPRMC,065304.000,A,5229.6228,N,01319.4631,E,0.81,247.88,110912,,,A*60
$GPGGA,065305.000,5229.6227,N,01319.4627,E,1,06,1.4,51.3,M,44.8,M,,0000*65
$GPGSA,A,3,14,22,27,09,17,15,,,,,,,2.4,1.4,2.0*38
$GPRMC,065308.000,A,5229.6230,N,01319.4632,E,0.98,72.81,110912,,,A*53
$GPGGA,065309.000,5229.6230,N,01319.4635,E,1,06,1.4,51.2,M,44.8,M,,0000*6D
$GPGSA,A,3,14,22,27,09,17,15,,,,,,,2.4,1.4,2.0*38
$GPRMC,065317.000,A,5229.6234,N,01319.4656,E,0.91,75.39,110912,,,A*56
$GPGGA,065318.000,5229.6235,N,01319.4662,E,1,06,1.4,48.2,M,44.8,M,,0000*62
$GPGSA,A,3,14,22,27,09,17,15,,,,,,,2.4,1.4,2.0*38
$GPRMC,065318.000,A,5229.6235,N,01319.4662,E,1.18,75.96,110912,,,A*5A
$GPGGA,065319.000,5229.6236,N,01319.4666,E,1,06,1.4,47.8,M,44.8,M,,0000*61
$GPGSA,A,3,14,22,27,09,17,15,,,,,,,2.4,1.4,2.0*38
$GPRMC,065341.000,A,5229.6239,N,01319.4679,E,0.90,74.81,110912,,,A*56
$GPGGA,065342.000,5229.6241,N,01319.4686,E,1,06,1.4,44.8,M,44.8,M,,0000*62
$GPGSA,A,3,14,22,27,09,17,15,,,,,,,2.4,1.4,2.0*38
$GPRMC,065342.000,A,5229.6241,N,01319.4686,E,1.22,74.92,110912,,,A*50
$GPGGA,065343.000,5229.6241,N,01319.4690,E,1,06,1.4,44.3,M,44.8,M,,0000*6F
$GPGSA,A,3,14,22,27,09,17,15,,,,,,,2.4,1.4,2.0*38
$GPRMC,065448.000,A,5229.6235,N,01319.4610,E,0.83,258.99,110912,,,A*6C
$GPGGA,065449.000,5229.6235,N,01319.4601,E,1,06,1.4,53.2,M,44.8,M,,0000*6E
$GPGSA,A,3,14,22,27,09,17,15,,,,,,,2.4,1.4,2.0*38
$GPRMC,065449.000,A,5229.6235,N,01319.4601,E,0.86,261.14,110912,,,A*67
$GPGGA,065450.000,5229.6234,N,01319.4594,E,1,06,1.4,54.3,M,44.8,M,,0000*6E
$GPGSA,A,3,14,22,27,09,17,15,,,,,,,2.4,1.4,2.0*38
$GPRMC,065452.000,A,5229.6233,N,01319.4577,E,1.28,253.92,110912,,,A*63
$GPGGA,065453.000,5229.6232,N,01319.4570,E,1,06,1.4,57.4,M,44.8,M,,0000*65
$GPGSA,A,3,14,22,27,09,17,15,,,,,,,2.4,1.4,2.0*38
$GPRMC,065453.000,A,5229.6232,N,01319.4570,E,0.88,259.68,110912,,,A*60
$GPGGA,065454.000,5229.6232,N,01319.4563,E,1,06,1.4,58.4,M,44.8,M,,0000*6F
$GPGSA,A,3,14,22,27,09,17,15,,,,,,,2.4,1.4,2.0*38
$GPRMC,065525.000,A,5229.6238,N,01319.4571,E,0.84,84.13,110912,,,A*59
$GPGGA,065526.000,5229.6238,N,01319.4578,E,1,06,1.4,58.1,M,44.8,M,,0000*6E
$GPGSA,A,3,14,22,27,09,17,15,,,,,,,2.4,1.4,2.0*38
$GPGSV,3,1,12,09,88,323,22,27,78,114,29,12,44,241,19,17,38,061,22*70
$GPGSV,3,2,12,15,34,187,29,14,17,319,38,22,14,296,32,18,09,257,*77
$GPGSV,3,3,12,28,08,062,,25,07,243,,26,05,161,,01,04,012,26*7C
$GPRMC,065527.000,A,5229.6239,N,01319.4586,E,1.02,87.93,110912,,,A*56
$GPGGA,065528.000,5229.6240,N,01319.4594,E,1,06,1.4,55.8,M,44.8,M,,0000*69
$GPGSA,A,3,14,22,27,09,17,15,,,,,,,2.4,1.4,2.0*38
$GPRMC,065528.000,A,5229.6240,N,01319.4594,E,0.83,89.94,110912,,,A*55
$GPGGA,065529.000,5229.6240,N,01319.4601,E,1,06,1.4,54.7,M,44.8,M,,0000*69
$GPGSA,A,3,14,22,27,09,17,15,,,,,,,2.4,1.4,2.0*38
$GPRMC,065532.000,A,5229.6243,N,01319.4626,E,1.09,87.00,110912,,,A*57
$GPGGA,065533.000,5229.6244,N,01319.4636,E,1,06,1.4,49.6,M,44.8,M,,0000*6F
$GPGSA,A,3,14,22,27,09,17,15,,,,,,,2.4,1.4,2.0*38
$GPRMC,065533.000,A,5229.6244,N,01319.4636,E,1.06,91.85,110912,,,A*55
$GPGGA,065534.000,5229.6245,N,01319.4647,E,1,06,1.4,48.0,M,44.8,M,,0000*68
$GPGSA,A,3,14,22,27,09,17,15,,,,,,,2.4,1.4,2.0*38
$GPRMC,065534.000,A,5229.6245,N,01319.4647,E,1.12,93.95,110912,,,A*53
$GPGGA,065535.000,5229.6246,N,01319.4660,E,1,06,1.4,46.3,M,44.8,M,,0000*62
$GPGSA,A,3,14,22,27,09,17,15,,,,,,,2.4,1.4,2.0*38
$GPRMC,065535.000,A,5229.6246,N,01319.4660,E,1.65,81.86,110912,,,A*55
$GPGGA,065536.000,5229.6248,N,01319.4672,E,1,06,1.4,44.7,M,44.8,M,,0000*6A
$GPGSA,A,3,14,22,27,09,17,15,,,,,,,2.4,1.4,2.0*38
$GPGSV,3,1,12,09,88,323,22,27,78,114,28,12,44,241,20,17,38,061,20*79
$GPGSV,3,2,12,15,34,187,29,14,17,319,38,22,14,296,32,18,09,257,*77
$GPGSV,3,3,12,28,08,062,,25,07,243,,26,05,161,,01,04,012,26*7C
$GPRMC,065536.000,A,5229.6248,N,01319.4672,E,1.46,87.05,110912,,,A*57
$GPGGA,065537.000,5229.6249,N,01319.4684,E,1,06,1.4,43.0,M,44.8,M,,0000*63
$GPGSA,A,3,14,22,27,09,17,15,,,,,,,2.4,1.4,2.0*38
$GPRMC,065537.000,A,5229.6249,N,01319.4684,E,1.23,93.27,110912,,,A*58
$GPGGA,065538.000,5229.6249,N,01319.4693,E,1,06,1.4,41.5,M,44.8,M,,0000*6D
$GPGSA,A,3,14,22,27,09,17,15,,,,,,,2.4,1.4,2.0*38
$GPRMC,065538.000,A,5229.6249,N,01319.4693,E,1.06,96.09,110912,,,A*5F
$GPGGA,065539.000,5229.6250,N,01319.4701,E,1,06,1.4,40.4,M,44.8,M,,0000*6E
$GPGSA,A,3,14,22,27,09,17,15,,,,,,,2.4,1.4,2.0*38
$GPRMC,065541.000,A,5229.6252,N,01319.4713,E,1.03,82.44,110912,,,A*5B
$GPGGA,065542.000,5229.6253,N,01319.4721,E,1,06,1.4,38.0,M,44.8,M,,0000*68
$GPGSA,A,3,14,22,27,09,17,15,,,,,,,2.4,1.4,2.0*38
$GPRMC,065542.000,A,5229.6253,N,01319.4721,E,1.10,81.96,110912,,,A*56
$GPGGA,065543.000,5229.6254,N,01319.4727,E,1,06,1.4,37.3,M,44.8,M,,0000*64
$GPGSA,A,3,14,22,27,09,17,15,,,,,,,2.4,1.4,2.0*38
$GPRMC,065601.000,A,5229.6249,N,01319.4678,E,0.84,268.38,110912,,,A*69
$GPGGA,065602.000,5229.6248,N,01319.4668,E,1,06,1.4,46.2,M,44.8,M,,0000*62
$GPGSA,A,3,14,22,27,09,17,15,,,,,,,2.4,1.4,2.0*38
$GPRMC,065602.000,A,5229.6248,N,01319.4668,E,0.95,268.66,110912,,,A*61
$GPGGA,065603.000,5229.6248,N,01319.4659,E,1,06,1.4,47.6,M,44.8,M,,0000*64
$GPGSA,A,3,14,22,27,09,17,15,,,,,,,2.4,1.4,2.0*38
$GPRMC,065603.000,A,5229.6248,N,01319.4659,E,0.83,268.57,110912,,,A*67
$GPGGA,065604.000,5229.6248,N,01319.4653,E,1,06,1.4,48.8,M,44.8,M,,0000*68
$GPGSA,A,3,14,22,27,09,17,15,,,,,,,2.4,1.4,2.0*38
$GPRMC,065605.000,A,5229.6248,N,01319.4646,E,0.93,262.36,110912,,,A*63
$GPGGA,065606.000,5229.6248,N,01319.4641,E,1,06,1.4,50.7,M,44.8,M,,0000*6F
$GPGSA,A,3,14,22,27,09,17,15,,,,,,,2.4,1.4,2.0*38
$GPGSV,3,1,12,09,88,328,21,27,77,115,29,12,45,241,21,17,38,061,22*7C
$GPGSV,3,2,12,15,33,187,28,14,17,319,38,22,14,295,31,18,09,257,*71
$GPGSV,3,3,12,28,08,062,,25,07,244,,26,05,161,,01,04,012,26*7B
$GPRMC,065752.000,A,5229.6240,N,01319.4624,E,0.86,98.36,110912,,,A*5F
$GPGGA,065753.000,5229.6241,N,01319.4632,E,1,06,1.4,49.2,M,44.8,M,,0000*6E
$GPGSA,A,3,14,22,27,09,17,15,,,,,,,2.4,1.4,2.0*38
$GPRMC,065753.000,A,5229.6241,N,01319.4632,E,1.23,87.68,110912,,,A*53
$GPGGA,065754.000,5229.6241,N,01319.4641,E,1,06,1.4,47.7,M,44.8,M,,0000*66
$GPGSA,A,3,14,22,27,09,17,15,,,,,,,2.4,1.4,2.0*38
$GPRMC,065754.000,A,5229.6241,N,01319.4641,E,1.19,89.24,110912,,,A*5F
$GPGGA,065755.000,5229.6241,N,01319.4649,E,1,06,1.4,46.2,M,44.8,M,,0000*6B
$GPGSA,A,3,14,22,27,09,17,15,,,,,,,2.4,1.4,2.0*38
$GPRMC,065755.000,A,5229.6241,N,01319.4649,E,1.00,97.80,110912,,,A*5F
$GPGGA,065756.000,5229.6241,N,01319.4657,E,1,06,1.4,44.6,M,44.8,M,,0000*61
$GPGSA,A,3,14,22,27,09,17,15,,,,,,,2.4,1.4,2.0*38
$GPGSV,3,1,12,09,89,044,26,27,77,116,28,12,46,241,27,17,38,060,20*77
$GPGSV,3,2,12,15,33,187,27,14,17,319,38,22,13,295,31,18,08,256,*79
$GPGSV,3,3,12,25,08,244,,28,07,062,,01,04,011,21,04,04,109,*70
$GPRMC,065756.000,A,5229.6241,N,01319.4657,E,0.99,100.68,110912,,,A*6B
$GPGGA,065757.000,5229.6240,N,01319.4664,E,1,06,1.4,43.1,M,44.8,M,,0000*61
$GPGSA,A,3,14,22,27,09,17,15,,,,,,,2.4,1.4,2.0*38
$GPRMC,065757.000,A,5229.6240,N,01319.4664,E,0.89,106.15,110912,,,A*66
$GPGGA,065758.000,5229.6240,N,01319.4669,E,1,06,1.4,41.8,M,44.8,M,,0000*68
$GPGSA,A,3,14,22,27,09,17,15,,,,,,,2.4,1.4,2.0*38
$GPRMC,065948.000,A,5229.6266,N,01319.4592,E,0.84,142.33,110912,,,A*61
$GPGGA,065949.000,5229.6264,N,01319.4597,E,1,07,1.3,60.7,M,44.8,M,,0000*68
$GPGSA,A,3,14,22,27,09,17,15,12,,,,,,2.2,1.3,1.9*30
$GPRMC,065949.000,A,5229.6264,N,01319.4597,E,0.90,116.38,110912,,,A*68
$GPGGA,065950.000,5229.6262,N,01319.4602,E,1,07,1.3,59.7,M,44.8,M,,0000*63
$GPGSA,A,3,14,22,27,09,17,15,12,,,,,,2.2,1.3,1.9*30
$GPRMC,070059.000,A,5229.6251,N,01319.4627,E,0.95,172.69,110912,,,A*69
$GPGGA,070100.000,5229.6248,N,01319.4628,E,1,07,1.3,52.9,M,44.8,M,,0000*6F
$GPGSA,A,3,14,22,27,09,17,15,12,,,,,,2.2,1.3,1.8*31
$GPRMC,070100.000,A,5229.6248,N,01319.4628,E,0.89,170.37,110912,,,A*67
$GPGGA,070101.000,5229.6247,N,01319.4630,E,1,07,1.3,52.3,M,44.8,M,,0000*62
$GPGSA,A,3,14,22,27,09,17,15,12,,,,,,2.2,1.3,1.8*31
$GPGSV,3,1,12,09,88,107,29,27,75,117,32,12,47,242,30,17,37,058,19*7D
$GPGSV,3,2,12,15,31,186,19,14,19,318,37,22,13,293,32,25,09,245,*7F
$GPGSV,3,3,12,18,07,255,21,28,06,062,,04,05,108,,01,04,010,20*73
$GPRMC,070103.000,A,5229.6245,N,01319.4638,E,0.83,102.95,110912,,,A*6F
$GPGGA,070104.000,5229.6244,N,01319.4641,E,1,07,1.3,50.2,M,44.8,M,,0000*61
$GPGSA,A,3,14,22,27,09,17,15,12,,,,,,2.2,1.3,1.8*31
$GPRMC,070135.000,A,5229.6225,N,01319.4612,E,0.84,243.62,110912,,,A*6D
$GPGGA,070136.000,5229.6224,N,01319.4607,E,1,07,1.3,52.1,M,44.8,M,,0000*65
$GPGSA,A,3,14,22,27,09,17,15,12,,,,,,2.2,1.3,1.8*31
$GPGSV,3,1,12,09,88,110,28,27,75,117,33,12,47,242,31,17,37,058,18*7B
$GPGSV,3,2,12,15,31,186,17,14,19,318,37,22,13,293,29,25,10,245,*73
$GPGSV,3,3,12,18,07,255,24,28,06,063,,04,05,108,,01,04,010,17*73
$GPRMC,070136.000,A,5229.6224,N,01319.4607,E,0.88,241.84,110912,,,A*6D
$GPGGA,070137.000,5229.6223,N,01319.4602,E,1,05,5.1,52.6,M,44.8,M,,0000*65
$GPGSA,A,3,14,22,27,09,12,,,,,,,,8.9,5.1,7.3*39
$GPRMC,070137.000,A,5229.6223,N,01319.4602,E,0.92,238.04,110912,,,A*63
$GPGGA,070138.000,5229.6221,N,01319.4598,E,1,06,2.1,52.8,M,44.8,M,,0000*62
$GPGSA,A,3,14,22,27,09,15,12,,,,,,,3.2,2.1,2.4*38
$GPRMC,070138.000,A,5229.6221,N,01319.4598,E,0.92,232.62,110912,,,A*64
$GPGGA,070139.000,5229.6220,N,01319.4596,E,1,06,2.1,52.8,M,44.8,M,,0000*6C
$GPGSA,A,3,14,22,27,09,15,12,,,,,,,3.2,2.1,2.4*38
$GPRMC,070145.000,A,5229.6211,N,01319.4615,E,0.81,123.45,110912,,,A*6F
$GPGGA,070146.000,5229.6210,N,01319.4621,E,1,05,5.0,48.1,M,44.8,M,,0000*6F
$GPGSA,A,3,14,22,27,09,12,,,,,,,,8.8,5.0,7.3*39
$GPGSV,3,1,12,09,87,111,29,27,75,118,32,12,47,242,31,17,37,058,18*7A
$GPGSV,3,2,12,15,31,186,17,14,19,318,37,22,13,293,29,25,10,245,*73
$GPGSV,3,3,12,18,07,255,24,28,06,063,,04,05,108,,01,04,010,17*73
$GPRMC,070146.000,A,5229.6210,N,01319.4621,E,0.96,100.76,110912,,,A*6D
$GPGGA,070147.000,5229.6209,N,01319.4625,E,1,06,2.1,47.0,M,44.8,M,,0000*69
$GPGSA,A,3,14,22,27,09,15,12,,,,,,,3.2,2.1,2.4*38
$GPRMC,070157.000,A,5229.6204,N,01319.4660,E,0.84,103.41,110912,,,A*69
$GPGGA,070158.000,5229.6203,N,01319.4665,E,1,05,5.0,39.6,M,44.8,M,,0000*63
$GPGSA,A,3,14,22,27,09,12,,,,,,,,8.8,5.0,7.2*38
$GPRMC,070158.000,A,5229.6203,N,01319.4665,E,0.87,105.49,110912,,,A*69
$GPGGA,070159.000,5229.6203,N,01319.4670,E,1,05,5.0,38.9,M,44.8,M,,0000*68
$GPGSA,A,3,14,22,27,09,12,,,,,,,,8.8,5.0,7.2*38
$GPRMC,070159.000,A,5229.6203,N,01319.4670,E,0.96,105.68,110912,,,A*6F
$GPGGA,070200.000,5229.6203,N,01319.4676,E,1,05,5.0,38.2,M,44.8,M,,0000*6A
$GPGSA,A,3,14,22,27,09,12,,,,,,,,8.8,5.0,7.2*38
$GPRMC,070200.000,A,5229.6203,N,01319.4676,E,1.04,101.87,110912,,,A*69
$GPGGA,070201.000,5229.6203,N,01319.4681,E,1,06,2.6,37.5,M,44.8,M,,0000*69
$GPGSA,A,3,14,22,27,09,17,12,,,,,,,4.4,2.6,3.5*3C
$GPGSV,3,1,12,09,87,111,30,27,75,118,32,12,47,242,30,17,37,058,16*7D
$GPGSV,3,2,12,15,31,186,17,14,19,318,37,22,13,293,28,25,10,245,*72
$GPGSV,3,3,12,18,07,255,24,28,06,063,,04,05,108,,01,04,010,19*7D
$GPRMC,070201.000,A,5229.6203,N,01319.4681,E,0.95,97.11,110912,,,A*58
$GPGGA,070202.000,5229.6202,N,01319.4685,E,1,05,5.0,36.8,M,44.8,M,,0000*61
$GPGSA,A,3,14,22,27,09,12,,,,,,,,8.8,5.0,7.2*38
$GPRMC,070209.000,A,5229.6198,N,01319.4706,E,0.88,147.65,110912,,,A*6C
$GPGGA,070210.000,5229.6197,N,01319.4709,E,1,05,5.0,31.5,M,44.8,M,,0000*62
$GPGSA,A,3,14,22,27,09,12,,,,,,,,8.7,5.0,7.2*37
$GPRMC,070214.000,A,5229.6192,N,01319.4717,E,0.84,161.94,110912,,,A*6C
$GPGGA,070215.000,5229.6189,N,01319.4720,E,1,05,5.0,28.3,M,44.8,M,,0000*6D
$GPGSA,A,3,14,22,27,09,12,,,,,,,,8.7,5.0,7.2*37
$GPRMC,070215.000,A,5229.6189,N,01319.4720,E,0.92,149.93,110912,,,A*69
$GPGGA,070216.000,5229.6188,N,01319.4722,E,1,05,5.0,27.6,M,44.8,M,,0000*67
$GPGSA,A,3,14,22,27,09,12,,,,,,,,8.7,5.0,7.2*37
$GPGSV,3,1,12,09,87,113,29,27,75,118,32,12,48,243,29,17,37,058,15*72
$GPGSV,3,2,12,15,31,186,18,14,19,318,37,22,13,293,29,25,10,245,*7C
$GPGSV,3,3,12,18,07,255,25,28,05,063,,04,05,107,,01,03,010,19*77
$GPRMC,070220.000,A,5229.6187,N,01319.4732,E,0.85,74.88,110912,,,A*51
$GPGGA,070221.000,5229.6187,N,01319.4736,E,1,05,4.9,25.0,M,44.8,M,,0000*65
$GPGSA,A,3,14,22,27,09,12,,,,,,,,8.7,4.9,7.1*3C
$GPGSV,3,1,12,09,87,113,29,27,75,118,32,12,48,243,29,17,37,058,14*73
$GPGSV,3,2,12,15,31,186,18,14,19,318,37,22,13,293,29,25,10,245,*7C
$GPGSV,3,3,12,18,07,255,25,28,05,063,,04,05,107,,01,03,010,19*77
$GPRMC,070221.000,A,5229.6187,N,01319.4736,E,0.94,88.74,110912,,,A*54
$GPGGA,070222.000,5229.6186,N,01319.4741,E,1,05,4.9,24.3,M,44.8,M,,0000*65
$GPGSA,A,3,14,22,27,09,12,,,,,,,,8.7,4.9,7.1*3C
$GPRMC,070222.000,A,5229.6186,N,01319.4741,E,0.98,96.78,110912,,,A*59
$GPGGA,070223.000,5229.6185,N,01319.4746,E,1,05,4.9,23.6,M,44.8,M,,0000*62
$GPGSA,A,3,14,22,27,09,12,,,,,,,,8.7,4.9,7.1*3C
$GPRMC,070223.000,A,5229.6185,N,01319.4746,E,1.05,106.24,110912,,,A*68
$GPGGA,070224.000,5229.6183,N,01319.4751,E,1,05,4.9,22.7,M,44.8,M,,0000*65
$GPGSA,A,3,14,22,27,09,12,,,,,,,,8.7,4.9,7.1*3C
$GPRMC,070224.000,A,5229.6183,N,01319.4751,E,1.14,112.33,110912,,,A*6C
$GPGGA,070225.000,5229.6181,N,01319.4757,E,1,05,4.9,21.7,M,44.8,M,,0000*63
$GPGSA,A,3,14,22,27,09,12,,,,,,,,8.7,4.9,7.1*3C
$GPRMC,070225.000,A,5229.6181,N,01319.4757,E,1.29,116.43,110912,,,A*64
$GPGGA,070226.000,5229.6179,N,01319.4763,E,1,05,4.9,20.6,M,44.8,M,,0000*60
$GPGSA,A,3,14,22,27,09,12,,,,,,,,8.7,4.9,7.1*3C
$GPGSV,3,1,12,09,87,113,29,27,75,118,32,12,48,243,29,17,37,058,14*73
$GPGSV,3,2,12,15,31,186,18,14,19,318,37,22,13,293,29,25,10,245,*7C
$GPGSV,3,3,12,18,07,255,25,28,05,063,,04,05,107,,01,03,010,19*77
$GPRMC,070226.000,A,5229.6179,N,01319.4763,E,1.32,117.28,110912,,,A*61
$GPGGA,070227.000,5229.6178,N,01319.4769,E,1,05,4.9,19.6,M,44.8,M,,0000*60
$GPGSA,A,3,14,22,27,09,12,,,,,,,,8.7,4.9,7.1*3C
$GPRMC,070227.000,A,5229.6178,N,01319.4769,E,1.23,99.87,110912,,,A*59
$GPGGA,070228.000,5229.6177,N,01319.4775,E,1,05,4.9,18.6,M,44.8,M,,0000*6C
$GPGSA,A,3,14,22,27,09,12,,,,,,,,8.7,4.9,7.1*3C
$GPRMC,070228.000,A,5229.6177,N,01319.4775,E,1.29,91.63,110912,,,A*5C
$GPGGA,070229.000,5229.6177,N,01319.4781,E,1,05,4.9,17.6,M,44.8,M,,0000*69
$GPGSA,A,3,14,22,27,09,12,,,,,,,,8.6,4.9,7.1*3D
$GPRMC,070229.000,A,5229.6177,N,01319.4781,E,1.23,89.87,110912,,,A*5F
$GPGGA,070230.000,5229.6176,N,01319.4785,E,1,05,4.9,16.7,M,44.8,M,,0000*64
$GPGSA,A,3,14,22,27,09,12,,,,,,,,8.6,4.9,7.1*3D
$GPRMC,070230.000,A,5229.6176,N,01319.4785,E,0.84,99.57,110912,,,A*52
$GPGGA,070231.000,5229.6174,N,01319.4787,E,1,05,4.9,15.9,M,44.8,M,,0000*68
$GPGSA,A,3,14,22,27,09,12,,,,,,,,8.6,4.9,7.1*3D
$GPGSV,3,1,12,09,87,113,28,27,75,118,32,12,48,243,30,17,37,058,14*7A
$GPGSV,3,2,12,15,31,186,16,14,19,318,36,22,13,293,29,25,10,245,*73
$GPGSV,3,3,12,18,07,255,26,28,05,063,,04,05,107,,01,03,010,19*74
$GPRMC,070232.000,A,5229.6171,N,01319.4788,E,0.96,166.59,110912,,,A*66
$GPGGA,070233.000,5229.6167,N,01319.4788,E,1,05,4.9,14.4,M,44.8,M,,0000*6B
$GPGSA,A,3,14,22,27,09,12,,,,,,,,8.6,4.9,7.1*3D
$GPRMC,070233.000,A,5229.6167,N,01319.4788,E,1.17,172.55,110912,,,A*61
$GPGGA,070234.000,5229.6163,N,01319.4788,E,1,05,4.9,13.6,M,44.8,M,,0000*6D
$GPGSA,A,3,14,22,27,09,12,,,,,,,,8.6,4.9,7.1*3D
$GPRMC,070234.000,A,5229.6163,N,01319.4788,E,1.25,176.45,110912,,,A*66
$GPGGA,070235.000,5229.6160,N,01319.4788,E,1,05,4.9,12.8,M,44.8,M,,0000*60
$GPGSA,A,3,14,22,27,09,12,,,,,,,,8.6,4.9,7.1*3D
$GPRMC,070235.000,A,5229.6160,N,01319.4788,E,1.27,179.31,110912,,,A*6A
$GPGGA,070236.000,5229.6156,N,01319.4789,E,1,05,4.9,11.9,M,44.8,M,,0000*65
$GPGSA,A,3,14,22,27,09,12,,,,,,,,8.6,4.9,7.1*3D
$GPGSV,3,1,12,09,87,113,28,27,75,118,32,12,48,243,30,17,37,058,14*7A
$GPGSV,3,2,12,15,31,186,15,14,19,318,36,22,13,293,29,25,10,245,*70
$GPGSV,3,3,12,18,07,255,26,28,05,063,,04,05,107,,01,03,010,19*74
$GPRMC,070236.000,A,5229.6156,N,01319.4789,E,1.21,167.23,110912,,,A*67
$GPGGA,070237.000,5229.6154,N,01319.4792,E,1,05,4.9,11.1,M,44.8,M,,0000*64
$GPGSA,A,3,14,22,27,09,12,,,,,,,,8.6,4.9,7.1*3D
$GPRMC,070237.000,A,5229.6154,N,01319.4792,E,0.95,132.16,110912,,,A*66
$GPGGA,070238.000,5229.6152,N,01319.4796,E,1,05,4.9,10.3,M,44.8,M,,0000*6A
$GPGSA,A,3,14,22,27,09,12,,,,,,,,8.6,4.9,7.1*3D
$GPRMC,070238.000,A,5229.6152,N,01319.4796,E,1.06,115.47,110912,,,A*61
$GPGGA,070239.000,5229.6151,N,01319.4800,E,1,05,4.9,9.4,M,44.8,M,,0000*57
$GPGSA,A,3,14,22,27,09,12,,,,,,,,8.6,4.9,7.1*3D
$GPRMC,070239.000,A,5229.6151,N,01319.4800,E,1.17,107.99,110912,,,A*63
$GPGGA,070240.000,5229.6149,N,01319.4806,E,1,05,4.9,8.5,M,44.8,M,,0000*56
$GPGSA,A,3,14,22,27,09,12,,,,,,,,8.6,4.9,7.1*3D
$GPRMC,070240.000,A,5229.6149,N,01319.4806,E,1.24,106.21,110912,,,A*60
$GPGGA,070241.000,5229.6148,N,01319.4809,E,1,05,4.9,7.7,M,44.8,M,,0000*54
$GPGSA,A,3,14,22,27,09,12,,,,,,,,8.6,4.9,7.1*3D
$GPGSV,3,1,12,09,87,113,28,27,75,118,32,12,48,243,30,17,37,058,15*7B
$GPGSV,3,2,12,15,31,186,,14,19,318,36,22,13,293,29,25,10,245,*74
$GPGSV,3,3,12,18,07,255,26,28,05,063,,04,05,107,,01,03,010,19*74
$GPRMC,070241.000,A,5229.6148,N,01319.4809,E,1.08,118.94,110912,,,A*60
$GPGGA,070242.000,5229.6146,N,01319.4813,E,1,05,4.9,6.8,M,44.8,M,,0000*5C
$GPGSA,A,3,14,22,27,09,12,,,,,,,,8.6,4.9,7.1*3D
$GPRMC,070242.000,A,5229.6146,N,01319.4813,E,1.04,121.05,110912,,,A*68
$GPGGA,070243.000,5229.6144,N,01319.4815,E,1,05,4.9,6.0,M,44.8,M,,0000*51
$GPGSA,A,3,14,22,27,09,12,,,,,,,,8.6,4.9,7.1*3D
$GPRMC,070243.000,A,5229.6144,N,01319.4815,E,0.90,138.62,110912,,,A*68
$GPGGA,070244.000,5229.6142,N,01319.4816,E,1,05,4.9,5.3,M,44.8,M,,0000*53
$GPGSA,A,3,14,22,27,09,12,,,,,,,,8.6,4.9,7.1*3D
$GPRMC,070244.000,A,5229.6142,N,01319.4816,E,0.86,155.49,110912,,,A*6F
$GPGGA,070245.000,5229.6139,N,01319.4816,E,1,05,4.9,4.8,M,44.8,M,,0000*54
$GPGSA,A,3,14,22,27,09,12,,,,,,,,8.6,4.9,7.1*3D
$GPRMC,070245.000,A,5229.6139,N,01319.4816,E,0.82,164.20,110912,,,A*6B
$GPGGA,070246.000,5229.6137,N,01319.4816,E,1,05,4.9,4.3,M,44.8,M,,0000*52
$GPGSA,A,3,14,22,27,09,12,,,,,,,,8.6,4.9,7.1*3D
$GPGSV,3,1,12,09,87,114,28,27,74,118,32,12,48,243,30,17,37,058,17*7F
$GPGSV,3,2,12,15,30,186,,14,19,318,36,22,13,293,29,25,10,245,*75
$GPGSV,3,3,12,18,07,255,26,04,05,107,,28,05,063,,01,03,010,20*7E
$GPRMC,070250.000,A,5229.6133,N,01319.4821,E,0.81,109.37,110912,,,A*6F
$GPGGA,070251.000,5229.6133,N,01319.4825,E,1,05,4.9,2.2,M,44.8,M,,0000*57
$GPGSA,A,3,14,22,27,09,12,,,,,,,,8.5,4.9,7.0*3F
$GPGSV,3,1,12,09,87,114,28,27,74,118,32,12,48,243,31,17,37,058,18*71
$GPGSV,3,2,12,15,30,186,,14,19,318,36,22,13,293,29,25,10,245,*75
$GPGSV,3,3,12,18,07,255,25,04,05,107,,28,05,063,,01,03,010,20*7D
$GPRMC,070251.000,A,5229.6133,N,01319.4825,E,0.95,99.85,110912,,,A*5E
$GPGGA,070252.000,5229.6132,N,01319.4826,E,1,05,4.9,1.8,M,44.8,M,,0000*5F
$GPGSA,A,3,14,22,27,09,12,,,,,,,,8.5,4.9,7.0*3F
$GPRMC,070303.000,A,5229.6127,N,01319.4838,E,0.88,116.62,110912,,,A*62
$GPGGA,070304.000,5229.6126,N,01319.4842,E,1,05,4.8,-1.6,M,44.8,M,,0000*78
$GPGSA,A,3,14,22,27,09,12,,,,,,,,8.5,4.8,7.0*3E
$GPRMC,070304.000,A,5229.6126,N,01319.4842,E,1.11,118.83,110912,,,A*69
$GPGGA,070305.000,5229.6125,N,01319.4845,E,1,05,4.8,-2.1,M,44.8,M,,0000*79
$GPGSA,A,3,14,22,27,09,12,,,,,,,,8.5,4.8,7.0*3E
$GPRMC,070305.000,A,5229.6125,N,01319.4845,E,1.06,113.75,110912,,,A*68
$GPGGA,070306.000,5229.6124,N,01319.4848,E,1,05,4.8,-2.6,M,44.8,M,,0000*71
$GPGSA,A,3,14,22,27,09,12,,,,,,,,8.5,4.8,7.0*3E
$GPGSV,3,1,12,09,87,114,28,27,74,118,32,12,48,243,30,17,37,058,14*7C
$GPGSV,3,2,12,15,30,186,18,14,19,318,36,22,13,293,30,25,10,245,*74
$GPGSV,3,3,12,18,07,255,26,04,05,107,,28,05,063,,01,03,010,19*74
$GPRMC,070306.000,A,5229.6124,N,01319.4848,E,0.91,101.24,110912,,,A*6F
$GPGGA,070307.000,5229.6124,N,01319.4849,E,1,05,4.8,-3.0,M,44.8,M,,0000*76
$GPGSA,A,3,14,22,27,09,12,,,,,,,,8.5,4.8,7.0*3E
$GPRMC,070312.000,A,5229.6122,N,01319.4836,E,0.83,205.70,110912,,,A*60
$GPGGA,070313.000,5229.6122,N,01319.4832,E,1,05,4.8,-2.4,M,44.8,M,,0000*7C
$GPGSA,A,3,14,22,27,09,12,,,,,,,,8.4,4.8,7.0*3F
$GPRMC,070334.000,A,5229.6139,N,01319.4774,E,0.83,271.01,110912,,,A*62
$GPGGA,070335.000,5229.6140,N,01319.4767,E,1,06,2.1,10.2,M,44.8,M,,0000*67
$GPGSA,A,3,14,22,27,09,15,12,,,,,,,3.2,2.1,2.4*38
$GPRMC,070415.000,A,5229.6227,N,01319.4635,E,0.93,250.17,110912,,,A*6B
$GPGGA,070416.000,5229.6228,N,01319.4629,E,1,07,1.2,46.8,M,44.8,M,,0000*6F
$GPGSA,A,3,14,22,27,09,17,15,12,,,,,,2.2,1.2,1.8*30
$GPGSV,3,1,12,09,86,116,28,27,74,119,31,12,48,243,31,17,36,057,17*71
$GPGSV,3,2,12,15,30,186,20,14,20,318,35,22,12,292,34,25,11,245,*73
$GPGSV,3,3,12,18,06,254,25,04,06,107,,28,05,063,,01,03,009,*74
$GPRMC,070416.000,A,5229.6228,N,01319.4629,E,0.97,263.68,110912,,,A*66
$GPGGA,070417.000,5229.6230,N,01319.4623,E,1,07,1.2,47.8,M,44.8,M,,0000*6C
$GPGSA,A,3,14,22,27,09,17,15,12,,,,,,2.2,1.2,1.8*30
$GPRMC,070417.000,A,5229.6230,N,01319.4623,E,1.03,261.80,110912,,,A*6C
$GPGGA,070418.000,5229.6231,N,01319.4620,E,1,07,1.2,48.7,M,44.8,M,,0000*61
$GPGSA,A,3,14,22,27,09,17,15,12,,,,,,2.2,1.2,1.8*30
$GPRMC,070511.000,A,5229.6198,N,01319.4649,E,0.83,74.81,110912,,,A*58
$GPGGA,070512.000,5229.6199,N,01319.4654,E,1,07,1.2,37.0,M,44.8,M,,0000*67
$GPGSA,A,3,14,22,27,09,17,15,12,,,,,,2.2,1.2,1.8*30
$GPRMC,070512.000,A,5229.6199,N,01319.4654,E,0.83,75.02,110912,,,A*5C
$GPGGA,070513.000,5229.6199,N,01319.4658,E,1,07,1.2,36.4,M,44.8,M,,0000*6F
$GPGSA,A,3,14,22,27,09,17,15,12,,,,,,2.2,1.2,1.8*30
$GPRMC,070528.000,A,5229.6211,N,01319.4649,E,0.83,350.30,110912,,,A*6F
$GPGGA,070529.000,5229.6212,N,01319.4643,E,1,07,1.2,41.3,M,44.8,M,,0000*6B
$GPGSA,A,3,14,22,27,09,17,15,12,,,,,,2.2,1.2,1.8*30
$GPRMC,070531.000,A,5229.6216,N,01319.4631,E,0.95,335.33,110912,,,A*68
$GPGGA,070532.000,5229.6219,N,01319.4624,E,1,07,1.2,45.3,M,44.8,M,,0000*6F
$GPGSA,A,3,14,22,27,09,17,15,12,,,,,,2.2,1.2,1.8*30
$GPRMC,070532.000,A,5229.6219,N,01319.4624,E,1.07,325.38,110912,,,A*60
$GPGGA,070533.000,5229.6221,N,01319.4619,E,1,07,1.2,46.5,M,44.8,M,,0000*6E
$GPGSA,A,3,14,22,27,09,17,15,12,,,,,,2.2,1.2,1.8*30
$GPRMC,070533.000,A,5229.6221,N,01319.4619,E,0.84,333.34,110912,,,A*65
$GPGGA,070534.000,5229.6223,N,01319.4615,E,1,07,1.2,47.6,M,44.8,M,,0000*65
$GPGSA,A,3,14,22,27,09,17,15,12,,,,,,2.2,1.2,1.8*30
$GPRMC,070707.000,A,5229.6211,N,01319.4597,E,0.90,116.12,110912,,,A*62
$GPGGA,070708.000,5229.6208,N,01319.4602,E,1,07,1.2,46.6,M,44.8,M,,0000*66
$GPGSA,A,3,14,22,27,09,17,15,12,,,,,,2.1,1.2,1.8*33
$GPRMC,070708.000,A,5229.6208,N,01319.4602,E,0.85,136.76,110912,,,A*6E
$GPGGA,070709.000,5229.6205,N,01319.4604,E,1,06,2.7,45.7,M,44.8,M,,0000*69
$GPGSA,A,3,14,22,27,09,17,12,,,,,,,4.5,2.7,3.6*3F
$GPRMC,070709.000,A,5229.6205,N,01319.4604,E,0.98,169.96,110912,,,A*6C
$GPGGA,070710.000,5229.6202,N,01319.4609,E,1,06,2.7,44.5,M,44.8,M,,0000*68
$GPGSA,A,3,14,22,27,09,17,12,,,,,,,4.5,2.7,3.6*3F
$GPRMC,070710.000,A,5229.6202,N,01319.4609,E,0.99,146.23,110912,,,A*6C
$GPGGA,070711.000,5229.6199,N,01319.4613,E,1,07,1.2,43.4,M,44.8,M,,0000*62
$GPGSA,A,3,14,22,27,09,17,15,12,,,,,,2.1,1.2,1.8*33
$GPGSV,3,1,12,09,85,119,30,27,73,120,32,12,50,244,27,17,36,056,18*7D
$GPGSV,3,2,12,15,28,186,14,14,21,317,35,22,12,291,32,25,12,246,*76
$GPGSV,3,3,12,04,07,106,,18,06,253,26,28,04,063,,01,03,008,*70
$GPRMC,070711.000,A,5229.6199,N,01319.4613,E,0.97,147.02,110912,,,A*6B
$GPGGA,070712.000,5229.6196,N,01319.4616,E,1,06,2.7,42.5,M,44.8,M,,0000*6C
$GPGSA,A,3,14,22,27,09,17,12,,,,,,,4.5,2.7,3.6*3F
$GPRMC,070712.000,A,5229.6196,N,01319.4616,E,0.84,156.12,110912,,,A*61
$GPGGA,070713.000,5229.6194,N,01319.4618,E,1,06,2.7,41.5,M,44.8,M,,0000*62
$GPGSA,A,3,14,22,27,09,17,12,,,,,,,4.5,2.7,3.6*3F
$GPRMC,070825.000,A,5229.6207,N,01319.4596,E,1.06,76.85,110912,,,A*5C
$GPGGA,070826.000,5229.6206,N,01319.4600,E,1,05,4.0,47.2,M,44.8,M,,0000*69
$GPGSA,A,3,14,22,27,09,12,,,,,,,,7.0,4.0,5.8*36
$GPGSV,3,1,12,09,84,120,28,27,72,120,30,12,50,244,25,17,35,055,*77
$GPGSV,3,2,12,15,28,186,,14,21,317,35,25,12,246,,22,12,291,21*71
$GPGSV,3,3,12,04,07,106,,18,05,253,25,28,03,064,,01,02,008,*71
$GPRMC,070830.000,A,5229.6198,N,01319.4620,E,0.99,113.55,110912,,,A*6B
$GPGGA,070831.000,5229.6197,N,01319.4628,E,1,05,4.0,41.0,M,44.8,M,,0000*6A
$GPGSA,A,3,14,22,27,09,12,,,,,,,,7.0,4.0,5.7*39
$GPGSV,3,1,12,09,84,120,28,27,72,120,30,12,50,244,25,17,35,055,*77
$GPGSV,3,2,12,15,28,186,,14,21,317,35,25,12,246,,22,12,291,20*70
$GPGSV,3,3,12,04,07,106,,18,05,253,25,28,03,064,,01,02,008,*71
$GPRMC,070831.000,A,5229.6197,N,01319.4628,E,1.06,105.60,110912,,,A*6B
$GPGGA,070832.000,5229.6196,N,01319.4635,E,1,05,4.0,39.8,M,44.8,M,,0000*63
$GPGSA,A,3,14,22,27,09,12,,,,,,,,7.0,4.0,5.7*39
$GPRMC,070832.000,A,5229.6196,N,01319.4635,E,1.07,101.50,110912,,,A*63
$GPGGA,070833.000,5229.6195,N,01319.4643,E,1,05,4.0,38.7,M,44.8,M,,0000*6E
$GPGSA,A,3,14,22,27,09,12,,,,,,,,7.0,4.0,5.7*39
$GPRMC,070833.000,A,5229.6195,N,01319.4643,E,1.13,101.80,110912,,,A*68
$GPGGA,070834.000,5229.6194,N,01319.4648,E,1,05,4.0,37.7,M,44.8,M,,0000*6C
$GPGSA,A,3,14,22,27,09,12,,,,,,,,7.0,4.0,5.7*39
$GPRMC,070835.000,A,5229.6193,N,01319.4654,E,0.85,115.30,110912,,,A*6E
$GPGGA,070836.000,5229.6192,N,01319.4660,E,1,05,4.0,36.1,M,44.8,M,,0000*65
$GPGSA,A,3,14,22,27,09,12,,,,,,,,7.0,4.0,5.7*39
$GPGSV,3,1,12,09,84,120,28,27,72,120,30,12,50,244,26,17,35,055,*74
$GPGSV,3,2,12,15,28,186,,14,21,317,35,25,12,246,,22,12,291,19*7A
$GPGSV,3,3,12,04,07,106,,18,05,253,25,28,03,064,,01,02,008,*71
$GPRMC,070836.000,A,5229.6192,N,01319.4660,E,0.90,110.32,110912,,,A*68
$GPGGA,070837.000,5229.6192,N,01319.4664,E,1,04,2.2,35.5,M,44.8,M,,0000*62
$GPGSA,A,3,14,27,09,12,,,,,,,,,2.4,2.2,1.0*3F
$GPRMC,070843.000,A,5229.6191,N,01319.4680,E,1.08,79.05,110912,,,A*5D
$GPGGA,070844.000,5229.6192,N,01319.4686,E,1,04,2.2,32.8,M,44.8,M,,0000*60
$GPGSA,A,3,14,27,09,12,,,,,,,,,2.4,2.2,1.0*3F
$GPRMC,070844.000,A,5229.6192,N,01319.4686,E,1.17,69.61,110912,,,A*52
$GPGGA,070845.000,5229.6192,N,01319.4688,E,1,04,2.2,32.5,M,44.8,M,,0000*62
$GPGSA,A,3,14,27,09,12,,,,,,,,,2.4,2.2,1.0*3F
$GPRMC,070856.000,A,5229.6197,N,01319.4696,E,0.95,44.20,110912,,,A*54
$GPGGA,070857.000,5229.6198,N,01319.4699,E,1,05,3.9,32.7,M,44.8,M,,0000*62
$GPGSA,A,3,14,22,27,09,12,,,,,,,,6.9,3.9,5.7*3F
$GPRMC,070911.000,A,5229.6204,N,01319.4662,E,1.18,11.77,110912,,,A*52
$GPGGA,070912.000,5229.6206,N,01319.4659,E,1,06,2.7,43.1,M,44.8,M,,0000*66
$GPGSA,A,3,14,22,27,09,17,12,,,,,,,4.5,2.7,3.6*3F
$GPRMC,070916.000,A,5229.6206,N,01319.4643,E,1.12,242.53,110912,,,A*6C
$GPGGA,070917.000,5229.6204,N,01319.4638,E,1,06,2.7,45.6,M,44.8,M,,0000*67
$GPGSA,A,3,14,22,27,09,17,12,,,,,,,4.5,2.7,3.6*3F
$GPRMC,070917.000,A,5229.6204,N,01319.4638,E,1.15,242.83,110912,,,A*69
$GPGGA,070918.000,5229.6203,N,01319.4633,E,1,06,2.7,45.9,M,44.8,M,,0000*6B
$GPGSA,A,3,14,22,27,09,17,12,,,,,,,4.5,2.7,3.6*3F
$GPRMC,070918.000,A,5229.6203,N,01319.4633,E,0.94,246.76,110912,,,A*6C
$GPGGA,070919.000,5229.6201,N,01319.4630,E,1,06,2.7,46.0,M,44.8,M,,0000*61
$GPGSA,A,3,14,22,27,09,17,12,,,,,,,4.5,2.7,3.6*3F
$GPRMC,070928.000,A,5229.6201,N,01319.4624,E,0.96,29.76,110912,,,A*52
$GPGGA,070929.000,5229.6203,N,01319.4624,E,1,05,3.9,47.6,M,44.8,M,,0000*6E
$GPGSA,A,3,14,22,27,09,12,,,,,,,,6.8,3.9,5.5*3C
$GPRMC,070935.000,A,5229.6206,N,01319.4636,E,1.26,70.37,110912,,,A*59
$GPGGA,070936.000,5229.6206,N,01319.4644,E,1,06,2.7,45.5,M,44.8,M,,0000*6E
$GPGSA,A,3,14,22,27,09,17,12,,,,,,,4.5,2.7,3.6*3F
$GPGSV,3,1,12,09,84,121,29,27,71,121,29,12,51,245,24,17,35,055,14*79
$GPGSV,3,2,12,15,27,186,16,14,22,317,35,25,13,247,,22,11,290,22*7B
$GPGSV,3,3,12,04,07,105,,18,05,253,25,28,03,064,,01,02,007,*7D
$GPRMC,070936.000,A,5229.6206,N,01319.4644,E,1.14,80.30,110912,,,A*56
$GPGGA,070937.000,5229.6205,N,01319.4649,E,1,06,2.7,44.6,M,44.8,M,,0000*63
$GPGSA,A,3,14,22,27,09,17,12,,,,,,,4.5,2.7,3.6*3F
$GPRMC,070944.000,A,5229.6209,N,01319.4653,E,1.08,17.57,110912,,,A*58
$GPGGA,070945.000,5229.6211,N,01319.4652,E,1,06,2.0,44.4,M,44.8,M,,0000*6C
$GPGSA,A,3,14,22,27,09,15,12,,,,,,,3.1,2.0,2.3*3D
$GPRMC,070946.000,A,5229.6215,N,01319.4651,E,1.01,0.71,110912,,,A*6E
$GPGGA,070947.000,5229.6221,N,01319.4653,E,1,06,2.0,45.8,M,44.8,M,,0000*61
$GPGSA,A,3,14,22,27,09,15,12,,,,,,,3.1,2.0,2.3*3D
$GPRMC,070947.000,A,5229.6221,N,01319.4653,E,1.81,24.62,110912,,,A*56
$GPGGA,070948.000,5229.6226,N,01319.4654,E,1,06,2.0,46.7,M,44.8,M,,0000*62
$GPGSA,A,3,14,22,27,09,15,12,,,,,,,3.1,2.0,2.3*3D
$GPRMC,070948.000,A,5229.6226,N,01319.4654,E,1.63,20.18,110912,,,A*5C
$GPGGA,070949.000,5229.6231,N,01319.4652,E,1,06,2.0,47.6,M,44.8,M,,0000*63
$GPGSA,A,3,14,22,27,09,15,12,,,,,,,3.1,2.0,2.3*3D
$GPRMC,070949.000,A,5229.6231,N,01319.4652,E,1.13,358.56,110912,,,A*6C
$GPGGA,070950.000,5229.6235,N,01319.4649,E,1,06,2.0,48.5,M,44.8,M,,0000*69
$GPGSA,A,3,14,22,27,09,15,12,,,,,,,3.1,2.0,2.3*3D
$GPRMC,070950.000,A,5229.6235,N,01319.4649,E,1.08,342.85,110912,,,A*65
$GPGGA,070951.000,5229.6239,N,01319.4647,E,1,06,2.0,49.3,M,44.8,M,,0000*6D
$GPGSA,A,3,14,22,27,09,15,12,,,,,,,3.1,2.0,2.3*3D
$GPGSV,3,1,12,09,83,121,29,27,71,121,29,12,51,245,23,17,35,055,*7C
$GPGSV,3,2,12,15,27,186,14,14,22,317,34,25,13,247,,22,11,290,22*78
$GPGSV,3,3,12,04,08,105,,18,05,253,24,28,03,064,,01,02,007,*73
$GPRMC,070951.000,A,5229.6239,N,01319.4647,E,0.82,341.02,110912,,,A*69
$GPGGA,070952.000,5229.6241,N,01319.4646,E,1,06,2.0,50.0,M,44.8,M,,0000*6B
$GPGSA,A,3,14,22,27,09,15,12,,,,,,,3.1,2.0,2.3*3D
$GPRMC,070956.000,A,5229.6241,N,01319.4639,E,0.86,220.48,110912,,,A*64
$GPGGA,070957.000,5229.6239,N,01319.4637,E,1,06,2.0,51.2,M,44.8,M,,0000*64
$GPGSA,A,3,14,22,27,09,15,12,,,,,,,3.1,2.0,2.3*3D
$GPRMC,071013.000,A,5229.6235,N,01319.4671,E,0.88,202.72,110912,,,A*65
$GPGGA,071014.000,5229.6234,N,01319.4671,E,1,05,3.8,44.6,M,44.8,M,,0000*6E
$GPGSA,A,3,14,22,27,09,12,,,,,,,,6.6,3.8,5.4*32
$GPRMC,071023.000,A,5229.6213,N,01319.4646,E,1.12,224.67,110912,,,A*64
$GPGGA,071024.000,5229.6212,N,01319.4645,E,1,05,3.7,44.4,M,44.8,M,,0000*63
$GPGSA,A,3,14,22,27,09,12,,,,,,,,6.5,3.7,5.4*3E
$GPRMC,071025.000,A,5229.6212,N,01319.4648,E,0.89,63.91,110912,,,A*56
$GPGGA,071026.000,5229.6214,N,01319.4655,E,1,05,3.7,43.7,M,44.8,M,,0000*62
$GPGSA,A,3,14,22,27,09,12,,,,,,,,6.5,3.7,5.3*39
$GPGSV,3,1,12,09,83,121,30,27,71,121,27,12,51,245,22,17,35,055,*7B
$GPGSV,3,2,12,15,27,186,,14,22,316,34,25,13,247,17,22,11,290,21*79
$GPGSV,3,3,12,04,08,105,,18,05,252,21,28,02,064,,01,02,007,*76
$GPRMC,071026.000,A,5229.6214,N,01319.4655,E,1.99,54.18,110912,,,A*5A
$GPGGA,071027.000,5229.6217,N,01319.4663,E,1,05,3.7,43.0,M,44.8,M,,0000*62
$GPGSA,A,3,14,22,27,09,12,,,,,,,,6.5,3.7,5.3*39
$GPRMC,071027.000,A,5229.6217,N,01319.4663,E,2.04,51.58,110912,,,A*5B
$GPGGA,071028.000,5229.6218,N,01319.4669,E,1,05,3.7,42.4,M,44.8,M,,0000*6D
$GPGSA,A,3,14,22,27,09,12,,,,,,,,6.5,3.7,5.3*39
$GPRMC,071028.000,A,5229.6218,N,01319.4669,E,1.24,60.11,110912,,,A*5F
$GPGGA,071029.000,5229.6219,N,01319.4674,E,1,05,3.7,41.8,M,44.8,M,,0000*6E
$GPGSA,A,3,14,22,27,09,12,,,,,,,,6.5,3.7,5.3*39
$GPRMC,071029.000,A,5229.6219,N,01319.4674,E,0.91,70.20,110912,,,A*5F
$GPGGA,071030.000,5229.6220,N,01319.4680,E,1,05,3.7,41.3,M,44.8,M,,0000*6C
$GPGSA,A,3,14,22,27,09,12,,,,,,,,6.5,3.7,5.3*39
$GPRMC,071030.000,A,5229.6220,N,01319.4680,E,1.36,62.39,110912,,,A*51
$GPGGA,071031.000,5229.6221,N,01319.4684,E,1,05,3.7,40.8,M,44.8,M,,0000*62
$GPGSA,A,3,14,22,27,09,12,,,,,,,,6.5,3.7,5.3*39
$GPGSV,3,1,12,09,83,121,30,27,71,121,27,12,51,245,22,17,35,055,*7B
$GPGSV,3,2,12,15,27,186,,14,22,316,35,25,13,247,16,22,11,290,21*79
$GPGSV,3,3,12,04,08,105,,18,05,252,21,28,02,064,,01,02,007,*76
$GPRMC,071034.000,A,5229.6219,N,01319.4691,E,0.83,194.77,110912,,,A*62
$GPGGA,071035.000,5229.6218,N,01319.4692,E,1,05,3.7,39.3,M,44.8,M,,0000*6E
$GPGSA,A,3,14,22,27,09,12,,,,,,,,6.5,3.7,5.3*39
$GPRMC,071038.000,A,5229.6214,N,01319.4689,E,0.96,191.55,110912,,,A*6B
$GPGGA,071039.000,5229.6212,N,01319.4686,E,1,06,2.0,39.4,M,44.8,M,,0000*6F
$GPGSA,A,3,14,22,27,09,15,12,,,,,,,3.1,2.0,2.3*3D
$GPRMC,071039.000,A,5229.6212,N,01319.4686,E,1.05,205.82,110912,,,A*6C
$GPGGA,071040.000,5229.6210,N,01319.4682,E,1,06,2.0,39.5,M,44.8,M,,0000*66
$GPGSA,A,3,14,22,27,09,15,12,,,,,,,3.1,2.0,2.3*3D
$GPRMC,071040.000,A,5229.6210,N,01319.4682,E,1.27,207.38,110912,,,A*67
$GPGGA,071041.000,5229.6207,N,01319.4681,E,1,06,2.0,39.2,M,44.8,M,,0000*65
$GPGSA,A,3,14,22,27,09,15,12,,,,,,,3.1,2.0,2.3*3D
$GPGSV,3,1,12,09,83,121,31,27,71,121,27,12,51,245,22,17,35,055,*7A
$GPGSV,3,2,12,15,27,186,14,14,22,316,35,25,13,247,16,22,11,290,22*7F
$GPGSV,3,3,12,04,08,105,,18,05,252,21,28,02,064,,01,02,007,*76
$GPRMC,071041.000,A,5229.6207,N,01319.4681,E,1.33,192.51,110912,,,A*66
$GPGGA,071042.000,5229.6206,N,01319.4683,E,1,06,2.0,38.6,M,44.8,M,,0000*60
$GPGSA,A,3,14,22,27,09,15,12,,,,,,,3.1,2.0,2.3*3D
$GPRMC,071042.000,A,5229.6206,N,01319.4683,E,0.88,158.79,110912,,,A*6B
$GPGGA,071043.000,5229.6203,N,01319.4686,E,1,06,2.0,37.9,M,44.8,M,,0000*61
$GPGSA,A,3,14,22,27,09,15,12,,,,,,,3.1,2.0,2.3*3D
$GPRMC,071043.000,A,5229.6203,N,01319.4686,E,1.25,162.93,110912,,,A*61
$GPGGA,071044.000,5229.6198,N,01319.4686,E,1,06,2.0,36.9,M,44.8,M,,0000*66
$GPGSA,A,3,14,22,27,09,15,12,,,,,,,3.1,2.0,2.3*3D
$GPRMC,071044.000,A,5229.6198,N,01319.4686,E,1.96,194.94,110912,,,A*61
$GPGGA,071045.000,5229.6193,N,01319.4686,E,1,06,2.0,35.6,M,44.8,M,,0000*60
$GPGSA,A,3,14,22,27,09,15,12,,,,,,,3.1,2.0,2.3*3D
$GPRMC,071045.000,A,5229.6193,N,01319.4686,E,2.16,194.90,110912,,,A*64
$GPGGA,071046.000,5229.6189,N,01319.4689,E,1,05,3.7,34.3,M,44.8,M,,0000*66
$GPGSA,A,3,14,22,27,09,12,,,,,,,,6.4,3.7,5.3*38
$GPGSV,3,1,12,09,83,122,31,27,71,121,27,12,51,245,22,17,34,054,*79
$GPGSV,3,2,12,15,27,186,,14,22,316,35,25,13,247,15,22,11,290,21*7A
$GPGSV,3,3,12,04,08,105,,18,04,252,22,28,02,064,,01,02,007,*74
$GPRMC,071046.000,A,5229.6189,N,01319.4689,E,1.38,174.69,110912,,,A*64
$GPGGA,071047.000,5229.6186,N,01319.4691,E,1,05,3.7,33.1,M,44.8,M,,0000*64
$GPGSA,A,3,14,22,27,09,12,,,,,,,,6.4,3.7,5.3*38
$GPRMC,071047.000,A,5229.6186,N,01319.4691,E,1.29,181.74,110912,,,A*65
$GPGGA,071048.000,5229.6184,N,01319.4696,E,1,05,3.7,31.9,M,44.8,M,,0000*64
$GPGSA,A,3,14,22,27,09,12,,,,,,,,6.4,3.7,5.3*38
$GPRMC,071048.000,A,5229.6184,N,01319.4696,E,0.96,149.58,110912,,,A*60
$GPGGA,071049.000,5229.6181,N,01319.4697,E,1,05,3.7,30.7,M,44.8,M,,0000*6E
$GPGSA,A,3,14,22,27,09,12,,,,,,,,6.4,3.7,5.3*38
$GPRMC,071049.000,A,5229.6181,N,01319.4697,E,1.34,176.16,110912,,,A*6A
$GPGGA,071050.000,5229.6178,N,01319.4699,E,1,05,3.7,29.6,M,44.8,M,,0000*67
$GPGSA,A,3,14,22,27,09,12,,,,,,,,6.4,3.7,5.3*38
$GPRMC,071050.000,A,5229.6178,N,01319.4699,E,1.07,172.72,110912,,,A*6C
$GPGGA,071051.000,5229.6176,N,01319.4703,E,1,05,3.7,28.3,M,44.8,M,,0000*6E
$GPGSA,A,3,14,22,27,09,12,,,,,,,,6.4,3.7,5.3*38
$GPGSV,3,1,12,09,83,122,31,27,71,121,27,12,51,245,21,17,34,054,*7A
$GPGSV,3,2,12,15,27,186,,14,22,316,34,25,13,247,14,22,11,290,21*7A
$GPGSV,3,3,12,04,08,105,,18,04,252,22,28,02,064,,01,02,007,*74
$GPRMC,071051.000,A,5229.6176,N,01319.4703,E,0.84,133.41,110912,,,A*6E
$GPGGA,071052.000,5229.6175,N,01319.4708,E,1,05,3.7,27.2,M,44.8,M,,0000*6B
$GPGSA,A,3,14,22,27,09,12,,,,,,,,6.4,3.7,5.3*38
$GPRMC,071052.000,A,5229.6175,N,01319.4708,E,1.11,135.28,110912,,,A*61
$GPGGA,071053.000,5229.6173,N,01319.4712,E,1,05,3.7,26.1,M,44.8,M,,0000*65
$GPGSA,A,3,14,22,27,09,12,,,,,,,,6.4,3.7,5.3*38
$GPRMC,071053.000,A,5229.6173,N,01319.4712,E,1.13,138.36,110912,,,A*6D
$GPGGA,071054.000,5229.6171,N,01319.4716,E,1,05,3.7,25.0,M,44.8,M,,0000*66
$GPGSA,A,3,14,22,27,09,12,,,,,,,,6.4,3.7,5.3*38
$GPRMC,071054.000,A,5229.6171,N,01319.4716,E,1.21,141.29,110912,,,A*6D
$GPGGA,071055.000,5229.6169,N,01319.4722,E,1,05,3.7,23.8,M,44.8,M,,0000*67
$GPGSA,A,3,14,22,27,09,12,,,,,,,,6.4,3.7,5.2*39
$GPRMC,071055.000,A,5229.6169,N,01319.4722,E,1.20,140.68,110912,,,A*67
$GPGGA,071056.000,5229.6166,N,01319.4723,E,1,05,3.7,22.9,M,44.8,M,,0000*6A
$GPGSA,A,3,14,22,27,09,12,,,,,,,,6.4,3.7,5.2*39
$GPGSV,3,1,12,09,83,122,31,27,71,121,27,12,51,245,21,17,34,054,*7A
$GPGSV,3,2,12,15,27,186,,14,22,316,34,25,13,247,15,22,11,290,20*7A
$GPGSV,3,3,12,04,08,105,,18,04,252,22,28,02,064,,01,02,007,*74
$GPRMC,071056.000,A,5229.6166,N,01319.4723,E,1.31,169.09,110912,,,A*66
$GPGGA,071057.000,5229.6165,N,01319.4728,E,1,05,3.7,21.8,M,44.8,M,,0000*61
$GPGSA,A,3,14,22,27,09,12,,,,,,,,6.4,3.7,5.2*39
$GPRMC,071057.000,A,5229.6165,N,01319.4728,E,1.04,130.50,110912,,,A*69
$GPGGA,071058.000,5229.6165,N,01319.4735,E,1,05,3.7,20.6,M,44.8,M,,0000*6D
$GPGSA,A,3,14,22,27,09,12,,,,,,,,6.4,3.7,5.2*39
$GPRMC,071058.000,A,5229.6165,N,01319.4735,E,1.21,115.62,110912,,,A*6B
$GPGGA,071059.000,5229.6164,N,01319.4742,E,1,05,3.7,19.5,M,44.8,M,,0000*64
$GPGSA,A,3,14,22,27,09,12,,,,,,,,6.4,3.7,5.2*39
$GPRMC,071059.000,A,5229.6164,N,01319.4742,E,1.28,120.22,110912,,,A*60
$GPGGA,071100.000,5229.6164,N,01319.4751,E,1,05,3.7,18.2,M,44.8,M,,0000*6D
$GPGSA,A,3,14,22,27,09,12,,,,,,,,6.4,3.7,5.2*39
$GPRMC,071100.000,A,5229.6164,N,01319.4751,E,1.50,110.99,110912,,,A*63
$GPGGA,071101.000,5229.6163,N,01319.4761,E,1,05,3.7,17.0,M,44.8,M,,0000*65
$GPGSA,A,3,14,22,27,09,12,,,,,,,,6.4,3.7,5.2*39
$GPGSV,3,1,12,09,83,122,28,27,71,121,17,12,51,245,20,17,34,054,*70
$GPGSV,3,2,12,15,27,186,,14,22,316,28,25,13,247,15,22,11,290,20*77
$GPGSV,3,3,12,04,08,105,,18,04,252,21,28,02,064,,01,02,007,*77
$GPRMC,071101.000,A,5229.6163,N,01319.4761,E,1.66,113.63,110912,,,A*65
$GPGGA,071102.000,5229.6162,N,01319.4770,E,1,05,3.7,15.9,M,44.8,M,,0000*6C
$GPGSA,A,3,14,22,27,09,12,,,,,,,,6.4,3.7,5.2*39
$GPRMC,071102.000,A,5229.6162,N,01319.4770,E,1.92,109.73,110912,,,A*66
$GPGGA,071103.000,5229.6164,N,01319.4780,E,1,04,3.4,15.5,M,44.8,M,,0000*6A
$GPGSA,A,3,14,22,27,09,,,,,,,,,3.6,3.4,1.0*38
$GPRMC,071103.000,A,5229.6164,N,01319.4780,E,2.12,84.50,110912,,,A*50
$GPGGA,071104.000,5229.6167,N,01319.4785,E,1,04,3.4,15.4,M,44.8,M,,0000*6A
$GPGSA,A,3,14,22,27,09,,,,,,,,,3.6,3.4,1.0*38
$GPRMC,071104.000,A,5229.6167,N,01319.4785,E,1.22,80.62,110912,,,A*54
$GPGGA,071105.000,5229.6170,N,01319.4787,E,1,04,3.4,15.7,M,44.8,M,,0000*6C
$GPGSA,A,3,14,22,27,09,,,,,,,,,3.6,3.4,1.0*38
$GPRMC,071113.000,A,5229.6196,N,01319.4779,E,0.91,34.97,110912,,,A*53
$GPGGA,071114.000,5229.6200,N,01319.4776,E,1,05,3.7,21.8,M,44.8,M,,0000*6C
$GPGSA,A,3,14,22,27,09,12,,,,,,,,6.3,3.7,5.2*3E
$GPRMC,071125.000,A,5229.6240,N,01319.4730,E,0.92,254.50,110912,,,A*6F
$GPGGA,071126.000,5229.6242,N,01319.4724,E,1,05,3.6,35.5,M,44.8,M,,0000*65
$GPGSA,A,3,14,22,27,09,12,,,,,,,,6.3,3.6,5.1*3C
$GPGSV,3,1,12,09,83,122,29,27,70,121,25,12,52,245,23,17,34,054,15*75
$GPGSV,3,2,12,15,26,185,,14,22,316,33,25,13,247,19,22,11,289,25*7E
$GPGSV,3,3,12,04,08,105,,18,04,252,20,28,02,064,,01,02,007,*76
$GPRMC,071126.000,A,5229.6242,N,01319.4724,E,1.07,250.37,110912,,,A*63
$GPGGA,071127.000,5229.6244,N,01319.4717,E,1,04,2.3,36.7,M,44.8,M,,0000*66
$GPGSA,A,3,14,22,09,12,,,,,,,,,2.5,2.3,1.0*3A
$GPRMC,071127.000,A,5229.6244,N,01319.4717,E,1.21,255.88,110912,,,A*61
$GPGGA,071128.000,5229.6246,N,01319.4710,E,0,00,,37.9,M,44.8,M,,0000*49
$GPGSA,A,1,,,,,,,,,,,,,,,*1E
$GPRMC,071130.000,A,5229.6251,N,01319.4693,E,2.03,278.81,110912,,,A*6B
$GPGGA,071131.000,5229.6254,N,01319.4683,E,0,00,,41.1,M,44.8,M,,0000*40
$GPGSA,A,1,,,,,,,,,,,,,,,*1E
$GPGSV,3,1,12,09,83,122,15,27,70,121,12,12,52,245,12,17,34,054,13*7A
$GPGSV,3,2,12,15,26,185,,14,22,316,28,25,13,247,,22,11,289,*7B
$GPGSV,3,3,12,04,08,105,,18,04,252,07,28,02,064,,01,02,007,*73
$GPRMC,071136.000,A,5229.6265,N,01319.4640,E,1.09,315.29,110912,,,A*65
$GPGGA,071137.000,5229.6264,N,01319.4641,E,1,03,3.6,45.4,M,44.8,M,,0000*63
$GPGSA,A,2,14,22,15,,,,,,,,,,3.7,3.6,1.0*32
$GPRMC,071137.000,A,5229.6264,N,01319.4641,E,1.53,343.83,110912,,,A*68
$GPGGA,071138.000,5229.6266,N,01319.4643,E,1,04,6.5,45.6,M,44.8,M,,0000*6F
$GPGSA,A,3,14,22,09,15,,,,,,,,,9.2,6.5,6.5*31
$GPRMC,071138.000,A,5229.6266,N,01319.4643,E,2.44,350.57,110912,,,A*69
$GPGGA,071139.000,5229.6269,N,01319.4651,E,1,03,3.1,45.7,M,44.8,M,,0000*65
$GPGSA,A,2,14,09,15,,,,,,,,,,3.3,3.1,1.0*38
$GPRMC,071139.000,A,5229.6269,N,01319.4651,E,2.57,27.38,110912,,,A*5C
$GPGGA,071140.000,5229.6271,N,01319.4656,E,1,03,3.6,45.8,M,44.8,M,,0000*6D
$GPGSA,A,2,14,22,15,,,,,,,,,,3.7,3.6,1.0*32
$GPRMC,071140.000,A,5229.6271,N,01319.4656,E,2.16,21.17,110912,,,A*52
$GPGGA,071141.000,5229.6272,N,01319.4657,E,1,03,3.5,45.8,M,44.8,M,,0000*6D
$GPGSA,A,2,14,22,09,,,,,,,,,,3.6,3.5,1.0*3D
$GPGSV,3,1,12,09,83,122,15,27,70,121,,12,52,245,,17,34,054,*78
$GPGSV,3,2,12,15,26,185,,14,22,316,28,25,13,247,,22,11,289,24*7D
$GPGSV,3,3,12,04,08,105,,18,04,252,,28,02,064,,01,02,007,*74
$GPRMC,071141.000,A,5229.6272,N,01319.4657,E,1.34,350.98,110912,,,A*60
$GPGGA,071142.000,5229.6273,N,01319.4656,E,0,00,,45.9,M,44.8,M,,0000*45
$GPGSA,A,1,,,,,,,,,,,,,,,*1E
$GPRMC,071143.000,A,5229.6275,N,01319.4655,E,1.84,342.56,110912,,,A*6D
$GPGGA,071144.000,5229.6281,N,01319.4644,E,1,04,3.3,46.0,M,44.8,M,,0000*6C
$GPGSA,A,3,14,22,17,09,,,,,,,,,4.9,3.3,3.6*30
$GPRMC,071144.000,A,5229.6281,N,01319.4644,E,3.36,333.31,110912,,,A*6D
$GPGGA,071145.000,5229.6292,N,01319.4635,E,1,04,3.3,45.8,M,44.8,M,,0000*62
$GPGSA,A,3,14,22,17,09,,,,,,,,,4.9,3.3,3.6*30
$GPRMC,071145.000,A,5229.6292,N,01319.4635,E,4.60,342.33,110912,,,A*68
$GPGGA,071146.000,5229.6306,N,01319.4626,E,1,05,2.9,45.6,M,44.8,M,,0000*6B
$GPGSA,A,3,14,22,17,09,27,,,,,,,,4.6,2.9,3.6*31
$GPGSV,3,1,12,09,83,122,14,27,70,121,15,12,52,245,,17,34,054,15*79
$GPGSV,3,2,12,15,26,185,,14,22,316,23,25,13,247,,22,11,289,19*78
$GPGSV,3,3,12,04,08,105,,18,04,252,,28,02,064,,01,02,007,*74
$GPRMC,071146.000,A,5229.6306,N,01319.4626,E,5.57,345.75,110912,,,A*65
$GPGGA,071147.000,5229.6318,N,01319.4616,E,1,05,2.9,45.2,M,44.8,M,,0000*62
$GPGSA,A,3,14,22,17,09,27,,,,,,,,4.6,2.9,3.6*31
$GPRMC,071147.000,A,5229.6318,N,01319.4616,E,5.13,337.65,110912,,,A*6C
$GPGGA,071148.000,5229.6326,N,01319.4601,E,1,05,2.9,44.8,M,44.8,M,,0000*6D
$GPGSA,A,3,14,22,17,09,27,,,,,,,,4.6,2.9,3.6*31
$GPRMC,071148.000,A,5229.6326,N,01319.4601,E,4.68,318.90,110912,,,A*62
$GPGGA,071149.000,5229.6334,N,01319.4583,E,1,05,2.9,44.8,M,44.8,M,,0000*66
$GPGSA,A,3,14,22,17,09,27,,,,,,,,4.6,2.9,3.6*31
$GPRMC,071149.000,A,5229.6334,N,01319.4583,E,5.38,313.79,110912,,,A*61
$GPGGA,071150.000,5229.6339,N,01319.4561,E,1,05,2.9,44.9,M,44.8,M,,0000*6E
$GPGSA,A,3,14,22,17,09,27,,,,,,,,4.6,2.9,3.6*31
$GPRMC,071150.000,A,5229.6339,N,01319.4561,E,5.54,304.26,110912,,,A*6E
$GPGGA,071151.000,5229.6344,N,01319.4536,E,1,05,2.9,45.2,M,44.8,M,,0000*6D
$GPGSA,A,3,14,22,17,09,27,,,,,,,,4.6,2.9,3.6*31
$GPGSV,3,1,12,09,83,122,13,27,70,121,16,12,52,245,,17,34,054,13*7B
$GPGSV,3,2,12,15,26,185,,14,22,316,29,25,13,247,,22,11,289,21*79
$GPGSV,3,3,12,04,08,105,,18,04,252,,28,02,064,,01,02,007,*74
$GPRMC,071151.000,A,5229.6344,N,01319.4536,E,5.82,299.90,110912,,,A*64
$GPGGA,071152.000,5229.6349,N,01319.4517,E,1,03,3.5,45.6,M,44.8,M,,0000*6F
$GPGSA,A,2,14,22,09,,,,,,,,,,3.6,3.5,1.0*3D
$GPRMC,071152.000,A,5229.6349,N,01319.4517,E,4.77,302.52,110912,,,A*6F
$GPGGA,071153.000,5229.6355,N,01319.4501,E,1,03,3.5,46.0,M,44.8,M,,0000*61
$GPGSA,A,2,14,22,09,,,,,,,,,,3.6,3.5,1.0*3D
$GPRMC,071153.000,A,5229.6355,N,01319.4501,E,4.55,313.98,110912,,,A*62
$GPGGA,071154.000,5229.6362,N,01319.4487,E,1,03,3.5,46.3,M,44.8,M,,0000*6E
$GPGSA,A,2,14,22,09,,,,,,,,,,3.6,3.5,1.0*3D
$GPRMC,071154.000,A,5229.6362,N,01319.4487,E,4.44,320.56,110912,,,A*6C
$GPGGA,071155.000,5229.6368,N,01319.4474,E,1,03,3.5,46.6,M,44.8,M,,0000*6C
$GPGSA,A,2,14,22,09,,,,,,,,,,3.6,3.5,1.0*3D
$GPRMC,071155.000,A,5229.6368,N,01319.4474,E,3.95,319.76,110912,,,A*68
$GPGGA,071156.000,5229.6372,N,01319.4465,E,1,03,3.5,46.8,M,44.8,M,,0000*6A
$GPGSA,A,2,14,22,09,,,,,,,,,,3.6,3.5,1.0*3D
$GPGSV,3,1,12,09,83,122,13,27,70,121,16,12,52,245,,17,34,054,*79
$GPGSV,3,2,12,15,26,185,,14,22,316,31,25,13,247,,22,11,289,25*74
$GPGSV,3,3,12,04,08,105,,18,04,252,,28,02,064,,01,02,007,*74
