$GPRMC,045411.748,A,5229.6535,N,01319.5075,E,4.47,44.12,150912,,,A*5E
$GPGGA,045412.748,5229.6598,N,01319.5163,E,1,03,4.9,55.6,M,44.8,M,,0000*64
$GPGSA,A,2,18,26,09,,,,,,,,,,5.0,4.9,1.0*3E
$GPRMC,045414.748,A,5229.6684,N,01319.5299,E,4.83,223.39,150912,,,A*60
$GPGGA,045415.748,5229.6719,N,01319.5372,E,1,03,4.9,55.6,M,44.8,M,,0000*6A
$GPGSA,A,2,18,26,09,,,,,,,,,,5.0,4.9,1.0*3E
$GPRMC,045415.748,A,5229.6719,N,01319.5372,E,2.44,224.37,150912,,,A*64
$GPGGA,045416.748,5229.6580,N,01319.5168,E,1,03,4.9,55.6,M,44.8,M,,0000*62
$GPGSA,A,2,18,26,09,,,,,,,,,,5.0,4.9,1.0*3E
$GPRMC,045416.748,A,5229.6580,N,01319.5168,E,0.91,47.80,150912,,,A*5D
$GPGGA,045417.748,5229.6563,N,01319.5139,E,1,03,4.9,55.6,M,44.8,M,,0000*6A
$GPGSA,A,2,18,26,09,,,,,,,,,,5.0,4.9,1.0*3E
$GPRMC,045417.748,A,5229.6563,N,01319.5139,E,7.77,43.35,150912,,,A*50
$GPGGA,045418.748,5229.6624,N,01319.5226,E,1,03,4.9,55.6,M,44.8,M,,0000*68
$GPGSA,A,2,18,26,09,,,,,,,,,,5.0,4.9,1.0*3E
$GPRMC,045419.748,A,5229.6642,N,01319.5250,E,1.96,46.92,150912,,,A*53
$GPGGA,045420.748,5229.6658,N,01319.5267,E,1,03,4.9,55.6,M,44.8,M,,0000*6D
$GPGSA,A,2,18,26,09,,,,,,,,,,5.0,4.9,1.0*3E
$GPRMC,045420.748,A,5229.6658,N,01319.5267,E,2.12,45.03,150912,,,A*52
$GPGGA,045421.748,5229.6669,N,01319.5280,E,1,03,4.9,55.6,M,44.8,M,,0000*67
$GPGSA,A,2,18,26,09,,,,,,,,,,5.0,4.9,1.0*3E
$GPRMC,045421.748,A,5229.6669,N,01319.5280,E,3.56,223.51,150912,,,A*6C
$GPGGA,045422.748,5229.6644,N,01319.5082,E,1,03,4.9,55.6,M,44.8,M,,0000*6B
$GPGSA,A,2,18,26,09,,,,,,,,,,5.0,4.9,1.0*3E
$GPRMC,045422.748,A,5229.6644,N,01319.5082,E,5.75,217.19,150912,,,A*6C
$GPGGA,045423.748,5229.6593,N,01319.5097,E,1,03,4.9,55.6,M,44.8,M,,0000*67
$GPGSA,A,2,18,26,09,,,,,,,,,,5.0,4.9,1.0*3E
$GPRMC,045423.748,A,5229.6593,N,01319.5097,E,0.93,35.88,150912,,,A*57
$GPGGA,045424.748,5229.6562,N,01319.5003,E,1,03,4.9,55.6,M,44.8,M,,0000*63
$GPGSA,A,2,18,26,09,,,,,,,,,,5.0,4.9,1.0*3E
$GPGSV,3,1,11,26,53,152,23,09,39,276,20,18,25,300,38,15,69,253,*75
$GPGSV,3,2,11,27,55,280,25,28,49,061,23,17,30,117,18,08,16,083,10*7F
$GPGSV,3,3,11,22,05,334,21,11,03,037,,12,00,220,*4F
$GPRMC,045424.748,A,5229.6562,N,01319.5003,E,7.50,225.89,150912,,,A*69
$GPGGA,045425.748,5229.6531,N,01319.4907,E,1,03,4.9,55.6,M,44.8,M,,0000*68
$GPGSA,A,2,18,26,09,,,,,,,,,,5.0,4.9,1.0*3E
$GPRMC,045425.748,A,5229.6531,N,01319.4907,E,11.66,221.85,150912,,,A*58
$GPGGA,045426.748,5229.6368,N,01319.4666,E,1,03,4.9,55.6,M,44.8,M,,0000*69
$GPGSA,A,2,18,26,09,,,,,,,,,,5.0,4.9,1.0*3E
$GPRMC,045426.748,A,5229.6368,N,01319.4666,E,1.82,17.91,150912,,,A*50
$GPGGA,045427.748,5229.6386,N,01319.4738,E,1,03,4.9,55.6,M,44.8,M,,0000*62
$GPGSA,A,2,18,26,09,,,,,,,,,,5.0,4.9,1.0*3E
$GPRMC,045427.748,A,5229.6386,N,01319.4738,E,6.42,39.86,150912,,,A*5A
$GPGGA,045428.748,5229.6474,N,01319.4985,E,1,03,4.9,55.6,M,44.8,M,,0000*6F
$GPGSA,A,2,18,26,09,,,,,,,,,,5.0,4.9,1.0*3E
$GPRMC,045428.748,A,5229.6474,N,01319.4985,E,1.01,82.20,150912,,,A*5B
$GPGGA,045429.748,5229.6412,N,01319.4818,E,1,03,4.9,55.6,M,44.8,M,,0000*6B
$GPGSA,A,2,18,26,09,,,,,,,,,,5.0,4.9,1.0*3E
$GPGSV,3,1,11,26,53,152,22,09,39,276,20,18,25,300,39,15,69,253,17*73
$GPGSV,3,2,11,27,55,280,25,28,49,061,22,17,30,117,19,08,16,083,*7E
$GPGSV,3,3,11,22,05,334,24,11,03,037,,12,00,220,*4A
$GPRMC,045429.748,A,5229.6412,N,01319.4818,E,1.28,44.11,150912,,,A*5C
$GPGGA,045430.748,5229.6328,N,01319.4711,E,1,03,4.9,55.6,M,44.8,M,,0000*6B
$GPGSA,A,2,18,26,09,,,,,,,,,,5.0,4.9,1.0*3E
$GPRMC,045430.748,A,5229.6328,N,01319.4711,E,8.58,33.14,150912,,,A*57
$GPGGA,045431.748,5229.6293,N,01319.4537,E,1,03,4.9,55.6,M,44.8,M,,0000*6D
$GPGSA,A,2,18,26,09,,,,,,,,,,5.0,4.9,1.0*3E
$GPRMC,045431.748,A,5229.6293,N,01319.4537,E,5.74,28.32,150912,,,A*5C
$GPGGA,045432.748,,,,,0,00,,,M,0.0,M,,0000*59
$GPGSA,A,1,,,,,,,,,,,,,,,*1E
$GPRMC,045435.748,A,5229.6394,N,01319.4803,E,3.13,59.61,150912,,,A*53
$GPGGA,045436.748,5229.6553,N,01319.5126,E,1,03,5.0,55.6,M,44.8,M,,0000*6C
$GPGSA,A,2,18,26,09,,,,,,,,,,5.1,5.0,1.0*37
$GPRMC,045436.748,A,5229.6553,N,01319.5126,E,2.05,78.66,150912,,,A*50
$GPGGA,045437.748,5229.6473,N,01319.5037,E,1,03,5.0,55.6,M,44.8,M,,0000*6F
$GPGSA,A,2,18,26,09,,,,,,,,,,5.1,5.0,1.0*37
$GPRMC,045437.748,A,5229.6473,N,01319.5037,E,2.29,56.90,150912,,,A*58
$GPGGA,045438.748,5229.6463,N,01319.4928,E,1,03,5.0,55.6,M,44.8,M,,0000*67
$GPGSA,A,2,18,26,09,,,,,,,,,,5.1,5.0,1.0*37
$GPRMC,045439.748,A,5229.6476,N,01319.4895,E,1.74,279.83,150912,,,A*64
$GPGGA,045440.748,5229.6475,N,01319.4801,E,1,03,5.0,55.6,M,44.8,M,,0000*65
$GPGSA,A,2,18,26,09,,,,,,,,,,5.1,5.0,1.0*37
$GPRMC,045440.748,A,5229.6475,N,01319.4801,E,1.30,286.38,150912,,,A*64
$GPGGA,045441.748,5229.6466,N,01319.4778,E,1,03,5.0,55.6,M,44.8,M,,0000*67
$GPGSA,A,2,18,26,09,,,,,,,,,,5.1,5.0,1.0*37
$GPRMC,045455.748,A,5229.6645,N,01319.4850,E,4.10,63.97,150912,,,A*5E
$GPGGA,045456.748,5229.6637,N,01319.4829,E,1,03,5.0,55.6,M,44.8,M,,0000*6C
$GPGSA,A,2,18,26,09,,,,,,,,,,5.1,5.0,1.0*37
$GPRMC,045457.748,A,5229.6716,N,01319.4889,E,2.17,68.79,150912,,,A*55
$GPGGA,045458.748,5229.6650,N,01319.4866,E,1,03,5.0,55.6,M,44.8,M,,0000*68
$GPGSA,A,2,18,26,09,,,,,,,,,,5.1,5.0,1.0*37
$GPRMC,045459.748,A,5229.6716,N,01319.4895,E,1.24,348.82,150912,,,A*60
$GPGGA,045500.748,5229.6717,N,01319.4961,E,1,03,5.0,55.6,M,44.8,M,,0000*60
$GPGSA,A,2,18,26,09,,,,,,,,,,5.1,5.0,1.0*37
$GPRMC,045500.748,A,5229.6717,N,01319.4961,E,3.11,51.91,150912,,,A*5B
$GPGGA,045501.748,5229.6761,N,01319.5088,E,1,03,5.0,55.6,M,44.8,M,,0000*6F
$GPGSA,A,2,18,26,09,,,,,,,,,,5.1,5.0,1.0*37
$GPRMC,045503.748,A,5229.6726,N,01319.4979,E,1.76,221.31,150912,,,A*6F
$GPGGA,045504.000,5229.6726,N,01319.4979,E,1,04,5.8,79.6,M,44.8,M,,0000*65
$GPGSA,A,3,18,26,09,27,,,,,,,,,7.6,5.8,4.9*32
$GPRMC,045504.000,A,5229.6726,N,01319.4979,E,2.00,225.72,150912,,,A*62
$GPGGA,045505.000,5229.6726,N,01319.4981,E,1,04,5.8,79.3,M,44.8,M,,0000*66
$GPGSA,A,3,18,26,09,27,,,,,,,,,7.6,5.8,4.9*32
$GPGSV,3,1,11,27,56,280,29,26,52,152,19,09,40,276,23,18,25,300,40*77
$GPGSV,3,2,11,15,70,251,21,28,49,061,25,17,30,117,23,08,15,083,*7D
$GPGSV,3,3,11,22,06,334,22,11,03,036,,12,00,220,*4E
$GPRMC,045505.000,A,5229.6726,N,01319.4981,E,1.46,215.86,150912,,,A*6D
$GPGGA,045506.000,5229.6727,N,01319.4984,E,1,04,5.8,79.0,M,44.8,M,,0000*62
$GPGSA,A,3,18,26,09,27,,,,,,,,,7.6,5.8,4.9*32
$GPRMC,045506.000,A,5229.6727,N,01319.4984,E,1.85,228.06,150912,,,A*63
$GPGGA,045507.000,5229.6731,N,01319.4991,E,1,04,5.8,79.0,M,44.8,M,,0000*60
$GPGSA,A,3,18,26,09,27,,,,,,,,,7.6,5.8,4.9*32
$GPRMC,045507.000,A,5229.6731,N,01319.4991,E,1.93,229.22,150912,,,A*61
$GPGGA,045508.000,5229.6738,N,01319.5003,E,1,04,5.8,79.3,M,44.8,M,,0000*66
$GPGSA,A,3,18,26,09,27,,,,,,,,,7.6,5.8,4.9*32
$GPRMC,045508.000,A,5229.6738,N,01319.5003,E,1.52,227.65,150912,,,A*64
$GPGGA,045509.000,5229.6744,N,01319.5012,E,0,03,,79.5,M,44.8,M,,0000*4F
$GPGSA,A,1,18,26,27,,,,,,,,,,,,*16
$GPRMC,045515.000,A,5229.6803,N,01319.5140,E,5.16,48.41,150912,,,A*50
$GPGGA,045516.000,5229.6816,N,01319.5167,E,1,04,5.8,79.2,M,44.8,M,,0000*68
$GPGSA,A,3,18,26,09,27,,,,,,,,,7.6,5.8,4.9*32
$GPRMC,045516.000,A,5229.6816,N,01319.5167,E,4.61,45.77,150912,,,A*5B
$GPGGA,045517.000,5229.6825,N,01319.5189,E,1,04,5.8,78.9,M,44.8,M,,0000*63
$GPGSA,A,3,18,26,09,27,,,,,,,,,7.6,5.8,4.9*32
$GPRMC,045517.000,A,5229.6825,N,01319.5189,E,4.33,48.28,150912,,,A*5A
$GPGGA,045518.000,5229.6833,N,01319.5209,E,1,04,5.8,78.7,M,44.8,M,,0000*6E
$GPGSA,A,3,18,26,09,27,,,,,,,,,7.6,5.8,4.9*32
$GPRMC,045518.000,A,5229.6833,N,01319.5209,E,4.21,47.28,150912,,,A*55
$GPGGA,045519.000,5229.6838,N,01319.5221,E,1,04,5.8,78.5,M,44.8,M,,0000*6C
$GPGSA,A,3,18,26,09,27,,,,,,,,,7.6,5.8,4.9*32
$GPRMC,045519.000,A,5229.6838,N,01319.5221,E,3.61,44.03,150912,,,A*5C
$GPGGA,045520.000,5229.6840,N,01319.5231,E,1,04,5.9,78.5,M,44.8,M,,0000*69
$GPGSA,A,3,18,26,09,27,,,,,,,,,7.6,5.9,4.9*33
$GPGSV,3,1,11,15,70,251,23,27,56,281,25,26,52,152,20,28,49,060,25*74
$GPGSV,3,2,11,09,40,276,18,17,30,117,23,18,25,300,39,08,15,084,*7B
$GPGSV,3,3,11,22,06,334,22,11,03,036,,12,00,220,*4E
$GPRMC,045520.000,A,5229.6840,N,01319.5231,E,3.08,49.44,150912,,,A*59
$GPGGA,045521.000,5229.6842,N,01319.5241,E,1,04,5.9,78.6,M,44.8,M,,0000*6E
$GPGSA,A,3,18,26,09,27,,,,,,,,,7.6,5.9,4.9*33
$GPRMC,045521.000,A,5229.6842,N,01319.5241,E,3.22,50.07,150912,,,A*5A
$GPGGA,045522.000,5229.6843,N,01319.5247,E,1,04,5.9,78.9,M,44.8,M,,0000*65
$GPGSA,A,3,18,26,09,27,,,,,,,,,7.6,5.9,4.9*33
$GPRMC,045522.000,A,5229.6843,N,01319.5247,E,3.08,46.81,150912,,,A*5F
$GPGGA,045523.000,5229.6841,N,01319.5246,E,1,04,5.9,79.2,M,44.8,M,,0000*6D
$GPGSA,A,3,18,26,09,27,,,,,,,,,7.6,5.9,4.9*33
$GPRMC,045523.000,A,5229.6841,N,01319.5246,E,1.64,34.83,150912,,,A*52
$GPGGA,045524.000,5229.6837,N,01319.5242,E,1,04,5.9,79.8,M,44.8,M,,0000*65
$GPGSA,A,3,18,26,09,27,,,,,,,,,7.6,5.9,4.9*33
$GPRMC,045524.000,A,5229.6837,N,01319.5242,E,1.06,44.83,150912,,,A*53
$GPGGA,045525.000,5229.6833,N,01319.5238,E,1,04,5.9,80.1,M,44.8,M,,0000*62
$GPGSA,A,3,18,26,09,27,,,,,,,,,7.6,5.9,4.9*33
$GPGSV,3,1,11,15,70,251,23,27,56,281,23,26,52,152,20,28,49,060,25*72
$GPGSV,3,2,11,09,40,276,18,17,30,117,24,18,25,300,39,08,15,084,*7C
$GPGSV,3,3,11,22,06,334,22,11,03,036,,12,00,220,*4E
$GPRMC,045525.000,A,5229.6833,N,01319.5238,E,1.17,35.35,150912,,,A*50
$GPGGA,045526.000,5229.6826,N,01319.5229,E,1,04,5.9,80.5,M,44.8,M,,0000*61
$GPGSA,A,3,18,26,09,27,,,,,,,,,7.6,5.9,4.9*33
$GPRMC,045531.000,A,5229.6803,N,01319.5208,E,2.00,38.47,150912,,,A*58
$GPGGA,045532.000,5229.6801,N,01319.5207,E,0,03,,82.9,M,44.8,M,,0000*47
$GPGSA,A,1,18,26,27,,,,,,,,,,,,*16
$GPRMC,045533.000,A,5229.6799,N,01319.5209,E,2.88,44.13,150912,,,A*5D
$GPGGA,045534.000,5229.6795,N,01319.5211,E,0,03,,82.6,M,44.8,M,,0000*4B
$GPGSA,A,1,18,26,27,,,,,,,,,,,,*16
$GPRMC,045536.000,A,5229.6770,N,01319.5187,E,1.23,210.75,150912,,,A*6B
$GPGGA,045537.000,5229.6757,N,01319.5171,E,1,04,5.9,80.2,M,44.8,M,,0000*61
$GPGSA,A,3,18,26,09,27,,,,,,,,,7.6,5.9,4.8*32
$GPRMC,045537.000,A,5229.6757,N,01319.5171,E,1.19,227.07,150912,,,A*6E
$GPGGA,045538.000,5229.6744,N,01319.5155,E,1,04,5.9,79.1,M,44.8,M,,0000*6F
$GPGSA,A,3,18,26,09,27,,,,,,,,,7.6,5.9,4.8*32
$GPRMC,045538.000,A,5229.6744,N,01319.5155,E,1.08,241.80,150912,,,A*6A
$GPGGA,045539.000,5229.6733,N,01319.5139,E,1,04,5.9,77.9,M,44.8,M,,0000*62
$GPGSA,A,3,18,26,09,27,,,,,,,,,7.6,5.9,4.8*32
$GPRMC,045539.000,A,5229.6733,N,01319.5139,E,0.91,254.51,150912,,,A*68
$GPGGA,045540.000,5229.6719,N,01319.5124,E,1,04,5.9,76.5,M,44.8,M,,0000*65
$GPGSA,A,3,18,26,09,27,,,,,,,,,7.6,5.9,4.8*32
$GPGSV,3,1,11,15,70,251,23,27,56,281,25,26,52,152,20,28,49,060,24*75
$GPGSV,3,2,11,09,40,276,19,17,30,117,24,18,25,300,39,08,15,084,*7D
$GPGSV,3,3,11,22,06,334,22,11,03,036,,12,00,220,*4E
$GPRMC,045540.000,A,5229.6719,N,01319.5124,E,1.25,216.71,150912,,,A*68
$GPGGA,045541.000,5229.6708,N,01319.5116,E,0,03,,75.2,M,44.8,M,,0000*45
$GPGSA,A,1,18,26,27,,,,,,,,,,,,*16
$GPRMC,045542.000,A,5229.6694,N,01319.5110,E,1.40,135.46,150912,,,A*6C
$GPGGA,045543.000,5229.6679,N,01319.5100,E,1,04,5.9,71.7,M,44.8,M,,0000*62
$GPGSA,A,3,18,26,09,27,,,,,,,,,7.6,5.9,4.8*32
$GPRMC,045543.000,A,5229.6679,N,01319.5100,E,1.13,168.88,150912,,,A*63
$GPGGA,045544.000,5229.6663,N,01319.5087,E,1,04,5.9,69.7,M,44.8,M,,0000*69
$GPGSA,A,3,18,26,09,27,,,,,,,,,7.6,5.9,4.8*32
$GPRMC,045544.000,A,5229.6663,N,01319.5087,E,1.86,194.50,150912,,,A*6B
$GPGGA,045545.000,5229.6644,N,01319.5068,E,1,04,5.9,67.6,M,44.8,M,,0000*63
$GPGSA,A,3,18,26,09,27,,,,,,,,,7.6,5.9,4.8*32
$GPGSV,3,1,11,15,70,251,24,27,56,281,26,26,52,152,20,28,49,060,24*71
$GPGSV,3,2,11,09,40,276,18,17,30,117,23,18,25,300,39,08,15,084,*7B
$GPGSV,3,3,11,22,06,334,22,11,03,036,,12,00,220,*4E
$GPRMC,045545.000,A,5229.6644,N,01319.5068,E,3.12,211.43,150912,,,A*6D
$GPGGA,045546.000,5229.6626,N,01319.5051,E,0,03,,65.8,M,44.8,M,,0000*46
$GPGSA,A,1,18,26,27,,,,,,,,,,,,*16
$GPRMC,045559.000,A,5229.6514,N,01319.4951,E,3.88,215.84,150912,,,A*68
$GPGGA,045600.000,5229.6489,N,01319.4920,E,1,04,6.0,50.7,M,44.8,M,,0000*69
$GPGSA,A,3,18,26,27,09,,,,,,,,,7.7,6.0,4.8*39
$GPGSV,3,1,11,15,70,251,26,27,56,281,28,26,52,152,19,28,49,060,24*77
$GPGSV,3,2,11,09,40,276,15,17,30,117,22,18,25,300,39,08,15,084,*77
$GPGSV,3,3,11,22,06,334,22,11,03,036,,12,00,220,*4E
$GPRMC,045600.000,A,5229.6489,N,01319.4920,E,5.71,218.38,150912,,,A*6E
$GPGGA,045601.000,5229.6461,N,01319.4878,E,1,04,6.0,48.9,M,44.8,M,,0000*65
$GPGSA,A,3,18,26,27,09,,,,,,,,,7.7,6.0,4.8*39
$GPRMC,045601.000,A,5229.6461,N,01319.4878,E,6.76,227.18,150912,,,A*6F
$GPGGA,045602.000,5229.6436,N,01319.4838,E,1,03,7.6,47.3,M,44.8,M,,0000*65
$GPGSA,A,2,18,27,09,,,,,,,,,,7.7,7.6,1.0*36
$GPRMC,045602.000,A,5229.6436,N,01319.4838,E,6.33,231.13,150912,,,A*67
$GPGGA,045603.000,5229.6414,N,01319.4802,E,1,03,7.6,45.8,M,44.8,M,,0000*64
$GPGSA,A,2,18,27,09,,,,,,,,,,7.7,7.6,1.0*36
$GPRMC,045603.000,A,5229.6414,N,01319.4802,E,5.74,232.91,150912,,,A*66
$GPGGA,045604.000,5229.6398,N,01319.4776,E,1,03,7.6,44.4,M,44.8,M,,0000*61
$GPGSA,A,2,18,27,09,,,,,,,,,,7.7,7.6,1.0*36
$GPRMC,045604.000,A,5229.6398,N,01319.4776,E,3.75,232.41,150912,,,A*64
$GPGGA,045605.000,5229.6381,N,01319.4758,E,1,04,6.0,42.9,M,44.8,M,,0000*6F
$GPGSA,A,3,18,26,27,09,,,,,,,,,7.7,6.0,4.8*39
$GPGSV,3,1,11,15,70,251,26,27,56,281,28,26,52,152,17,28,49,060,23*7E
$GPGSV,3,2,11,09,40,276,16,17,30,117,22,18,25,300,39,08,15,084,*74
$GPGSV,3,3,11,22,06,334,22,11,03,036,,12,00,220,*4E
$GPRMC,045605.000,A,5229.6381,N,01319.4758,E,3.36,214.64,150912,,,A*65
$GPGGA,045606.000,5229.6364,N,01319.4740,E,1,04,6.0,41.2,M,44.8,M,,0000*66
$GPGSA,A,3,18,26,27,09,,,,,,,,,7.7,6.0,4.8*39
$GPRMC,045606.000,A,5229.6364,N,01319.4740,E,3.04,216.26,150912,,,A*61
$GPGGA,045607.000,5229.6349,N,01319.4723,E,1,03,7.6,39.7,M,44.8,M,,0000*67
$GPGSA,A,2,18,27,09,,,,,,,,,,7.7,7.6,1.0*36
$GPRMC,045607.000,A,5229.6349,N,01319.4723,E,3.20,221.03,150912,,,A*6F
$GPGGA,045608.000,5229.6337,N,01319.4712,E,1,04,6.0,38.1,M,44.8,M,,0000*64
$GPGSA,A,3,18,26,27,09,,,,,,,,,7.7,6.0,4.8*39
$GPRMC,045608.000,A,5229.6337,N,01319.4712,E,2.65,222.53,150912,,,A*6D
$GPGGA,045609.000,5229.6326,N,01319.4707,E,1,04,6.0,36.5,M,44.8,M,,0000*6B
$GPGSA,A,3,18,26,27,09,,,,,,,,,7.7,6.0,4.8*39
$GPRMC,045609.000,A,5229.6326,N,01319.4707,E,2.53,208.90,150912,,,A*6A
$GPGGA,045610.000,5229.6314,N,01319.4702,E,1,04,6.0,35.0,M,44.8,M,,0000*61
$GPGSA,A,3,18,26,27,09,,,,,,,,,7.7,6.0,4.8*39
$GPGSV,3,1,11,15,70,251,20,27,56,281,28,26,52,152,23,28,49,060,17*78
$GPGSV,3,2,11,09,40,276,18,17,30,117,22,18,25,300,37,08,15,084,*74
$GPGSV,3,3,11,22,06,334,27,11,03,036,,12,00,220,*4B
$GPRMC,045610.000,A,5229.6314,N,01319.4702,E,2.99,202.43,150912,,,A*64
$GPGGA,045611.000,5229.6305,N,01319.4696,E,0,03,,33.7,M,44.8,M,,0000*43
$GPGSA,A,1,18,26,27,,,,,,,,,,,,*16
$GPRMC,045613.000,A,5229.6294,N,01319.4690,E,1.34,221.20,150912,,,A*64
$GPGGA,045614.000,5229.6292,N,01319.4691,E,0,03,,30.4,M,44.8,M,,0000*4E
$GPGSA,A,1,18,26,27,,,,,,,,,,,,*16
$GPRMC,045621.000,A,5229.6322,N,01319.4772,E,3.53,44.79,150912,,,A*5A
$GPGGA,045622.000,5229.6328,N,01319.4777,E,1,04,6.1,26.6,M,44.8,M,,0000*68
$GPGSA,A,3,18,26,27,09,,,,,,,,,7.7,6.1,4.7*37
$GPRMC,045622.000,A,5229.6328,N,01319.4777,E,2.60,35.00,150912,,,A*5F
$GPGGA,045623.000,5229.6332,N,01319.4787,E,1,04,6.1,26.6,M,44.8,M,,0000*6D
$GPGSA,A,3,18,26,27,09,,,,,,,,,7.7,6.1,4.7*37
$GPRMC,045623.000,A,5229.6332,N,01319.4787,E,2.39,58.30,150912,,,A*5E
$GPGGA,045624.000,5229.6340,N,01319.4806,E,1,04,6.1,26.9,M,44.8,M,,0000*66
$GPGSA,A,3,18,26,27,09,,,,,,,,,7.7,6.1,4.7*37
$GPRMC,045624.000,A,5229.6340,N,01319.4806,E,3.82,57.68,150912,,,A*59
$GPGGA,045625.000,5229.6345,N,01319.4817,E,1,04,6.1,27.1,M,44.8,M,,0000*6B
$GPGSA,A,3,18,26,27,09,,,,,,,,,7.7,6.1,4.7*37
$GPGSV,3,1,11,15,70,249,23,27,56,281,23,26,52,152,23,28,48,060,20*7C
$GPGSV,3,2,11,09,40,277,26,17,30,116,21,18,25,299,39,08,15,084,*75
$GPGSV,3,3,11,22,06,333,26,11,03,036,,12,01,220,*4C
$GPRMC,045625.000,A,5229.6345,N,01319.4817,E,2.55,56.51,150912,,,A*5D
$GPGGA,045626.000,5229.6350,N,01319.4823,E,1,04,6.1,27.4,M,44.8,M,,0000*6E
$GPGSA,A,3,18,26,27,09,,,,,,,,,7.7,6.1,4.7*37
$GPRMC,045626.000,A,5229.6350,N,01319.4823,E,1.67,37.79,150912,,,A*52
$GPGGA,045627.000,5229.6352,N,01319.4822,E,1,04,6.1,27.7,M,44.8,M,,0000*6F
$GPGSA,A,3,18,26,27,09,,,,,,,,,7.7,6.1,4.7*37
$GPRMC,045633.000,A,5229.6368,N,01319.4825,E,3.83,42.26,150912,,,A*5B
$GPGGA,045634.000,5229.6380,N,01319.4845,E,1,04,6.1,29.4,M,44.8,M,,0000*6E
$GPGSA,A,3,18,26,27,09,,,,,,,,,7.7,6.1,4.7*37
$GPRMC,045634.000,A,5229.6380,N,01319.4845,E,4.34,47.98,150912,,,A*57
$GPGGA,045635.000,5229.6388,N,01319.4862,E,0,03,,29.8,M,44.8,M,,0000*41
$GPGSA,A,1,18,26,27,,,,,,,,,,,,*16
$GPGSV,3,1,11,15,70,249,14,27,56,281,21,26,52,152,20,28,48,060,15*7F
$GPGSV,3,2,11,09,40,277,16,17,30,116,20,18,25,299,40,08,15,084,*79
$GPGSV,3,3,11,22,06,333,23,11,03,036,,12,01,220,*49
$GPRMC,045640.000,A,5229.6374,N,01319.4838,E,4.43,225.74,150912,,,A*61
$GPGGA,045641.000,5229.6372,N,01319.4832,E,1,04,6.1,35.5,M,44.8,M,,0000*6D
$GPGSA,A,3,18,26,27,09,,,,,,,,,7.7,6.1,4.7*37
$GPRMC,045641.000,A,5229.6372,N,01319.4832,E,2.55,229.32,150912,,,A*63
$GPGGA,045642.000,5229.6369,N,01319.4827,E,1,04,6.1,36.9,M,44.8,M,,0000*6F
$GPGSA,A,3,18,26,27,09,,,,,,,,,7.7,6.1,4.7*37
$GPRMC,045642.000,A,5229.6369,N,01319.4827,E,2.05,223.30,150912,,,A*63
$GPGGA,045643.000,5229.6365,N,01319.4815,E,1,04,6.1,38.1,M,44.8,M,,0000*65
$GPGSA,A,3,18,26,27,09,,,,,,,,,7.7,6.1,4.7*37
$GPRMC,045643.000,A,5229.6365,N,01319.4815,E,2.41,239.04,150912,,,A*63
$GPGGA,045644.000,5229.6363,N,01319.4810,E,1,04,6.1,39.3,M,44.8,M,,0000*62
$GPGSA,A,3,18,26,27,09,,,,,,,,,7.7,6.1,4.7*37
$GPRMC,045644.000,A,5229.6363,N,01319.4810,E,1.10,241.76,150912,,,A*6A
$GPGGA,045645.000,5229.6358,N,01319.4806,E,1,04,6.1,40.2,M,44.8,M,,0000*63
$GPGSA,A,3,18,26,27,09,,,,,,,,,7.7,6.1,4.7*37
$GPGSV,3,1,11,15,70,249,21,27,56,281,27,26,52,152,21,28,48,060,15*7E
$GPGSV,3,2,11,09,40,277,23,17,30,116,14,18,25,299,40,08,15,084,*78
$GPGSV,3,3,11,22,06,333,23,11,03,036,,12,01,220,*49
$GPRMC,045645.000,A,5229.6358,N,01319.4806,E,1.25,204.48,150912,,,A*6E
$GPGGA,045646.000,5229.6352,N,01319.4799,E,1,04,6.1,40.7,M,44.8,M,,0000*66
$GPGSA,A,3,18,26,27,09,,,,,,,,,7.7,6.1,4.7*37
$GPRMC,045646.000,A,5229.6352,N,01319.4799,E,1.55,216.33,150912,,,A*66
$GPGGA,045647.000,5229.6343,N,01319.4784,E,1,04,6.1,41.0,M,44.8,M,,0000*6D
$GPGSA,A,3,18,26,27,09,,,,,,,,,7.7,6.1,4.7*37
$GPRMC,045647.000,A,5229.6343,N,01319.4784,E,2.39,238.56,150912,,,A*6D
$GPGGA,045648.000,5229.6337,N,01319.4771,E,1,04,6.1,41.1,M,44.8,M,,0000*6A
$GPGSA,A,3,18,26,27,09,,,,,,,,,7.7,6.1,4.7*37
$GPRMC,045648.000,A,5229.6337,N,01319.4771,E,1.91,260.07,150912,,,A*63
$GPGGA,045649.000,5229.6332,N,01319.4754,E,1,04,6.1,41.4,M,44.8,M,,0000*6C
$GPGSA,A,3,18,26,27,09,,,,,,,,,7.7,6.1,4.7*37
$GPRMC,045649.000,A,5229.6332,N,01319.4754,E,2.65,267.66,150912,,,A*68
$GPGGA,045650.000,5229.6325,N,01319.4731,E,1,04,6.2,41.5,M,44.8,M,,0000*63
$GPGSA,A,3,18,26,27,09,,,,,,,,,7.7,6.2,4.7*34
$GPGSV,3,1,11,15,70,249,22,27,56,281,27,26,52,152,20,28,48,060,15*7C
$GPGSV,3,2,11,09,40,277,23,17,30,116,13,18,25,299,40,08,15,084,*7F
$GPGSV,3,3,11,22,06,333,24,11,03,036,,12,01,220,*4E
$GPRMC,045650.000,A,5229.6325,N,01319.4731,E,3.40,259.43,150912,,,A*69
$GPGGA,045651.000,5229.6318,N,01319.4712,E,1,04,6.2,41.6,M,44.8,M,,0000*6E
$GPGSA,A,3,18,26,27,09,,,,,,,,,7.7,6.2,4.7*34
$GPRMC,045651.000,A,5229.6318,N,01319.4712,E,3.01,255.26,150912,,,A*6D
$GPGGA,045652.000,5229.6314,N,01319.4702,E,1,04,6.2,41.6,M,44.8,M,,0000*60
$GPGSA,A,3,18,26,27,09,,,,,,,,,7.7,6.2,4.7*34
$GPRMC,045652.000,A,5229.6314,N,01319.4702,E,1.21,269.44,150912,,,A*68
$GPGGA,045653.000,5229.6312,N,01319.4696,E,1,04,6.2,41.8,M,44.8,M,,0000*65
$GPGSA,A,3,18,26,27,09,,,,,,,,,7.7,6.2,4.7*34
$GPRMC,045654.000,A,5229.6311,N,01319.4686,E,1.46,295.05,150912,,,A*61
$GPGGA,045655.000,5229.6309,N,01319.4676,E,1,04,6.2,42.4,M,44.8,M,,0000*68
$GPGSA,A,3,18,26,27,09,,,,,,,,,7.7,6.2,4.7*34
$GPGSV,3,1,11,15,70,249,24,27,56,281,27,26,52,152,23,28,48,060,15*79
$GPGSV,3,2,11,09,40,277,28,17,30,116,15,18,25,299,41,08,15,084,*73
$GPGSV,3,3,11,22,06,333,24,11,03,036,,12,01,220,*4E
$GPRMC,045655.000,A,5229.6309,N,01319.4676,E,1.27,285.60,150912,,,A*63
$GPGGA,045656.000,5229.6308,N,01319.4669,E,1,04,6.2,42.8,M,44.8,M,,0000*68
$GPGSA,A,3,18,26,27,09,,,,,,,,,7.7,6.2,4.7*34
$GPRMC,045658.000,A,5229.6309,N,01319.4659,E,1.04,319.30,150912,,,A*63
$GPGGA,045659.000,5229.6310,N,01319.4653,E,1,04,6.2,44.1,M,44.8,M,,0000*68
$GPGSA,A,3,18,26,27,09,,,,,,,,,7.7,6.2,4.7*34
$GPRMC,045659.000,A,5229.6310,N,01319.4653,E,0.99,315.00,150912,,,A*6A
$GPGGA,045700.000,5229.6311,N,01319.4649,E,1,04,6.2,44.5,M,44.8,M,,0000*6B
$GPGSA,A,3,18,26,27,09,,,,,,,,,7.8,6.2,4.7*3B
$GPGSV,3,1,11,15,70,249,24,27,56,281,28,26,52,152,22,28,48,060,16*74
$GPGSV,3,2,11,09,40,277,27,17,30,116,14,18,25,299,41,08,15,084,*7D
$GPGSV,3,3,11,22,06,333,20,11,03,036,,12,01,220,*4A
$GPRMC,045704.000,A,5229.6315,N,01319.4650,E,1.03,53.84,150912,,,A*5A
$GPGGA,045705.000,5229.6316,N,01319.4654,E,1,04,6.2,45.0,M,44.8,M,,0000*61
$GPGSA,A,3,18,26,27,09,,,,,,,,,7.8,6.2,4.7*3B
$GPGSV,3,1,11,15,70,249,22,27,56,281,23,26,52,152,23,28,48,060,23*7E
$GPGSV,3,2,11,09,40,277,31,17,30,116,13,18,25,299,36,08,15,084,*7D
$GPGSV,3,3,11,22,06,333,20,11,03,036,,12,01,220,*4A
$GPRMC,045705.000,A,5229.6316,N,01319.4654,E,1.28,55.88,150912,,,A*5F
$GPGGA,045706.000,5229.6317,N,01319.4659,E,1,04,6.2,44.5,M,44.8,M,,0000*6A
$GPGSA,A,3,18,26,27,09,,,,,,,,,7.8,6.2,4.7*3B
$GPRMC,045706.000,A,5229.6317,N,01319.4659,E,1.12,46.51,150912,,,A*5F
$GPGGA,045707.000,5229.6318,N,01319.4666,E,1,04,6.2,44.1,M,44.8,M,,0000*6C
$GPGSA,A,3,18,26,27,09,,,,,,,,,7.8,6.2,4.7*3B
$GPRMC,045707.000,A,5229.6318,N,01319.4666,E,1.31,58.54,150912,,,A*56
$GPGGA,045708.000,5229.6320,N,01319.4675,E,1,04,6.2,43.8,M,44.8,M,,0000*64
$GPGSA,A,3,18,26,27,09,,,,,,,,,7.8,6.2,4.6*3A
$GPRMC,045708.000,A,5229.6320,N,01319.4675,E,1.43,56.34,150912,,,A*5D
$GPGGA,045709.000,5229.6324,N,01319.4685,E,1,04,6.2,43.7,M,44.8,M,,0000*61
$GPGSA,A,3,18,26,27,09,,,,,,,,,7.8,6.2,4.6*3A
$GPRMC,045709.000,A,5229.6324,N,01319.4685,E,1.53,50.62,150912,,,A*53
$GPGGA,045710.000,5229.6326,N,01319.4694,E,1,04,6.2,43.3,M,44.8,M,,0000*6F
$GPGSA,A,3,18,26,27,09,,,,,,,,,7.8,6.2,4.6*3A
$GPGSV,3,1,11,15,70,249,19,27,56,281,23,26,52,152,24,28,48,060,23*71
$GPGSV,3,2,11,09,40,277,32,17,30,116,,18,25,299,36,08,15,084,*7C
$GPGSV,3,3,11,22,06,333,20,11,03,036,,12,01,220,*4A
$GPRMC,045710.000,A,5229.6326,N,01319.4694,E,1.33,43.81,150912,,,A*50
$GPGGA,045711.000,5229.6329,N,01319.4705,E,1,04,6.2,43.0,M,44.8,M,,0000*6B
$GPGSA,A,3,18,26,27,09,,,,,,,,,7.8,6.2,4.6*3A
$GPRMC,045711.000,A,5229.6329,N,01319.4705,E,1.36,54.62,150912,,,A*59
$GPGGA,045712.000,5229.6332,N,01319.4718,E,1,04,6.2,42.8,M,44.8,M,,0000*67
$GPGSA,A,3,18,26,27,09,,,,,,,,,7.8,6.2,4.6*3A
$GPRMC,045712.000,A,5229.6332,N,01319.4718,E,1.59,67.78,150912,,,A*5E
$GPGGA,045713.000,5229.6335,N,01319.4731,E,1,04,6.2,42.4,M,44.8,M,,0000*66
$GPGSA,A,3,18,26,27,09,,,,,,,,,7.8,6.2,4.6*3A
$GPRMC,045713.000,A,5229.6335,N,01319.4731,E,1.59,64.08,150912,,,A*57
$GPGGA,045714.000,5229.6336,N,01319.4743,E,1,04,6.2,41.5,M,44.8,M,,0000*65
$GPGSA,A,3,18,26,27,09,,,,,,,,,7.8,6.2,4.6*3A
$GPRMC,045714.000,A,5229.6336,N,01319.4743,E,1.40,67.04,150912,,,A*51
$GPGGA,045715.000,5229.6336,N,01319.4751,E,1,04,6.2,40.3,M,44.8,M,,0000*60
$GPGSA,A,3,18,26,27,09,,,,,,,,,7.8,6.2,4.6*3A
$GPGSV,3,1,11,15,70,249,21,27,56,281,24,26,52,152,23,28,48,060,23*7A
$GPGSV,3,2,11,09,40,277,32,17,30,116,,18,25,299,36,08,15,084,*7C
$GPGSV,3,3,11,22,06,333,20,11,03,036,,12,01,220,*4A
$GPRMC,045715.000,A,5229.6336,N,01319.4751,E,0.85,63.44,150912,,,A*5B
$GPGGA,045716.000,5229.6336,N,01319.4757,E,1,04,6.2,39.1,M,44.8,M,,0000*69
$GPGSA,A,3,18,26,27,09,,,,,,,,,7.8,6.2,4.6*3A
$GPRMC,045725.000,A,5229.6328,N,01319.4791,E,1.53,136.66,150912,,,A*60
$GPGGA,045726.000,5229.6327,N,01319.4799,E,1,04,6.3,31.2,M,44.8,M,,0000*62
$GPGSA,A,3,18,26,27,09,,,,,,,,,7.8,6.3,4.6*3B
$GPRMC,045726.000,A,5229.6327,N,01319.4799,E,1.19,99.06,150912,,,A*58
$GPGGA,045727.000,5229.6327,N,01319.4803,E,1,04,6.3,30.6,M,44.8,M,,0000*6A
$GPGSA,A,3,18,26,27,09,,,,,,,,,7.8,6.3,4.6*3B
$GPRMC,045731.000,A,5229.6332,N,01319.4802,E,0.99,286.51,150912,,,A*60
$GPGGA,045732.000,5229.6333,N,01319.4799,E,1,04,6.3,31.2,M,44.8,M,,0000*62
$GPGSA,A,3,18,26,27,09,,,,,,,,,7.8,6.3,4.6*3B
$GPRMC,045756.000,A,5229.6311,N,01319.4692,E,1.03,68.00,150912,,,A*53
$GPGGA,045757.000,5229.6310,N,01319.4694,E,1,04,6.4,46.6,M,44.8,M,,0000*6F
$GPGSA,A,3,18,26,27,09,,,,,,,,,7.8,6.4,4.5*3F
$GPRMC,045757.000,A,5229.6310,N,01319.4694,E,0.92,57.16,150912,,,A*57
$GPGGA,045758.000,5229.6310,N,01319.4694,E,1,03,5.8,46.5,M,44.8,M,,0000*6B
$GPGSA,A,2,18,26,09,,,,,,,,,,5.9,5.8,1.0*37
$GPRMC,045759.000,A,5229.6310,N,01319.4695,E,0.84,34.21,150912,,,A*5E
$GPGGA,045800.000,5229.6311,N,01319.4697,E,1,03,5.8,46.5,M,44.8,M,,0000*6B
$GPGSA,A,2,18,26,09,,,,,,,,,,5.9,5.8,1.0*37
$GPGSV,3,1,11,15,70,249,25,27,56,281,18,26,52,152,23,28,48,060,25*77
$GPGSV,3,2,11,09,40,277,32,17,30,116,21,18,25,299,34,08,15,084,21*7E
$GPGSV,3,3,11,22,06,333,,11,03,036,,12,01,220,*48
$GPRMC,045800.000,A,5229.6311,N,01319.4697,E,0.87,33.29,150912,,,A*52
$GPGGA,045801.000,5229.6311,N,01319.4701,E,1,03,5.8,46.4,M,44.8,M,,0000*65
$GPGSA,A,2,18,26,09,,,,,,,,,,5.9,5.8,1.0*37
$GPRMC,045801.000,A,5229.6311,N,01319.4701,E,0.88,66.49,150912,,,A*54
$GPGGA,045802.000,5229.6310,N,01319.4707,E,1,03,5.8,46.3,M,44.8,M,,0000*66
$GPGSA,A,2,18,26,09,,,,,,,,,,5.9,5.8,1.0*37
$GPRMC,045802.000,A,5229.6310,N,01319.4707,E,1.23,74.19,150912,,,A*56
$GPGGA,045803.000,5229.6311,N,01319.4712,E,1,03,5.8,46.3,M,44.8,M,,0000*62
$GPGSA,A,2,18,26,09,,,,,,,,,,5.9,5.8,1.0*37
$GPRMC,045803.000,A,5229.6311,N,01319.4712,E,1.13,59.69,150912,,,A*59
$GPGGA,045804.000,5229.6312,N,01319.4718,E,1,03,5.8,46.2,M,44.8,M,,0000*6D
$GPGSA,A,2,18,26,09,,,,,,,,,,5.9,5.8,1.0*37
$GPRMC,045804.000,A,5229.6312,N,01319.4718,E,1.26,65.01,150912,,,A*50
$GPGGA,045805.000,5229.6312,N,01319.4721,E,1,04,6.4,45.9,M,44.8,M,,0000*66
$GPGSA,A,3,18,26,27,09,,,,,,,,,7.9,6.4,4.5*3E
$GPGSV,3,1,11,15,70,249,25,27,56,281,19,26,52,152,23,28,48,060,26*75
$GPGSV,3,2,11,09,40,277,32,17,30,116,23,18,25,299,34,08,15,084,21*7C
$GPGSV,3,3,11,22,06,333,,11,03,036,,12,01,220,*48
$GPRMC,045805.000,A,5229.6312,N,01319.4721,E,0.97,49.31,150912,,,A*5D
$GPGGA,045806.000,5229.6311,N,01319.4721,E,1,04,6.4,45.0,M,44.8,M,,0000*6F
$GPGSA,A,3,18,26,27,09,,,,,,,,,7.9,6.4,4.5*3E
$GPRMC,045812.000,A,5229.6275,N,01319.4704,E,0.81,178.49,150912,,,A*67
$GPGGA,045813.000,5229.6267,N,01319.4702,E,1,04,6.4,31.0,M,44.8,M,,0000*69
$GPGSA,A,3,18,26,27,09,,,,,,,,,7.9,6.4,4.5*3E
$GPRMC,045813.000,A,5229.6267,N,01319.4702,E,0.83,164.79,150912,,,A*6F
$GPGGA,045814.000,5229.6260,N,01319.4700,E,1,04,6.5,28.5,M,44.8,M,,0000*67
$GPGSA,A,3,18,26,27,09,,,,,,,,,7.9,6.5,4.5*3F
$GPRMC,045819.000,A,5229.6244,N,01319.4698,E,0.93,274.13,150912,,,A*69
$GPGGA,045820.000,5229.6248,N,01319.4696,E,1,04,6.5,20.9,M,44.8,M,,0000*60
$GPGSA,A,3,18,26,27,09,,,,,,,,,7.9,6.5,4.5*3F
$GPGSV,3,1,11,15,70,249,19,27,56,281,22,26,52,152,14,28,48,060,17*74
$GPGSV,3,2,11,09,40,277,23,17,30,116,14,18,25,299,22,08,15,084,11*7C
$GPGSV,3,3,11,22,06,333,,11,03,036,,12,01,220,*48
$GPRMC,045820.000,A,5229.6248,N,01319.4696,E,1.35,335.28,150912,,,A*60
$GPGGA,045821.000,5229.6252,N,01319.4693,E,1,04,6.5,20.4,M,44.8,M,,0000*62
$GPGSA,A,3,18,26,27,09,,,,,,,,,7.9,6.5,4.5*3F
$GPRMC,045821.000,A,5229.6252,N,01319.4693,E,1.56,322.18,150912,,,A*6F
$GPGGA,045822.000,5229.6252,N,01319.4685,E,1,03,7.8,19.6,M,44.8,M,,0000*65
$GPGSA,A,2,18,27,09,,,,,,,,,,7.8,7.8,1.0*37
$GPRMC,045822.000,A,5229.6252,N,01319.4685,E,1.44,283.84,150912,,,A*67
$GPGGA,045823.000,5229.6251,N,01319.4677,E,1,04,6.5,18.9,M,44.8,M,,0000*6F
$GPGSA,A,3,18,26,27,09,,,,,,,,,7.9,6.5,4.5*3F
$GPRMC,045823.000,A,5229.6251,N,01319.4677,E,1.39,264.83,150912,,,A*6C
$GPGGA,045824.000,5229.6246,N,01319.4668,E,1,04,6.5,18.1,M,44.8,M,,0000*68
$GPGSA,A,3,18,26,27,09,,,,,,,,,7.9,6.5,4.5*3F
$GPRMC,045824.000,A,5229.6246,N,01319.4668,E,1.57,229.54,150912,,,A*68
$GPGGA,045825.000,5229.6235,N,01319.4655,E,1,04,6.5,17.2,M,44.8,M,,0000*6F
$GPGSA,A,3,18,26,27,09,,,,,,,,,7.9,6.5,4.5*3F
$GPGSV,3,1,11,15,70,246,18,27,57,282,16,26,51,152,18,28,48,060,18*7F
$GPGSV,3,2,11,09,41,277,24,17,31,115,14,18,25,298,24,08,14,084,*7E
$GPGSV,3,3,11,22,07,333,,11,03,035,,12,01,220,*4A
$GPRMC,045825.000,A,5229.6235,N,01319.4655,E,3.21,215.09,150912,,,A*67
$GPGGA,045826.000,5229.6225,N,01319.4646,E,1,03,7.8,16.7,M,44.8,M,,0000*60
$GPGSA,A,2,18,27,09,,,,,,,,,,7.9,7.8,1.0*36
$GPRMC,045826.000,A,5229.6225,N,01319.4646,E,2.86,205.62,150912,,,A*67
$GPGGA,045827.000,5229.6220,N,01319.4643,E,1,04,6.5,16.5,M,44.8,M,,0000*68
$GPGSA,A,3,18,26,27,09,,,,,,,,,7.9,6.5,4.5*3F
$GPRMC,045827.000,A,5229.6220,N,01319.4643,E,1.47,198.62,150912,,,A*6F
$GPGGA,045828.000,5229.6216,N,01319.4641,E,1,03,5.9,16.4,M,44.8,M,,0000*69
$GPGSA,A,2,18,26,09,,,,,,,,,,6.0,5.9,1.0*3C
$GPRMC,045828.000,A,5229.6216,N,01319.4641,E,0.98,202.54,150912,,,A*61
$GPGGA,045829.000,5229.6215,N,01319.4641,E,1,04,6.5,16.6,M,44.8,M,,0000*61
$GPGSA,A,3,18,26,27,09,,,,,,,,,7.9,6.5,4.5*3F
$GPRMC,045830.000,A,5229.6211,N,01319.4635,E,1.35,228.79,150912,,,A*6D
$GPGGA,045831.000,5229.6211,N,01319.4639,E,1,03,6.0,17.0,M,44.8,M,,0000*66
$GPGSA,A,2,18,26,09,,,,,,,,,,6.0,6.0,1.0*36
$GPRMC,045833.000,A,5229.6228,N,01319.4662,E,4.17,40.32,150912,,,A*50
$GPGGA,045834.000,5229.6236,N,01319.4676,E,1,03,6.0,18.0,M,44.8,M,,0000*62
$GPGSA,A,2,18,26,09,,,,,,,,,,6.1,6.0,1.0*37
$GPRMC,045834.000,A,5229.6236,N,01319.4676,E,2.86,54.83,150912,,,A*5C
$GPGGA,045835.000,5229.6237,N,01319.4677,E,1,03,6.0,18.3,M,44.8,M,,0000*60
$GPGSA,A,2,18,26,09,,,,,,,,,,6.1,6.0,1.0*37
$GPGSV,3,1,11,15,70,246,17,27,57,282,17,26,51,152,20,28,48,060,15*77
$GPGSV,3,2,11,09,41,277,20,17,31,115,,18,25,298,18,08,14,084,*70
$GPGSV,3,3,11,22,07,333,,11,03,035,,12,01,220,*4A
$GPRMC,045835.000,A,5229.6237,N,01319.4677,E,0.81,54.10,150912,,,A*52
$GPGGA,045836.000,5229.6240,N,01319.4681,E,1,03,6.0,18.5,M,44.8,M,,0000*6C
$GPGSA,A,2,18,26,09,,,,,,,,,,6.1,6.0,1.0*37
$GPRMC,045836.000,A,5229.6240,N,01319.4681,E,1.53,49.29,150912,,,A*50
$GPGGA,045837.000,5229.6244,N,01319.4683,E,1,04,6.5,18.9,M,44.8,M,,0000*65
$GPGSA,A,3,18,26,27,09,,,,,,,,,7.9,6.5,4.5*3F
$GPRMC,045837.000,A,5229.6244,N,01319.4683,E,1.62,35.76,150912,,,A*54
$GPGGA,045838.000,5229.6244,N,01319.4681,E,1,04,6.5,19.6,M,44.8,M,,0000*66
$GPGSA,A,3,18,26,27,09,,,,,,,,,7.9,6.5,4.5*3F
$GPRMC,045840.000,A,5229.6244,N,01319.4677,E,1.07,56.31,150912,,,A*5A
$GPGGA,045841.000,5229.6239,N,01319.4672,E,1,03,6.0,20.7,M,44.8,M,,0000*67
$GPGSA,A,2,18,26,09,,,,,,,,,,6.1,6.0,1.0*37
$GPRMC,045843.000,A,5229.6238,N,01319.4666,E,1.67,17.01,150912,,,A*52
$GPGGA,045844.000,5229.6246,N,01319.4670,E,1,03,6.0,21.8,M,44.8,M,,0000*66
$GPGSA,A,2,18,26,09,,,,,,,,,,6.1,6.0,1.0*37
$GPRMC,045844.000,A,5229.6246,N,01319.4670,E,3.67,21.75,150912,,,A*5F
$GPGGA,045845.000,5229.6255,N,01319.4672,E,1,03,7.8,22.3,M,44.8,M,,0000*66
$GPGSA,A,2,18,27,09,,,,,,,,,,7.9,7.8,1.0*36
$GPGSV,3,1,11,15,70,246,15,27,57,282,15,26,51,152,08,28,48,060,*79
$GPGSV,3,2,11,09,41,277,20,17,31,115,,18,25,298,22,08,14,084,*79
$GPGSV,3,3,11,22,07,333,,11,03,035,,12,01,220,*4A
$GPRMC,045845.000,A,5229.6255,N,01319.4672,E,3.20,11.55,150912,,,A*5C
$GPGGA,045846.000,5229.6257,N,01319.4665,E,1,03,7.8,22.7,M,44.8,M,,0000*65
$GPGSA,A,2,18,27,09,,,,,,,,,,7.9,7.8,1.0*36
$GPRMC,045846.000,A,5229.6257,N,01319.4665,E,1.57,329.18,150912,,,A*68
$GPGGA,045847.000,5229.6263,N,01319.4661,E,1,03,7.8,23.2,M,44.8,M,,0000*63
$GPGSA,A,2,18,27,09,,,,,,,,,,7.9,7.8,1.0*36
$GPRMC,045847.000,A,5229.6263,N,01319.4661,E,2.18,343.61,150912,,,A*60
$GPGGA,045848.000,5229.6268,N,01319.4657,E,0,00,,23.8,M,44.8,M,,0000*4B
$GPGSA,A,1,,,,,,,,,,,,,,,*1E
$GPRMC,045851.000,A,5229.6286,N,01319.4649,E,2.21,358.62,150912,,,A*65
$GPGGA,045852.000,5229.6302,N,01319.4659,E,1,03,7.8,25.9,M,44.8,M,,0000*67
$GPGSA,A,2,18,27,09,,,,,,,,,,7.9,7.8,1.0*36
$GPRMC,045852.000,A,5229.6302,N,01319.4659,E,3.91,13.87,150912,,,A*57
$GPGGA,045853.000,5229.6317,N,01319.4670,E,1,03,7.8,26.3,M,44.8,M,,0000*60
$GPGSA,A,2,18,27,09,,,,,,,,,,7.9,7.8,1.0*36
$GPRMC,045853.000,A,5229.6317,N,01319.4670,E,4.00,19.07,150912,,,A*54
$GPGGA,045854.000,5229.6328,N,01319.4678,E,1,03,7.8,26.8,M,44.8,M,,0000*68
$GPGSA,A,2,18,27,09,,,,,,,,,,7.9,7.8,1.0*36
$GPRMC,045854.000,A,5229.6328,N,01319.4678,E,2.64,15.38,150912,,,A*53
$GPGGA,045855.000,5229.6328,N,01319.4673,E,1,03,7.8,27.2,M,44.8,M,,0000*69
$GPGSA,A,2,18,27,09,,,,,,,,,,7.9,7.8,1.0*36
$GPGSV,3,1,11,15,70,246,14,27,57,282,24,26,51,152,,28,48,060,*72
$GPGSV,3,2,11,09,41,277,20,17,31,115,,18,25,298,28,08,14,084,*73
$GPGSV,3,3,11,22,07,333,,11,03,035,,12,01,220,*4A
$GPRMC,045855.000,A,5229.6328,N,01319.4673,E,1.13,274.82,150912,,,A*6E
$GPGGA,045856.000,5229.6321,N,01319.4672,E,1,04,6.6,27.2,M,44.8,M,,0000*6A
$GPGSA,A,3,18,26,27,09,,,,,,,,,7.9,6.6,4.4*3D
$GPRMC,045856.000,A,5229.6321,N,01319.4672,E,1.64,200.38,150912,,,A*67
$GPGGA,045857.000,5229.6308,N,01319.4668,E,1,04,6.6,26.9,M,44.8,M,,0000*61
$GPGSA,A,3,18,26,27,09,,,,,,,,,7.9,6.6,4.4*3D
$GPRMC,045857.000,A,5229.6308,N,01319.4668,E,2.43,197.14,150912,,,A*63
$GPGGA,045858.000,5229.6297,N,01319.4662,E,1,04,6.6,26.5,M,44.8,M,,0000*6F
$GPGSA,A,3,18,26,27,09,,,,,,,,,8.0,6.6,4.4*3B
$GPRMC,045858.000,A,5229.6297,N,01319.4662,E,1.73,203.54,150912,,,A*6B
$GPGGA,045859.000,5229.6281,N,01319.4651,E,1,04,6.6,25.9,M,44.8,M,,0000*66
$GPGSA,A,3,18,26,27,09,,,,,,,,,8.0,6.6,4.4*3B
$GPRMC,045859.000,A,5229.6281,N,01319.4651,E,3.18,211.92,150912,,,A*6B
$GPGGA,045900.000,5229.6262,N,01319.4635,E,1,04,6.6,25.3,M,44.8,M,,0000*6E
$GPGSA,A,3,18,26,27,09,,,,,,,,,8.0,6.6,4.4*3B
$GPGSV,3,1,11,15,70,246,15,27,57,282,23,26,51,152,25,28,48,060,*73
$GPGSV,3,2,11,09,41,277,20,17,31,115,,18,25,298,26,08,14,084,*7D
$GPGSV,3,3,11,22,07,333,,11,03,035,,12,01,220,*4A
$GPRMC,045900.000,A,5229.6262,N,01319.4635,E,4.33,213.02,150912,,,A*6C
$GPGGA,045901.000,5229.6240,N,01319.4613,E,1,04,6.6,24.8,M,44.8,M,,0000*61
$GPGSA,A,3,18,26,27,09,,,,,,,,,8.0,6.6,4.4*3B
$GPRMC,045901.000,A,5229.6240,N,01319.4613,E,5.30,216.52,150912,,,A*6B
$GPGGA,045902.000,5229.6219,N,01319.4591,E,1,04,6.6,24.7,M,44.8,M,,0000*68
$GPGSA,A,3,18,26,27,09,,,,,,,,,8.0,6.6,4.4*3B
$GPRMC,045902.000,A,5229.6219,N,01319.4591,E,5.14,219.30,150912,,,A*60
$GPGGA,045903.000,5229.6204,N,01319.4578,E,1,04,6.6,24.7,M,44.8,M,,0000*62
$GPGSA,A,3,18,26,27,09,,,,,,,,,8.0,6.6,4.4*3B
$GPRMC,045903.000,A,5229.6204,N,01319.4578,E,3.34,209.60,150912,,,A*6A
$GPGGA,045904.000,5229.6195,N,01319.4572,E,1,04,6.6,24.9,M,44.8,M,,0000*6A
$GPGSA,A,3,18,26,27,09,,,,,,,,,8.0,6.6,4.4*3B
$GPRMC,045904.000,A,5229.6195,N,01319.4572,E,1.61,211.98,150912,,,A*60
$GPGGA,045905.000,5229.6191,N,01319.4572,E,1,04,6.6,25.2,M,44.8,M,,0000*65
$GPGSA,A,3,18,26,27,09,,,,,,,,,8.0,6.6,4.4*3B
$GPGSV,3,1,11,15,70,246,16,27,57,282,23,26,51,152,24,28,48,060,*71
$GPGSV,3,2,11,09,41,277,21,17,31,115,,18,25,298,26,08,14,084,*7C
$GPGSV,3,3,11,22,07,333,,11,03,035,,12,01,220,*4A
$GPRMC,045907.000,A,5229.6191,N,01319.4581,E,0.92,51.42,150912,,,A*57
$GPGGA,045908.000,5229.6195,N,01319.4589,E,1,04,6.7,27.0,M,44.8,M,,0000*69
$GPGSA,A,3,18,26,27,09,,,,,,,,,8.0,6.7,4.4*3A
$GPRMC,045908.000,A,5229.6195,N,01319.4589,E,1.03,32.90,150912,,,A*57
$GPGGA,045909.000,5229.6196,N,01319.4593,E,1,04,6.7,27.9,M,44.8,M,,0000*69
$GPGSA,A,3,18,26,27,09,,,,,,,,,8.0,6.7,4.4*3A
$GPRMC,045911.000,A,5229.6204,N,01319.4604,E,0.91,30.55,150912,,,A*53
$GPGGA,045912.000,5229.6208,N,01319.4610,E,1,04,6.7,31.7,M,44.8,M,,0000*66
$GPGSA,A,3,18,26,27,09,,,,,,,,,8.0,6.7,4.4*3A
$GPRMC,045913.000,A,5229.6214,N,01319.4618,E,0.94,24.14,150912,,,A*58
$GPGGA,045914.000,5229.6223,N,01319.4629,E,1,04,6.7,34.8,M,44.8,M,,0000*69
$GPGSA,A,3,18,26,27,09,,,,,,,,,8.0,6.7,4.4*3A
$GPRMC,045914.000,A,5229.6223,N,01319.4629,E,1.90,32.67,150912,,,A*5F
$GPGGA,045915.000,5229.6233,N,01319.4642,E,1,04,6.7,36.7,M,44.8,M,,0000*69
$GPGSA,A,3,18,26,27,09,,,,,,,,,8.0,6.7,4.4*3A
$GPGSV,3,1,11,15,70,246,18,27,57,282,23,26,51,152,24,28,48,060,16*78
$GPGSV,3,2,11,09,41,277,23,17,31,115,,18,25,298,25,08,14,084,*7D
$GPGSV,3,3,11,22,07,333,,11,03,035,,12,01,220,*4A
$GPRMC,045915.000,A,5229.6233,N,01319.4642,E,2.21,30.34,150912,,,A*5F
$GPGGA,045916.000,5229.6246,N,01319.4656,E,1,04,6.7,39.0,M,44.8,M,,0000*65
$GPGSA,A,3,18,26,27,09,,,,,,,,,8.0,6.7,4.4*3A
$GPRMC,045916.000,A,5229.6246,N,01319.4656,E,2.45,31.08,150912,,,A*57
$GPGGA,045917.000,5229.6260,N,01319.4673,E,1,04,6.7,41.4,M,44.8,M,,0000*6C
$GPGSA,A,3,18,26,27,09,,,,,,,,,8.0,6.7,4.4*3A
$GPRMC,045917.000,A,5229.6260,N,01319.4673,E,3.00,32.36,150912,,,A*5B
$GPGGA,045918.000,5229.6276,N,01319.4693,E,1,04,6.7,43.9,M,44.8,M,,0000*65
$GPGSA,A,3,18,26,27,09,,,,,,,,,8.0,6.7,4.4*3A
$GPRMC,045918.000,A,5229.6276,N,01319.4693,E,3.48,36.06,150912,,,A*56
$GPGGA,045919.000,5229.6293,N,01319.4716,E,1,04,6.7,46.3,M,44.8,M,,0000*6C
$GPGSA,A,3,18,26,27,09,,,,,,,,,8.0,6.7,4.4*3A
$GPRMC,045919.000,A,5229.6293,N,01319.4716,E,4.06,35.92,150912,,,A*53
$GPGGA,045920.000,5229.6310,N,01319.4739,E,1,04,6.7,48.8,M,44.8,M,,0000*64
$GPGSA,A,3,18,26,27,09,,,,,,,,,8.0,6.7,4.4*3A
$GPGSV,3,1,11,15,70,246,18,27,57,282,23,26,51,152,24,28,48,060,16*78
$GPGSV,3,2,11,09,41,277,24,17,31,115,,18,25,298,25,08,14,084,*7A
$GPGSV,3,3,11,22,07,333,,11,03,035,,12,01,220,*4A
$GPRMC,045920.000,A,5229.6310,N,01319.4739,E,4.05,35.77,150912,,,A*56
$GPGGA,045921.000,5229.6329,N,01319.4763,E,1,04,6.7,51.3,M,44.8,M,,0000*63
$GPGSA,A,3,18,26,27,09,,,,,,,,,8.0,6.7,4.4*3A
$GPRMC,045921.000,A,5229.6329,N,01319.4763,E,4.68,36.75,150912,,,A*58
$GPGGA,045922.000,5229.6350,N,01319.4792,E,1,04,6.7,53.9,M,44.8,M,,0000*68
$GPGSA,A,3,18,26,27,09,,,,,,,,,8.0,6.7,4.4*3A
$GPRMC,045922.000,A,5229.6350,N,01319.4792,E,5.53,37.27,150912,,,A*54
$GPGGA,045923.000,5229.6376,N,01319.4826,E,1,04,6.7,56.5,M,44.8,M,,0000*64
$GPGSA,A,3,18,26,27,09,,,,,,,,,8.0,6.7,4.4*3A
$GPRMC,045923.000,A,5229.6376,N,01319.4826,E,6.93,36.95,150912,,,A*56
$GPGGA,045924.000,5229.6399,N,01319.4858,E,1,04,6.7,58.7,M,44.8,M,,0000*67
$GPGSA,A,3,18,26,27,09,,,,,,,,,8.0,6.7,4.4*3A
$GPRMC,045924.000,A,5229.6399,N,01319.4858,E,6.27,39.41,150912,,,A*50
$GPGGA,045925.000,5229.6421,N,01319.4891,E,1,04,6.7,60.4,M,44.8,M,,0000*6F
$GPGSA,A,3,18,26,27,09,,,,,,,,,8.0,6.7,4.3*3D
$GPGSV,3,1,11,15,70,246,18,27,57,282,23,26,51,152,24,28,48,060,16*78
$GPGSV,3,2,11,09,41,277,24,17,31,115,,18,25,298,25,08,14,084,*7A
$GPGSV,3,3,11,22,07,333,,11,03,035,,12,01,220,*4A
$GPRMC,045925.000,A,5229.6421,N,01319.4891,E,6.70,41.02,150912,,,A*5A
$GPGGA,045926.000,5229.6438,N,01319.4916,E,1,04,6.7,61.7,M,44.8,M,,0000*68
$GPGSA,A,3,18,26,27,09,,,,,,,,,8.0,6.7,4.3*3D
$GPRMC,045926.000,A,5229.6438,N,01319.4916,E,5.03,39.19,150912,,,A*5D
$GPGGA,045927.000,5229.6446,N,01319.4928,E,1,04,6.7,62.8,M,44.8,M,,0000*61
$GPGSA,A,3,18,26,27,09,,,,,,,,,8.0,6.7,4.3*3D
$GPRMC,045927.000,A,5229.6446,N,01319.4928,E,2.54,29.87,150912,,,A*5B
$GPGGA,045928.000,5229.6453,N,01319.4936,E,1,04,6.7,63.9,M,44.8,M,,0000*65
$GPGSA,A,3,18,26,27,09,,,,,,,,,8.0,6.7,4.3*3D
$GPRMC,045928.000,A,5229.6453,N,01319.4936,E,1.82,30.29,150912,,,A*5B
$GPGGA,045929.000,5229.6452,N,01319.4937,E,1,04,6.7,64.3,M,44.8,M,,0000*69
$GPGSA,A,3,18,26,27,09,,,,,,,,,8.0,6.7,4.3*3D
$GPRMC,045930.000,A,5229.6446,N,01319.4929,E,1.75,225.36,150912,,,A*68
$GPGGA,045931.000,5229.6436,N,01319.4917,E,1,04,6.7,64.0,M,44.8,M,,0000*63
$GPGSA,A,3,18,26,27,09,,,,,,,,,8.0,6.7,4.3*3D
$GPRMC,045931.000,A,5229.6436,N,01319.4917,E,2.76,222.49,150912,,,A*6C
$GPGGA,045932.000,5229.6421,N,01319.4900,E,1,04,6.7,63.2,M,44.8,M,,0000*65
$GPGSA,A,3,18,26,27,09,,,,,,,,,8.0,6.7,4.3*3D
$GPRMC,045932.000,A,5229.6421,N,01319.4900,E,3.81,218.79,150912,,,A*6C
$GPGGA,045933.000,5229.6402,N,01319.4877,E,1,04,6.8,62.3,M,44.8,M,,0000*6B
$GPGSA,A,3,18,26,27,09,,,,,,,,,8.0,6.8,4.3*32
$GPRMC,045933.000,A,5229.6402,N,01319.4877,E,5.32,220.76,150912,,,A*67
$GPGGA,045934.000,5229.6387,N,01319.4853,E,1,04,6.8,61.4,M,44.8,M,,0000*64
$GPGSA,A,3,18,26,27,09,,,,,,,,,8.0,6.8,4.3*32
$GPRMC,045934.000,A,5229.6387,N,01319.4853,E,4.92,227.94,150912,,,A*6C
$GPGGA,045935.000,5229.6371,N,01319.4827,E,1,04,6.8,60.4,M,44.8,M,,0000*6E
$GPGSA,A,3,18,26,27,09,,,,,,,,,8.0,6.8,4.3*32
$GPGSV,3,1,11,15,70,246,17,27,57,282,24,26,51,152,24,28,48,060,15*73
$GPGSV,3,2,11,09,41,277,22,17,31,115,,18,25,298,26,08,14,084,*7F
$GPGSV,3,3,11,22,07,333,,11,03,035,,12,01,220,*4A
$GPRMC,045935.000,A,5229.6371,N,01319.4827,E,5.01,231.77,150912,,,A*66
$GPGGA,045936.000,5229.6359,N,01319.4814,E,1,04,6.8,59.6,M,44.8,M,,0000*6F
$GPGSA,A,3,18,26,27,09,,,,,,,,,8.0,6.8,4.3*32
$GPRMC,045936.000,A,5229.6359,N,01319.4814,E,3.02,214.08,150912,,,A*65
$GPGGA,045937.000,5229.6353,N,01319.4811,E,1,04,6.8,58.7,M,44.8,M,,0000*61
$GPGSA,A,3,18,26,27,09,,,,,,,,,8.0,6.8,4.3*32
$GPRMC,045937.000,A,5229.6353,N,01319.4811,E,1.12,183.66,150912,,,A*6D
$GPGGA,045938.000,5229.6344,N,01319.4806,E,0,03,,57.9,M,44.8,M,,0000*49
$GPGSA,A,1,26,27,09,,,,,,,,,,,,*16
$GPRMC,050010.000,A,5229.6127,N,01319.4664,E,3.52,310.71,150912,,,A*60
$GPGGA,050011.000,5229.6153,N,01319.4644,E,1,03,8.0,45.3,M,44.8,M,,0000*6D
$GPGSA,A,2,18,27,09,,,,,,,,,,8.0,8.0,1.0*37
$GPRMC,050011.000,A,5229.6153,N,01319.4644,E,3.17,321.10,150912,,,A*64
$GPGGA,050012.000,5229.6175,N,01319.4636,E,1,03,8.0,45.3,M,44.8,M,,0000*6F
$GPGSA,A,2,18,27,09,,,,,,,,,,8.0,8.0,1.0*37
$GPRMC,050012.000,A,5229.6175,N,01319.4636,E,1.56,320.04,150912,,,A*65
$GPGGA,050013.000,5229.6198,N,01319.4641,E,1,03,8.0,45.5,M,44.8,M,,0000*6B
$GPGSA,A,2,18,27,09,,,,,,,,,,8.0,8.0,1.0*37
$GPRMC,050013.000,A,5229.6198,N,01319.4641,E,1.55,0.37,150912,,,A*65
$GPGGA,050014.000,5229.6219,N,01319.4647,E,0,00,,45.6,M,44.8,M,,0000*47
$GPGSA,A,1,,,,,,,,,,,,,,,*1E
$GPRMC,050043.000,A,5229.6538,N,01319.4708,E,4.57,347.26,150912,,,A*65
$GPGGA,050044.000,5229.6562,N,01319.4694,E,1,03,8.1,46.9,M,44.8,M,,0000*6E
$GPGSA,A,2,18,27,09,,,,,,,,,,8.1,8.1,1.0*37
$GPRMC,050044.000,A,5229.6562,N,01319.4694,E,6.39,339.02,150912,,,A*6C
$GPGGA,050045.000,5229.6585,N,01319.4679,E,0,00,,47.1,M,44.8,M,,0000*49
$GPGSA,A,1,,,,,,,,,,,,,,,*1E
$GPGSV,3,1,11,15,70,246,,27,57,282,18,26,51,152,,28,48,060,*78
$GPGSV,3,2,11,09,41,277,18,17,31,115,,18,25,298,14,08,14,084,*77
$GPGSV,3,3,11,22,07,333,,11,03,035,,12,01,220,*4A
$GPRMC,050049.000,A,5229.6663,N,01319.4636,E,3.63,352.76,150912,,,A*6F
$GPGGA,050050.000,5229.6668,N,01319.4654,E,1,03,8.1,47.5,M,44.8,M,,0000*63
$GPGSA,A,2,18,27,09,,,,,,,,,,8.1,8.1,1.0*37
$GPGSV,3,1,11,15,70,246,,27,57,282,18,26,51,152,,28,48,060,*78
$GPGSV,3,2,11,09,41,277,18,17,31,115,,18,25,298,15,08,14,084,*76
$GPGSV,3,3,11,22,07,333,,11,03,035,,12,01,220,*4A
$GPRMC,050050.000,A,5229.6668,N,01319.4654,E,3.23,46.67,150912,,,A*5A
$GPGGA,050051.000,5229.6676,N,01319.4673,E,1,03,8.1,47.4,M,44.8,M,,0000*69
$GPGSA,A,2,18,27,09,,,,,,,,,,8.1,8.1,1.0*37
$GPRMC,050051.000,A,5229.6676,N,01319.4673,E,4.05,51.88,150912,,,A*55
$GPGGA,050052.000,5229.6684,N,01319.4691,E,0,00,,47.4,M,44.8,M,,0000*4E
$GPGSA,A,1,,,,,,,,,,,,,,,*1E
$GPRMC,050100.000,A,5229.6733,N,01319.4846,E,4.93,74.89,150912,,,A*51
$GPGGA,050101.000,5229.6728,N,01319.4888,E,1,03,8.1,47.1,M,44.8,M,,0000*68
$GPGSA,A,2,18,27,09,,,,,,,,,,8.2,8.1,1.0*34
$GPRMC,050101.000,A,5229.6728,N,01319.4888,E,5.76,76.90,150912,,,A*58
$GPGGA,050102.000,5229.6714,N,01319.4918,E,1,03,8.1,47.4,M,44.8,M,,0000*69
$GPGSA,A,2,18,27,09,,,,,,,,,,8.2,8.1,1.0*34
$GPRMC,050102.000,A,5229.6714,N,01319.4918,E,4.37,94.61,150912,,,A*5A
$GPGGA,050103.000,5229.6699,N,01319.4947,E,0,00,,47.7,M,44.8,M,,0000*40
$GPGSA,A,1,,,,,,,,,,,,,,,*1E
$GPRMC,050104.000,A,5229.6674,N,01319.4965,E,4.57,129.91,150912,,,A*6F
$GPGGA,050105.000,5229.6645,N,01319.4975,E,1,03,8.1,47.8,M,44.8,M,,0000*6C
$GPGSA,A,2,18,27,09,,,,,,,,,,8.2,8.1,1.0*34
$GPGSV,3,1,11,15,70,246,,27,57,282,19,26,51,152,,28,48,060,*79
$GPGSV,3,2,11,09,41,277,18,17,31,115,,18,25,298,17,08,14,084,*74
$GPGSV,3,3,11,22,07,333,,11,03,035,,12,01,220,*4A
$GPRMC,050105.000,A,5229.6645,N,01319.4975,E,5.51,149.13,150912,,,A*66
$GPGGA,050106.000,5229.6610,N,01319.4973,E,1,03,8.1,47.8,M,44.8,M,,0000*69
$GPGSA,A,2,18,27,09,,,,,,,,,,8.2,8.1,1.0*34
$GPRMC,050106.000,A,5229.6610,N,01319.4973,E,6.32,174.23,150912,,,A*68
$GPGGA,050107.000,5229.6572,N,01319.4951,E,1,03,8.1,47.9,M,44.8,M,,0000*6E
$GPGSA,A,2,18,27,09,,,,,,,,,,8.2,8.1,1.0*34
$GPRMC,050107.000,A,5229.6572,N,01319.4951,E,7.71,198.86,150912,,,A*65
$GPGGA,050108.000,5229.6537,N,01319.4928,E,1,03,8.1,48.0,M,44.8,M,,0000*68
$GPGSA,A,2,18,27,09,,,,,,,,,,8.2,8.1,1.0*34
$GPRMC,050108.000,A,5229.6537,N,01319.4928,E,7.85,203.61,150912,,,A*66
$GPGGA,050109.000,5229.6499,N,01319.4891,E,1,03,8.1,48.1,M,44.8,M,,0000*6E
$GPGSA,A,2,18,27,09,,,,,,,,,,8.2,8.1,1.0*34
$GPRMC,050109.000,A,5229.6499,N,01319.4891,E,10.19,209.27,150912,,,A*5A
$GPGGA,050110.000,5229.6459,N,01319.4849,E,1,03,8.1,48.1,M,44.8,M,,0000*6F
$GPGSA,A,2,18,27,09,,,,,,,,,,8.2,8.1,1.0*34
$GPGSV,3,1,11,15,70,246,,27,57,282,19,26,51,152,,28,48,060,*79
$GPGSV,3,2,11,09,41,277,17,17,31,115,,18,25,298,17,08,14,084,*7B
$GPGSV,3,3,11,22,07,333,,11,03,035,,12,01,220,*4A
$GPRMC,050110.000,A,5229.6459,N,01319.4849,E,10.75,213.10,150912,,,A*5E
$GPGGA,050111.000,5229.6421,N,01319.4807,E,0,00,,48.1,M,44.8,M,,0000*4E
$GPGSA,A,1,,,,,,,,,,,,,,,*1E
$GPRMC,050112.000,A,5229.6377,N,01319.4757,E,12.69,214.04,150912,,,A*5A
$GPGGA,050113.000,5229.6342,N,01319.4703,E,1,03,8.1,48.1,M,44.8,M,,0000*60
$GPGSA,A,2,18,27,09,,,,,,,,,,8.2,8.1,1.0*34
$GPRMC,050113.000,A,5229.6342,N,01319.4703,E,11.46,223.23,150912,,,A*53
$GPGGA,050114.000,5229.6317,N,01319.4648,E,1,03,8.1,48.1,M,44.8,M,,0000*69
$GPGSA,A,2,18,27,09,,,,,,,,,,8.2,8.1,1.0*34
$GPRMC,050114.000,A,5229.6317,N,01319.4648,E,9.93,234.02,150912,,,A*6E
$GPGGA,050115.000,5229.6292,N,01319.4594,E,0,00,,48.0,M,44.8,M,,0000*42
$GPGSA,A,1,,,,,,,,,,,,,,,*1E
$GPGSV,3,1,11,15,70,246,,27,57,282,19,26,51,152,,28,48,060,*79
$GPGSV,3,2,11,09,41,277,16,17,31,115,,18,25,298,17,08,14,084,*7A
$GPGSV,3,3,11,22,07,333,,11,03,035,,12,01,220,*4A
$GPRMC,050116.000,A,5229.6275,N,01319.4549,E,8.06,239.26,150912,,,A*6D
$GPGGA,050117.000,5229.6254,N,01319.4501,E,1,03,8.1,48.0,M,44.8,M,,0000*63
$GPGSA,A,2,18,27,09,,,,,,,,,,8.2,8.1,1.0*34
$GPRMC,050117.000,A,5229.6254,N,01319.4501,E,9.02,235.13,150912,,,A*6C
$GPGGA,050118.000,5229.6234,N,01319.4459,E,1,03,8.1,48.0,M,44.8,M,,0000*66
$GPGSA,A,2,18,27,09,,,,,,,,,,8.2,8.1,1.0*34
$GPRMC,050118.000,A,5229.6234,N,01319.4459,E,8.90,230.38,150912,,,A*6F
$GPGGA,050119.000,5229.6222,N,01319.4433,E,1,03,8.1,48.0,M,44.8,M,,0000*6C
$GPGSA,A,2,18,27,09,,,,,,,,,,8.2,8.1,1.0*34
$GPRMC,050119.000,A,5229.6222,N,01319.4433,E,6.61,228.72,150912,,,A*62
$GPGGA,050120.000,5229.6216,N,01319.4408,E,1,03,8.1,48.1,M,44.8,M,,0000*68
$GPGSA,A,2,18,27,09,,,,,,,,,,8.2,8.1,1.0*34
$GPGSV,3,1,11,15,70,246,,27,57,282,18,26,51,152,,28,48,060,*78
$GPGSV,3,2,11,09,41,277,14,17,31,115,,18,25,298,18,08,14,084,*77
$GPGSV,3,3,11,22,07,333,,11,03,035,,12,01,220,*4A
$GPRMC,050120.000,A,5229.6216,N,01319.4408,E,5.86,237.38,150912,,,A*6D
$GPGGA,050121.000,5229.6214,N,01319.4381,E,1,03,8.1,48.1,M,44.8,M,,0000*6D
$GPGSA,A,2,18,27,09,,,,,,,,,,8.2,8.1,1.0*34
$GPRMC,050121.000,A,5229.6214,N,01319.4381,E,5.75,247.82,150912,,,A*62
$GPGGA,050122.000,5229.6211,N,01319.4354,E,0,00,,48.1,M,44.8,M,,0000*46
$GPGSA,A,1,,,,,,,,,,,,,,,*1E
$GPRMC,050459.000,A,5229.6699,N,01319.5272,E,2.96,16.93,150912,,,A*59
$GPGGA,050500.000,5229.6717,N,01319.5290,E,1,04,8.2,64.1,M,44.8,M,,0000*66
$GPGSA,A,3,09,26,18,27,,,,,,,,,9.0,8.2,3.7*34
$GPGSV,3,1,12,15,70,238,17,27,60,283,14,26,48,153,17,28,45,058,*74
$GPGSV,3,2,12,09,44,279,16,17,33,113,,18,26,296,15,08,12,086,*7D
$GPGSV,3,3,12,22,08,331,,12,04,221,,11,04,033,,01,00,047,*73
$GPRMC,050500.000,A,5229.6717,N,01319.5290,E,1.51,24.59,150912,,,A*50
$GPGGA,050501.000,5229.6730,N,01319.5304,E,1,04,8.2,61.0,M,44.8,M,,0000*6A
$GPGSA,A,3,09,26,18,27,,,,,,,,,9.0,8.2,3.7*34
$GPRMC,050502.000,A,5229.6737,N,01319.5312,E,1.74,217.08,150912,,,A*6A
$GPGGA,050503.000,5229.6739,N,01319.5313,E,1,03,9.1,55.5,M,44.8,M,,0000*60
$GPGSA,A,2,09,26,18,,,,,,,,,,9.1,9.1,1.0*36
$GPRMC,050503.000,A,5229.6739,N,01319.5313,E,2.74,222.75,150912,,,A*6B
$GPGGA,050504.000,5229.6738,N,01319.5309,E,1,04,8.2,53.3,M,44.8,M,,0000*68
$GPGSA,A,3,09,26,18,27,,,,,,,,,9.0,8.2,3.7*34
$GPRMC,050504.000,A,5229.6738,N,01319.5309,E,2.86,223.62,150912,,,A*6C
$GPGGA,050505.000,5229.6738,N,01319.5308,E,1,04,8.2,51.7,M,44.8,M,,0000*6E
$GPGSA,A,3,09,26,18,27,,,,,,,,,9.0,8.2,3.7*34
$GPGSV,3,1,12,15,70,238,16,27,60,283,15,26,48,153,17,28,45,058,*74
$GPGSV,3,2,12,09,44,279,16,17,33,113,,18,26,296,15,08,12,086,*7D
$GPGSV,3,3,12,22,08,331,,12,04,221,,11,04,033,,01,00,047,*73
$GPRMC,050505.000,A,5229.6738,N,01319.5308,E,1.92,217.14,150912,,,A*6C
$GPGGA,050506.000,5229.6728,N,01319.5296,E,0,03,,50.1,M,44.8,M,,0000*4F
$GPGSA,A,1,09,26,27,,,,,,,,,,,,*16
$GPRMC,050507.000,A,5229.6711,N,01319.5275,E,5.75,211.04,150912,,,A*64
$GPGGA,050508.000,5229.6698,N,01319.5259,E,1,04,8.2,48.1,M,44.8,M,,0000*63
$GPGSA,A,3,09,26,18,27,,,,,,,,,9.0,8.2,3.7*34
$GPRMC,050508.000,A,5229.6698,N,01319.5259,E,4.54,210.56,150912,,,A*61
$GPGGA,050509.000,5229.6686,N,01319.5241,E,1,04,8.2,48.0,M,44.8,M,,0000*65
$GPGSA,A,3,09,26,18,27,,,,,,,,,9.0,8.2,3.7*34
$GPRMC,050509.000,A,5229.6686,N,01319.5241,E,4.26,220.15,150912,,,A*67
$GPGGA,050510.000,5229.6676,N,01319.5226,E,1,04,8.2,48.0,M,44.8,M,,0000*63
$GPGSA,A,3,09,26,18,27,,,,,,,,,9.0,8.2,3.7*34
$GPGSV,3,1,12,15,70,238,14,27,60,283,14,26,48,153,17,28,45,058,*77
$GPGSV,3,2,12,09,44,279,17,17,33,113,,18,26,296,16,08,12,086,*7F
$GPGSV,3,3,12,22,08,331,,12,04,221,,11,04,033,,01,00,047,*73
$GPRMC,050510.000,A,5229.6676,N,01319.5226,E,3.71,215.25,150912,,,A*61
$GPGGA,050511.000,5229.6667,N,01319.5214,E,1,04,8.2,48.4,M,44.8,M,,0000*67
$GPGSA,A,3,09,26,18,27,,,,,,,,,9.0,8.2,3.7*34
$GPRMC,050511.000,A,5229.6667,N,01319.5214,E,3.52,215.50,150912,,,A*62
$GPGGA,050512.000,5229.6659,N,01319.5200,E,1,04,8.2,49.0,M,44.8,M,,0000*69
$GPGSA,A,3,09,26,18,27,,,,,,,,,9.0,8.2,3.7*34
$GPRMC,050512.000,A,5229.6659,N,01319.5200,E,3.54,227.08,150912,,,A*63
$GPGGA,050513.000,5229.6656,N,01319.5185,E,1,04,8.2,49.7,M,44.8,M,,0000*6E
$GPGSA,A,3,09,26,18,27,,,,,,,,,9.0,8.2,3.7*34
$GPRMC,050513.000,A,5229.6656,N,01319.5185,E,2.93,252.12,150912,,,A*60
$GPGGA,050514.000,5229.6648,N,01319.5166,E,1,04,8.2,50.7,M,44.8,M,,0000*63
$GPGSA,A,3,09,26,18,27,,,,,,,,,9.0,8.2,3.7*34
$GPRMC,050514.000,A,5229.6648,N,01319.5166,E,3.64,239.71,150912,,,A*64
$GPGGA,050515.000,5229.6644,N,01319.5154,E,1,04,8.2,51.7,M,44.8,M,,0000*6E
$GPGSA,A,3,09,26,18,27,,,,,,,,,9.0,8.2,3.7*34
$GPGSV,3,1,12,15,70,238,14,27,60,283,17,26,48,153,17,28,45,058,*74
$GPGSV,3,2,12,09,44,279,27,17,33,113,,18,26,296,26,08,12,086,*7F
$GPGSV,3,3,12,22,08,331,24,12,04,221,,11,04,033,,01,00,047,*75
$GPRMC,050515.000,A,5229.6644,N,01319.5154,E,2.19,241.11,150912,,,A*6A
$GPGGA,050516.000,5229.6639,N,01319.5150,E,1,04,8.3,52.4,M,44.8,M,,0000*62
$GPGSA,A,3,09,26,18,27,,,,,,,,,9.0,8.3,3.7*35
$GPRMC,050516.000,A,5229.6639,N,01319.5150,E,1.60,204.43,150912,,,A*6C
$GPGGA,050517.000,5229.6634,N,01319.5144,E,1,04,8.3,52.8,M,44.8,M,,0000*67
$GPGSA,A,3,09,26,18,27,,,,,,,,,9.0,8.3,3.7*35
$GPRMC,050517.000,A,5229.6634,N,01319.5144,E,1.71,204.29,150912,,,A*69
$GPGGA,050518.000,5229.6631,N,01319.5142,E,1,04,8.3,53.2,M,44.8,M,,0000*60
$GPGSA,A,3,09,26,18,27,,,,,,,,,9.0,8.3,3.7*35
$GPRMC,050518.000,A,5229.6631,N,01319.5142,E,0.87,201.69,150912,,,A*6C
$GPGGA,050519.000,5229.6631,N,01319.5144,E,1,04,8.3,53.1,M,44.8,M,,0000*64
$GPGSA,A,3,09,26,18,27,,,,,,,,,9.0,8.3,3.7*35
$GPRMC,050539.000,A,5229.6555,N,01319.5242,E,12.77,217.34,150912,,,A*5E
$GPGGA,050540.000,5229.6498,N,01319.5155,E,1,03,10.0,46.1,M,44.8,M,,0000*50
$GPGSA,A,2,09,26,27,,,,,,,,,,10.0,10.0,1.0*3A
$GPGSV,3,1,12,15,70,238,,27,60,283,19,26,48,153,17,28,45,058,*7F
$GPGSV,3,2,12,09,44,279,16,17,33,113,,18,26,296,15,08,12,086,*7D
$GPGSV,3,3,12,22,08,331,,12,04,221,,11,04,033,,01,00,047,*73
$GPRMC,050540.000,A,5229.6498,N,01319.5155,E,14.42,217.25,150912,,,A*55
$GPGGA,050541.000,5229.6449,N,01319.5078,E,1,04,8.4,45.3,M,44.8,M,,0000*68
$GPGSA,A,3,09,26,18,27,,,,,,,,,9.1,8.4,3.6*32
$GPRMC,050541.000,A,5229.6449,N,01319.5078,E,14.07,217.21,150912,,,A*53
$GPGGA,050542.000,5229.6411,N,01319.5024,E,1,04,8.4,44.6,M,44.8,M,,0000*6B
$GPGSA,A,3,09,26,18,27,,,,,,,,,9.1,8.4,3.6*32
$GPRMC,050542.000,A,5229.6411,N,01319.5024,E,12.31,213.22,150912,,,A*50
$GPGGA,050543.000,5229.6370,N,01319.4970,E,0,03,,44.1,M,44.8,M,,0000*40
$GPGSA,A,1,26,18,27,,,,,,,,,,,,*16
$GPRMC,050913.000,A,5229.4999,N,01319.1233,E,8.69,25.48,150912,,,A*5A
$GPGGA,050914.000,5229.5132,N,01319.1543,E,0,00,,35.3,M,44.8,M,,0000*47
$GPGSA,A,1,,,,,,,,,,,,,,,*1E
$GPRMC,052658.000,A,5229.5821,N,01319.3951,E,10.54,199.03,150912,,,A*58
$GPGGA,052659.000,5229.5904,N,01319.4195,E,1,04,5.5,51.1,M,44.8,M,,0000*6F
$GPGSA,A,3,26,27,09,18,,,,,,,,,5.6,5.5,1.0*31
$GPRMC,052659.000,A,5229.5904,N,01319.4195,E,8.12,200.40,150912,,,A*67
$GPGGA,052700.000,5229.5894,N,01319.4194,E,1,04,5.5,51.4,M,44.8,M,,0000*6E
$GPGSA,A,3,26,27,09,18,,,,,,,,,5.6,5.5,1.0*31
$GPGSV,3,1,12,27,69,290,16,15,65,213,,09,53,284,21,17,38,103,*74
$GPGSV,3,2,12,26,37,155,17,28,37,056,,18,25,286,24,12,12,224,*71
$GPGSV,3,3,12,22,12,325,19,08,04,091,,01,04,040,,11,03,025,*74
$GPRMC,052700.000,A,5229.5894,N,01319.4194,E,5.80,199.57,150912,,,A*60
$GPGGA,052701.000,5229.5895,N,01319.4204,E,0,03,,50.5,M,44.8,M,,0000*4C
$GPGSA,A,1,26,09,18,,,,,,,,,,,,*1A
$GPRMC,052702.000,A,5229.5888,N,01319.4202,E,3.51,204.42,150912,,,A*6A
$GPGGA,052703.000,5229.5886,N,01319.4198,E,0,03,,50.6,M,44.8,M,,0000*49
$GPGSA,A,1,26,09,18,,,,,,,,,,,,*1A
$GPRMC,052704.000,A,5229.5893,N,01319.4200,E,1.64,266.31,150912,,,A*60
$GPGGA,052705.000,5229.5900,N,01319.4201,E,0,00,,50.4,M,44.8,M,,0000*42
$GPGSA,A,1,,,,,,,,,,,,,,,*1E
$GPGSV,3,1,12,27,69,290,16,15,65,213,,09,53,284,18,17,38,103,*7E
$GPGSV,3,2,12,26,37,155,16,28,37,056,,18,25,286,19,12,12,224,*7E
$GPGSV,3,3,12,22,12,325,26,08,04,091,,01,04,040,15,11,03,025,*7C
$GPRMC,052707.000,A,5229.5908,N,01319.4233,E,2.60,86.52,150912,,,A*5E
$GPGGA,052708.000,5229.5909,N,01319.4249,E,1,04,5.5,51.9,M,44.8,M,,0000*6D
$GPGSA,A,3,26,27,09,18,,,,,,,,,5.6,5.5,1.0*31
$GPRMC,052708.000,A,5229.5909,N,01319.4249,E,2.28,112.14,150912,,,A*6F
$GPGGA,052709.000,5229.5910,N,01319.4280,E,1,04,5.5,52.3,M,44.8,M,,0000*68
$GPGSA,A,3,26,27,09,18,,,,,,,,,5.6,5.5,1.0*31
$GPRMC,052709.000,A,5229.5910,N,01319.4280,E,4.13,121.62,150912,,,A*6C
$GPGGA,052710.000,5229.5918,N,01319.4317,E,1,04,5.5,52.0,M,44.8,M,,0000*64
$GPGSA,A,3,26,27,09,18,,,,,,,,,5.6,5.5,1.0*31
$GPGSV,3,1,12,27,69,290,17,15,65,213,,09,53,284,18,17,38,103,*7F
$GPGSV,3,2,12,26,37,155,15,28,37,056,,18,25,286,20,12,12,224,*77
$GPGSV,3,3,12,22,12,325,17,08,04,091,,01,04,040,,11,03,025,*7A
$GPRMC,052710.000,A,5229.5918,N,01319.4317,E,3.81,112.66,150912,,,A*6B
$GPGGA,052711.000,5229.5930,N,01319.4354,E,0,03,,51.3,M,44.8,M,,0000*40
$GPGSA,A,1,26,09,18,,,,,,,,,,,,*1A
$GPRMC,052712.000,A,5229.5946,N,01319.4393,E,2.84,90.84,150912,,,A*5D
$GPGGA,052713.000,5229.5966,N,01319.4428,E,1,04,5.4,48.6,M,44.8,M,,0000*69
$GPGSA,A,3,26,27,09,18,,,,,,,,,5.5,5.4,1.0*33
$GPRMC,052713.000,A,5229.5966,N,01319.4428,E,2.53,61.89,150912,,,A*50
$GPGGA,052714.000,5229.5983,N,01319.4453,E,0,03,,47.3,M,44.8,M,,0000*4A
$GPGSA,A,1,27,09,18,,,,,,,,,,,,*1B
$GPRMC,052721.000,A,5229.6035,N,01319.4496,E,1.81,291.85,150912,,,A*65
$GPGGA,052722.000,5229.6040,N,01319.4483,E,0,00,,44.4,M,44.8,M,,0000*40
$GPGSA,A,1,,,,,,,,,,,,,,,*1E
$GPRMC,052732.000,A,5229.6360,N,01319.4682,E,6.12,21.75,150912,,,A*58
$GPGGA,052733.000,5229.6371,N,01319.4696,E,1,04,5.4,42.1,M,44.8,M,,0000*6E
$GPGSA,A,3,27,09,26,18,,,,,,,,,5.5,5.4,1.0*33
$GPRMC,052733.000,A,5229.6371,N,01319.4696,E,2.77,18.86,150912,,,A*5D
$GPGGA,052734.000,5229.6375,N,01319.4707,E,1,04,5.4,41.5,M,44.8,M,,0000*63
$GPGSA,A,3,27,09,26,18,,,,,,,,,5.5,5.4,1.0*33
$GPRMC,052734.000,A,5229.6375,N,01319.4707,E,1.25,49.25,150912,,,A*5E
$GPGGA,052735.000,5229.6372,N,01319.4707,E,0,03,,41.1,M,44.8,M,,0000*48
$GPGSA,A,1,27,09,18,,,,,,,,,,,,*1B
$GPGSV,3,1,12,27,69,290,20,15,65,213,19,09,53,284,26,17,38,103,*7E
$GPGSV,3,2,12,26,37,155,16,28,37,056,16,18,25,286,24,12,12,224,*77
$GPGSV,3,3,12,22,12,325,26,08,04,091,,01,04,040,25,11,03,025,19*77
$GPRMC,052739.000,A,5229.6362,N,01319.4699,E,1.38,207.06,150912,,,A*66
$GPGGA,052740.000,5229.6361,N,01319.4702,E,1,04,5.4,39.8,M,44.8,M,,0000*62
$GPGSA,A,3,27,09,26,18,,,,,,,,,5.4,5.4,1.0*32
$GPGSV,3,1,12,27,69,290,20,15,65,213,17,09,53,284,21,17,38,103,16*70
$GPGSV,3,2,12,26,37,155,16,28,37,056,15,18,25,286,24,12,12,224,*74
$GPGSV,3,3,12,22,12,325,23,08,04,091,,01,04,040,11,11,03,025,13*7F
$GPRMC,052740.000,A,5229.6361,N,01319.4702,E,1.14,192.17,150912,,,A*69
$GPGGA,052741.000,5229.6362,N,01319.4711,E,1,04,5.4,39.4,M,44.8,M,,0000*6E
$GPGSA,A,3,27,09,26,18,,,,,,,,,5.4,5.4,1.0*32
$GPRMC,052741.000,A,5229.6362,N,01319.4711,E,1.03,145.67,150912,,,A*62
$GPGGA,052742.000,5229.6357,N,01319.4713,E,1,04,5.3,39.0,M,44.8,M,,0000*6A
$GPGSA,A,3,27,09,26,18,,,,,,,,,5.4,5.3,1.0*35
$GPRMC,052742.000,A,5229.6357,N,01319.4713,E,2.63,189.22,150912,,,A*61
$GPGGA,052743.000,5229.6353,N,01319.4722,E,1,04,5.3,38.4,M,44.8,M,,0000*68
$GPGSA,A,3,27,09,26,18,,,,,,,,,5.4,5.3,1.0*35
$GPRMC,052743.000,A,5229.6353,N,01319.4722,E,2.64,171.41,150912,,,A*63
$GPGGA,052744.000,5229.6353,N,01319.4734,E,1,04,5.3,37.7,M,44.8,M,,0000*64
$GPGSA,A,3,27,09,26,18,,,,,,,,,5.4,5.3,1.0*35
$GPRMC,052744.000,A,5229.6353,N,01319.4734,E,1.81,151.82,150912,,,A*66
$GPGGA,052745.000,5229.6352,N,01319.4743,E,0,03,,37.1,M,44.8,M,,0000*4C
$GPGSA,A,1,27,09,18,,,,,,,,,,,,*1B
$GPGSV,3,1,12,27,69,290,20,15,65,213,16,09,53,284,21,17,38,103,16*71
$GPGSV,3,2,12,26,37,155,15,28,37,056,15,18,25,286,25,12,12,224,*76
$GPGSV,3,3,12,22,12,325,12,08,04,091,,01,04,040,,11,03,025,20*7D
$GPRMC,052748.000,A,5229.6332,N,01319.4755,E,2.72,183.55,150912,,,A*60
$GPGGA,052749.000,5229.6322,N,01319.4753,E,1,04,5.3,35.9,M,44.8,M,,0000*62
$GPGSA,A,3,27,09,26,18,,,,,,,,,5.4,5.3,1.0*35
$GPRMC,052749.000,A,5229.6322,N,01319.4753,E,3.22,197.13,150912,,,A*65
$GPGGA,052750.000,5229.6313,N,01319.4747,E,1,04,5.3,35.8,M,44.8,M,,0000*6C
$GPGSA,A,3,27,09,26,18,,,,,,,,,5.4,5.3,1.0*35
$GPGSV,3,1,12,27,69,290,16,15,65,213,17,09,53,284,21,17,38,103,17*74
$GPGSV,3,2,12,26,37,155,18,28,37,056,14,18,25,286,14,12,12,224,*78
$GPGSV,3,3,12,22,12,325,14,08,04,091,,01,04,040,,11,03,025,13*7B
$GPRMC,052750.000,A,5229.6313,N,01319.4747,E,2.76,212.74,150912,,,A*65
$GPGGA,052751.000,5229.6309,N,01319.4745,E,1,04,5.3,36.0,M,44.8,M,,0000*6F
$GPGSA,A,3,27,09,26,18,,,,,,,,,5.4,5.3,1.0*35
$GPRMC,052751.000,A,5229.6309,N,01319.4745,E,0.87,232.18,150912,,,A*69
$GPGGA,052752.000,5229.6305,N,01319.4744,E,1,04,5.3,36.2,M,44.8,M,,0000*63
$GPGSA,A,3,27,09,26,18,,,,,,,,,5.4,5.3,1.0*35
$GPRMC,052755.000,A,5229.6329,N,01319.4804,E,6.12,44.02,150912,,,A*57
$GPGGA,052756.000,5229.6350,N,01319.4838,E,1,04,5.3,36.0,M,44.8,M,,0000*61
$GPGSA,A,3,27,09,26,18,,,,,,,,,5.4,5.3,1.0*35
$GPRMC,052756.000,A,5229.6350,N,01319.4838,E,8.24,40.63,150912,,,A*5D
$GPGGA,052757.000,5229.6367,N,01319.4870,E,1,04,5.3,35.6,M,44.8,M,,0000*6D
$GPGSA,A,3,27,09,26,18,,,,,,,,,5.4,5.3,1.0*35
$GPRMC,052757.000,A,5229.6367,N,01319.4870,E,7.28,44.31,150912,,,A*54
$GPGGA,052758.000,5229.6378,N,01319.4897,E,1,03,5.3,35.2,M,44.8,M,,0000*66
$GPGSA,A,2,27,26,18,,,,,,,,,,5.4,5.3,1.0*3D
$GPRMC,052758.000,A,5229.6378,N,01319.4897,E,5.58,55.17,150912,,,A*5D
$GPGGA,052759.000,5229.6386,N,01319.4919,E,1,03,5.3,34.8,M,44.8,M,,0000*6A
$GPGSA,A,2,27,26,18,,,,,,,,,,5.4,5.3,1.0*3D
$GPRMC,052759.000,A,5229.6386,N,01319.4919,E,4.71,59.22,150912,,,A*5A
