$GPRMC,140028.000,A,5230.6254,N,01326.1325,E,1.36,172.75,140912,,,A*6E
$GPGGA,140029.000,5230.6248,N,01326.1328,E,0,00,,28.1,M,44.6,M,,0000*42
$GPGSA,A,1,,,,,,,,,,,,,,,*1E
$GPRMC,140032.000,A,5230.6232,N,01326.1333,E,1.97,204.77,140912,,,A*69
$GPGGA,140033.000,5230.6225,N,01326.1334,E,1,09,1.2,31.2,M,44.6,M,,0000*61
$GPGSA,A,3,18,16,07,21,03,30,29,06,19,,,,1.8,1.2,1.3*35
$GPRMC,140033.000,A,5230.6225,N,01326.1334,E,1.71,202.63,140912,,,A*62
$GPGGA,140034.000,5230.6222,N,01326.1340,E,1,09,1.2,32.1,M,44.6,M,,0000*62
$GPGSA,A,3,18,16,07,21,03,30,29,06,19,,,,1.8,1.2,1.3*35
$GPRMC,140037.000,A,5230.6213,N,01326.1363,E,0.83,154.12,140912,,,A*6B
$GPGGA,140038.000,5230.6211,N,01326.1374,E,1,09,1.2,36.4,M,44.6,M,,0000*68
$GPGSA,A,3,18,16,07,21,03,30,29,06,19,,,,1.8,1.2,1.3*35
$GPRMC,140109.000,A,5230.6141,N,01326.1580,E,1.05,188.75,140912,,,A*67
$GPGGA,140110.000,5230.6136,N,01326.1584,E,1,08,1.4,26.9,M,44.6,M,,0000*67
$GPGSA,A,3,18,16,07,21,03,30,29,06,,,,,2.2,1.4,1.7*36
$GPGSV,3,1,12,16,64,261,24,21,61,073,21,06,56,285,25,30,50,199,28*7D
$GPGSV,3,2,12,18,41,131,28,03,38,288,23,22,16,171,30,07,12,330,21*71
$GPGSV,3,3,12,19,11,280,21,29,10,101,38,26,06,042,23,15,04,076,30*7D
$GPRMC,140110.000,A,5230.6136,N,01326.1584,E,0.94,178.72,140912,,,A*6A
$GPGGA,140111.000,5230.6132,N,01326.1590,E,1,08,1.2,26.2,M,44.6,M,,0000*6A
$GPGSA,A,3,18,07,21,03,30,29,06,19,,,,,1.8,1.2,1.4*35
$GPRMC,140115.000,A,5230.6129,N,01326.1612,E,0.81,17.28,140912,,,A*5E
$GPGGA,140116.000,5230.6130,N,01326.1619,E,1,04,3.7,24.6,M,44.6,M,,0000*60
$GPGSA,A,3,18,29,06,19,,,,,,,,,4.2,3.7,1.9*34
$GPRMC,140117.000,A,5230.6128,N,01326.1630,E,1.40,112.50,140912,,,A*6A
$GPGGA,140118.000,5230.6125,N,01326.1642,E,1,04,2.7,24.5,M,44.6,M,,0000*66
$GPGSA,A,3,18,21,29,06,,,,,,,,,3.7,2.7,2.5*33
$GPRMC,140118.000,A,5230.6125,N,01326.1642,E,2.03,117.26,140912,,,A*6D
$GPGGA,140119.000,5230.6118,N,01326.1651,E,1,04,5.6,24.2,M,44.6,M,,0000*6A
$GPGSA,A,3,16,21,29,06,,,,,,,,,6.7,5.6,3.6*3C
$GPRMC,140119.000,A,5230.6118,N,01326.1651,E,2.53,151.20,140912,,,A*61
$GPGGA,140120.000,5230.6111,N,01326.1659,E,0,00,,24.0,M,44.6,M,,0000*4B
$GPGSA,A,1,,,,,,,,,,,,,,,*1E
$GPGSV,3,1,12,16,64,261,12,21,61,073,15,06,56,285,16,30,50,199,13*77
$GPGSV,3,2,12,18,41,131,13,03,38,288,,22,16,171,,07,12,330,*78
$GPGSV,3,3,12,19,11,280,,29,10,101,13,26,06,042,,15,04,076,*75
$GPRMC,140129.000,A,5230.6053,N,01326.1710,E,1.26,146.71,140912,,,A*6B
$GPGGA,140130.000,5230.6065,N,01326.1704,E,1,04,2.8,22.3,M,44.6,M,,0000*65
$GPGSA,A,3,18,03,30,06,,,,,,,,,6.9,2.8,6.3*3D
$GPGSV,3,1,12,16,64,261,,21,61,073,,06,56,285,16,30,50,199,16*75
$GPGSV,3,2,12,18,41,131,20,03,38,288,21,22,16,171,,07,12,330,*7B
$GPGSV,3,3,12,19,11,280,,29,10,101,16,26,06,042,,15,04,076,*70
$GPRMC,140130.000,A,5230.6065,N,01326.1704,E,1.94,60.24,140912,,,A*5F
$GPGGA,140131.000,5230.6072,N,01326.1696,E,1,04,2.8,21.9,M,44.6,M,,0000*61
$GPGSA,A,3,18,03,30,06,,,,,,,,,6.9,2.8,6.3*3D
$GPRMC,140131.000,A,5230.6072,N,01326.1696,E,1.37,86.89,140912,,,A*54
$GPGGA,140132.000,5230.6074,N,01326.1683,E,1,05,2.7,21.0,M,44.6,M,,0000*67
$GPGSA,A,3,18,03,07,30,06,,,,,,,,4.8,2.7,3.9*39
$GPRMC,140132.000,A,5230.6074,N,01326.1683,E,1.38,130.52,140912,,,A*60
$GPGGA,140133.000,5230.6080,N,01326.1669,E,1,04,3.0,20.4,M,44.6,M,,0000*6B
$GPGSA,A,3,18,07,16,30,,,,,,,,,5.0,3.0,4.1*3B
$GPRMC,140133.000,A,5230.6080,N,01326.1669,E,0.84,71.08,140912,,,A*53
$GPGGA,140134.000,5230.6092,N,01326.1659,E,1,04,3.0,19.9,M,44.6,M,,0000*6B
$GPGSA,A,3,18,07,16,30,,,,,,,,,5.0,3.0,4.1*3B
$GPRMC,140134.000,A,5230.6092,N,01326.1659,E,1.90,27.28,140912,,,A*51
$GPGGA,140135.000,5230.6106,N,01326.1650,E,1,04,3.0,19.6,M,44.6,M,,0000*60
$GPGSA,A,3,18,07,16,30,,,,,,,,,5.0,3.0,4.1*3B
$GPGSV,3,1,12,16,64,261,22,21,61,073,14,06,56,285,16,30,50,199,21*74
$GPGSV,3,2,12,18,41,131,22,03,38,288,09,22,16,171,,07,12,330,17*75
$GPGSV,3,3,12,19,11,280,,29,10,101,17,26,06,042,,15,04,076,*71
$GPRMC,140135.000,A,5230.6106,N,01326.1650,E,2.43,14.68,140912,,,A*5C
$GPGGA,140136.000,5230.6121,N,01326.1642,E,1,04,3.0,19.5,M,44.6,M,,0000*66
$GPGSA,A,3,18,07,16,30,,,,,,,,,5.0,3.0,4.1*3B
$GPRMC,140136.000,A,5230.6121,N,01326.1642,E,2.45,21.27,140912,,,A*52
$GPGGA,140137.000,5230.6134,N,01326.1639,E,1,06,1.7,19.6,M,44.6,M,,0000*6B
$GPGSA,A,3,18,07,16,30,06,19,,,,,,,2.5,1.7,1.9*3F
$GPRMC,140137.000,A,5230.6134,N,01326.1639,E,2.85,36.85,140912,,,A*59
$GPGGA,140138.000,5230.6148,N,01326.1639,E,1,07,1.6,20.2,M,44.6,M,,0000*61
$GPGSA,A,3,18,21,03,16,30,06,19,,,,,,2.6,1.6,2.0*30
$GPRMC,140138.000,A,5230.6148,N,01326.1639,E,2.12,41.42,140912,,,A*58
$GPGGA,140139.000,5230.6160,N,01326.1638,E,1,08,1.3,21.2,M,44.6,M,,0000*60
$GPGSA,A,3,18,21,03,07,16,30,06,19,,,,,2.2,1.3,1.7*32
$GPRMC,140139.000,A,5230.6160,N,01326.1638,E,1.20,52.10,140912,,,A*55
$GPGGA,140140.000,5230.6169,N,01326.1637,E,1,08,1.3,22.4,M,44.6,M,,0000*6D
$GPGSA,A,3,18,21,03,07,16,30,06,19,,,,,2.2,1.3,1.7*32
$GPGSV,3,1,12,16,64,261,22,21,61,073,24,06,56,285,24,30,50,199,29*7E
$GPGSV,3,2,12,18,41,131,22,03,38,288,24,22,16,171,16,07,12,330,20*79
$GPGSV,3,3,12,19,11,280,21,29,10,101,19,26,06,042,18,15,04,076,16*72
$GPRMC,140141.000,A,5230.6182,N,01326.1637,E,1.42,30.20,140912,,,A*5A
$GPGGA,140142.000,5230.6191,N,01326.1636,E,1,08,1.3,24.9,M,44.6,M,,0000*62
$GPGSA,A,3,18,21,03,07,16,30,06,19,,,,,2.2,1.3,1.7*32
$GPRMC,140145.000,A,5230.6214,N,01326.1628,E,1.24,255.01,140912,,,A*6E
$GPGGA,140146.000,5230.6218,N,01326.1617,E,1,06,1.5,29.3,M,44.6,M,,0000*68
$GPGSA,A,3,18,21,07,16,30,06,,,,,,,2.7,1.5,2.2*3C
$GPRMC,140146.000,A,5230.6218,N,01326.1617,E,2.10,250.21,140912,,,A*6E
$GPGGA,140147.000,5230.6218,N,01326.1609,E,1,05,1.9,30.3,M,44.6,M,,0000*61
$GPGSA,A,3,21,07,16,30,06,,,,,,,,3.3,1.9,2.7*39
$GPRMC,140147.000,A,5230.6218,N,01326.1609,E,1.94,221.45,140912,,,A*6B
$GPGGA,140148.000,5230.6219,N,01326.1603,E,1,04,2.1,31.3,M,44.6,M,,0000*6E
$GPGSA,A,3,21,16,30,06,,,,,,,,,2.3,2.1,1.0*30
$GPRMC,140148.000,A,5230.6219,N,01326.1603,E,1.39,220.13,140912,,,A*6A
$GPGGA,140149.000,5230.6220,N,01326.1602,E,1,04,2.1,32.1,M,44.6,M,,0000*65
$GPGSA,A,3,21,16,30,06,,,,,,,,,2.3,2.1,1.0*30
$GPRMC,140149.000,A,5230.6220,N,01326.1602,E,0.96,171.79,140912,,,A*6F
$GPGGA,140150.000,5230.6222,N,01326.1602,E,0,03,,32.9,M,44.6,M,,0000*4C
$GPGSA,A,1,16,30,06,,,,,,,,,,,,*1C
$GPGSV,3,1,12,16,64,261,15,21,61,073,12,06,56,285,12,30,50,199,16*76
$GPGSV,3,2,12,18,41,131,10,03,38,288,,22,16,171,10,07,12,330,11*7A
$GPGSV,3,3,12,19,11,280,,29,10,101,,26,06,042,17,15,04,076,*71
$GPRMC,140151.000,A,5230.6227,N,01326.1602,E,0.90,29.35,140912,,,A*53
$GPGGA,140152.000,5230.6235,N,01326.1598,E,1,03,6.2,34.1,M,44.6,M,,0000*6D
$GPGSA,A,2,21,16,06,,,,,,,,,,6.3,6.2,1.0*31
$GPRMC,140152.000,A,5230.6235,N,01326.1598,E,2.04,358.36,140912,,,A*6A
$GPGGA,140153.000,5230.6244,N,01326.1593,E,1,06,1.7,34.6,M,44.6,M,,0000*61
$GPGSA,A,3,18,21,03,16,30,06,,,,,,,4.4,1.7,4.1*3A
$GPRMC,140153.000,A,5230.6244,N,01326.1593,E,2.52,9.45,140912,,,A*66
$GPGGA,140154.000,5230.6248,N,01326.1584,E,1,05,1.7,35.1,M,44.6,M,,0000*69
$GPGSA,A,3,18,21,03,16,30,,,,,,,,4.5,1.7,4.2*3E
$GPRMC,140154.000,A,5230.6248,N,01326.1584,E,1.43,328.87,140912,,,A*66
$GPGGA,140155.000,5230.6248,N,01326.1573,E,1,06,1.7,35.7,M,44.6,M,,0000*65
$GPGSA,A,3,18,21,03,16,30,06,,,,,,,4.4,1.7,4.1*3A
$GPGSV,3,1,12,16,64,261,22,21,61,073,21,06,56,285,26,30,50,199,23*73
$GPGSV,3,2,12,18,41,131,23,03,38,288,23,22,16,171,22,07,12,330,*7A
$GPGSV,3,3,12,19,11,280,,29,10,101,,26,06,042,,15,04,076,*77
$GPRMC,140157.000,A,5230.6241,N,01326.1550,E,1.80,223.75,140912,,,A*6D
$GPGGA,140158.000,5230.6236,N,01326.1535,E,1,07,1.4,37.7,M,44.6,M,,0000*63
$GPGSA,A,3,18,21,03,16,30,19,07,,,,,,2.4,1.4,2.0*31
$GPRMC,140158.000,A,5230.6236,N,01326.1535,E,2.06,244.26,140912,,,A*6B
$GPGGA,140159.000,5230.6228,N,01326.1514,E,1,04,2.5,38.7,M,44.6,M,,0000*60
$GPGSA,A,3,18,21,19,07,,,,,,,,,5.1,2.5,4.5*35
$GPRMC,140159.000,A,5230.6228,N,01326.1514,E,3.48,239.29,140912,,,A*68
$GPGGA,140200.000,5230.6221,N,01326.1494,E,0,00,,39.7,M,44.6,M,,0000*42
$GPGSA,A,1,,,,,,,,,,,,,,,*1E
$GPGSV,3,1,12,16,64,261,11,21,61,073,10,06,56,285,12,30,50,199,*77
$GPGSV,3,2,12,18,41,131,17,03,38,288,09,22,16,171,12,07,12,330,*76
$GPGSV,3,3,12,19,11,280,17,29,10,101,,26,06,042,,15,04,076,*71
$GPRMC,140222.000,A,5230.6067,N,01326.1111,E,6.21,233.65,140912,,,A*67
$GPGGA,140223.000,5230.6050,N,01326.1085,E,1,03,2.7,56.5,M,44.6,M,,0000*61
$GPGSA,A,2,30,18,03,,,,,,,,,,2.9,2.7,1.0*35
$GPRMC,140223.000,A,5230.6050,N,01326.1085,E,5.50,244.80,140912,,,A*60
$GPGGA,140224.000,5230.6034,N,01326.1060,E,0,00,,56.6,M,44.6,M,,0000*45
$GPGSA,A,1,,,,,,,,,,,,,,,*1E
$GPRMC,140324.000,A,5230.5580,N,01325.9852,E,4.39,58.65,140912,,,A*5E
$GPGGA,140325.000,5230.5601,N,01325.9969,E,1,05,4.5,74.6,M,44.6,M,,0000*66
$GPGSA,A,3,30,16,06,03,19,,,,,,,,4.6,4.5,1.0*39
$GPGSV,3,1,12,16,64,258,16,21,60,072,,06,57,285,15,30,49,198,18*7D
$GPGSV,3,2,12,18,42,130,,03,39,288,15,22,18,170,20,07,13,329,*79
$GPGSV,3,3,12,19,12,281,18,29,09,101,,26,06,041,,15,05,075,*75
$GPRMC,140325.000,A,5230.5601,N,01325.9969,E,3.95,68.05,140912,,,A*58
$GPGGA,140326.000,5230.5612,N,01326.0049,E,1,05,4.5,75.0,M,44.6,M,,0000*61
$GPGSA,A,3,30,16,06,03,19,,,,,,,,4.6,4.5,1.0*39
$GPRMC,140326.000,A,5230.5612,N,01326.0049,E,2.67,75.45,140912,,,A*5C
$GPGGA,140327.000,5230.5632,N,01326.0143,E,1,03,9.7,74.8,M,44.6,M,,0000*69
$GPGSA,A,2,30,06,03,,,,,,,,,,9.8,9.7,1.0*3B
$GPRMC,140327.000,A,5230.5632,N,01326.0143,E,4.86,62.43,140912,,,A*5D
$GPGGA,140328.000,5230.5651,N,01326.0232,E,0,00,,74.7,M,44.6,M,,0000*4B
$GPGSA,A,1,,,,,,,,,,,,,,,*1E
$GPRMC,140331.000,A,5230.5691,N,01326.0447,E,1.86,96.37,140912,,,A*5F
$GPGGA,140332.000,5230.5680,N,01326.0476,E,1,05,4.5,72.7,M,44.6,M,,0000*67
$GPGSA,A,3,30,16,06,03,19,,,,,,,,4.6,4.5,1.0*39
$GPRMC,140332.000,A,5230.5680,N,01326.0476,E,3.29,182.50,140912,,,A*6C
$GPGGA,140333.000,5230.5664,N,01326.0480,E,1,07,1.6,73.1,M,44.6,M,,0000*66
$GPGSA,A,3,30,16,06,03,19,18,07,,,,,,2.5,1.6,1.9*3D
$GPRMC,140333.000,A,5230.5664,N,01326.0480,E,3.95,201.11,140912,,,A*64
$GPGGA,140334.000,5230.5648,N,01326.0483,E,1,08,1.3,73.1,M,44.6,M,,0000*66
$GPGSA,A,3,30,16,06,03,19,18,07,21,,,,,2.2,1.3,1.7*32
$GPRMC,140334.000,A,5230.5648,N,01326.0483,E,3.91,205.66,140912,,,A*6E
$GPGGA,140335.000,5230.5645,N,01326.0501,E,1,08,1.3,71.6,M,44.6,M,,0000*64
$GPGSA,A,3,30,16,06,03,19,18,07,21,,,,,2.2,1.3,1.7*32
$GPGSV,3,1,12,16,64,258,32,21,60,072,28,06,57,285,37,30,49,198,37*7C
$GPGSV,3,2,12,18,42,130,42,03,39,288,40,22,18,170,39,07,13,329,25*70
$GPGSV,3,3,12,19,12,281,38,29,09,101,26,26,06,041,,15,05,075,*73
$GPRMC,140335.000,A,5230.5645,N,01326.0501,E,1.40,218.83,140912,,,A*60
$GPGGA,140336.000,5230.5647,N,01326.0527,E,1,08,1.3,69.9,M,44.6,M,,0000*67
$GPGSA,A,3,30,16,06,03,19,18,07,21,,,,,2.2,1.3,1.7*32
$GPRMC,140343.000,A,5230.5657,N,01326.0678,E,1.80,160.03,140912,,,A*67
$GPGGA,140344.000,5230.5652,N,01326.0690,E,1,08,1.3,56.1,M,44.6,M,,0000*6D
$GPGSA,A,3,30,16,06,03,19,18,07,21,,,,,2.2,1.3,1.7*32
$GPRMC,140344.000,A,5230.5652,N,01326.0690,E,2.05,169.42,140912,,,A*61
$GPGGA,140345.000,5230.5648,N,01326.0702,E,1,08,1.3,55.3,M,44.6,M,,0000*6C
$GPGSA,A,3,30,16,06,03,19,18,07,21,,,,,2.2,1.3,1.7*32
$GPGSV,3,1,12,16,64,258,38,21,60,072,27,06,57,285,38,30,49,198,41*77
$GPGSV,3,2,12,18,42,130,32,03,39,288,44,22,18,170,35,07,13,329,25*7F
$GPGSV,3,3,12,19,12,281,40,29,09,101,25,26,06,041,,15,05,075,22*7F
$GPRMC,140345.000,A,5230.5648,N,01326.0702,E,2.14,163.38,140912,,,A*66
$GPGGA,140346.000,5230.5643,N,01326.0712,E,1,07,1.7,54.6,M,44.6,M,,0000*6A
$GPGSA,A,3,30,16,06,03,19,18,07,,,,,,2.5,1.7,1.9*3C
$GPRMC,140346.000,A,5230.5643,N,01326.0712,E,1.99,159.32,140912,,,A*6A
$GPGGA,140347.000,5230.5639,N,01326.0724,E,1,08,1.3,53.8,M,44.6,M,,0000*61
$GPGSA,A,3,30,16,06,03,19,18,07,21,,,,,2.2,1.3,1.7*32
$GPRMC,140347.000,A,5230.5639,N,01326.0724,E,2.07,151.06,140912,,,A*68
$GPGGA,140348.000,5230.5637,N,01326.0736,E,1,08,1.3,53.2,M,44.6,M,,0000*69
$GPGSA,A,3,30,16,06,03,19,18,07,21,,,,,2.2,1.3,1.7*32
$GPRMC,140348.000,A,5230.5637,N,01326.0736,E,1.65,126.88,140912,,,A*6B
$GPGGA,140349.000,5230.5634,N,01326.0746,E,1,08,1.3,52.6,M,44.6,M,,0000*69
$GPGSA,A,3,30,16,06,03,19,18,07,21,,,,,2.2,1.3,1.7*32
$GPRMC,140349.000,A,5230.5634,N,01326.0746,E,1.54,130.33,140912,,,A*6B
$GPGGA,140350.000,5230.5631,N,01326.0757,E,1,07,1.6,52.0,M,44.6,M,,0000*68
$GPGSA,A,3,30,16,06,03,19,07,21,,,,,,2.7,1.6,2.1*3E
$GPGSV,3,1,12,16,64,258,35,21,60,072,28,06,57,285,33,30,49,198,39*71
$GPGSV,3,2,12,18,42,130,,03,39,288,39,22,18,170,38,07,13,329,23*7F
$GPGSV,3,3,12,19,12,281,39,29,09,101,21,26,06,041,,15,05,075,15*71
$GPRMC,140350.000,A,5230.5631,N,01326.0757,E,1.86,129.87,140912,,,A*6E
$GPGGA,140351.000,5230.5630,N,01326.0767,E,1,08,1.3,51.4,M,44.6,M,,0000*66
$GPGSA,A,3,30,16,06,03,19,18,07,21,,,,,2.2,1.3,1.7*32
$GPRMC,140351.000,A,5230.5630,N,01326.0767,E,1.39,121.00,140912,,,A*6E
$GPGGA,140352.000,5230.5629,N,01326.0776,E,1,08,1.3,50.9,M,44.6,M,,0000*61
$GPGSA,A,3,30,16,06,03,19,18,07,21,,,,,2.2,1.3,1.7*32
$GPRMC,140352.000,A,5230.5629,N,01326.0776,E,1.23,118.12,140912,,,A*67
$GPGGA,140353.000,5230.5625,N,01326.0785,E,1,08,1.3,50.6,M,44.6,M,,0000*6F
$GPGSA,A,3,30,16,06,03,19,18,07,21,,,,,2.2,1.3,1.7*32
$GPRMC,140353.000,A,5230.5625,N,01326.0785,E,2.05,138.89,140912,,,A*61
$GPGGA,140354.000,5230.5620,N,01326.0795,E,1,08,1.3,50.2,M,44.6,M,,0000*68
$GPGSA,A,3,30,16,06,03,19,18,07,21,,,,,2.2,1.3,1.7*32
$GPRMC,140354.000,A,5230.5620,N,01326.0795,E,2.22,136.63,140912,,,A*6D
$GPGGA,140355.000,5230.5617,N,01326.0804,E,1,08,1.3,49.9,M,44.6,M,,0000*69
$GPGSA,A,3,30,16,06,03,19,18,07,21,,,,,2.2,1.3,1.7*32
$GPGSV,3,1,12,16,64,258,36,21,60,072,28,06,57,285,39,30,49,198,40*76
$GPGSV,3,2,12,18,42,130,32,03,39,288,40,22,18,170,39,07,13,329,24*76
$GPGSV,3,3,12,19,12,281,43,29,09,101,23,26,06,041,,15,05,075,20*78
$GPRMC,140355.000,A,5230.5617,N,01326.0804,E,1.83,123.79,140912,,,A*68
$GPGGA,140356.000,5230.5612,N,01326.0808,E,1,08,1.3,49.7,M,44.6,M,,0000*6D
$GPGSA,A,3,30,16,06,03,19,18,07,21,,,,,2.2,1.3,1.7*32
$GPRMC,140356.000,A,5230.5612,N,01326.0808,E,2.00,166.40,140912,,,A*61
$GPGGA,140357.000,5230.5605,N,01326.0810,E,1,08,1.3,49.6,M,44.6,M,,0000*62
$GPGSA,A,3,30,16,06,03,19,18,07,21,,,,,2.2,1.3,1.7*32
$GPRMC,140357.000,A,5230.5605,N,01326.0810,E,2.40,176.95,140912,,,A*62
$GPGGA,140358.000,5230.5600,N,01326.0815,E,1,08,1.3,49.6,M,44.6,M,,0000*6D
$GPGSA,A,3,30,16,06,03,19,18,07,21,,,,,2.2,1.3,1.7*32
$GPRMC,140358.000,A,5230.5600,N,01326.0815,E,1.89,154.67,140912,,,A*66
$GPGGA,140359.000,5230.5594,N,01326.0819,E,1,08,1.3,49.6,M,44.6,M,,0000*6E
$GPGSA,A,3,30,16,06,03,19,18,07,21,,,,,2.2,1.3,1.7*32
$GPRMC,140359.000,A,5230.5594,N,01326.0819,E,2.31,166.13,140912,,,A*67
$GPGGA,140400.000,5230.5588,N,01326.0823,E,1,08,1.3,49.5,M,44.6,M,,0000*62
$GPGSA,A,3,30,16,06,03,19,18,07,21,,,,,2.2,1.3,1.7*32
$GPGSV,3,1,12,16,64,258,40,21,60,072,28,06,57,285,39,30,49,198,41*76
$GPGSV,3,2,12,18,42,130,33,03,39,288,42,22,18,170,39,07,13,329,23*72
$GPGSV,3,3,12,19,12,281,42,29,09,101,23,26,06,041,,15,05,075,14*7E
$GPRMC,140400.000,A,5230.5588,N,01326.0823,E,2.23,166.35,140912,,,A*6F
$GPGGA,140401.000,5230.5583,N,01326.0828,E,1,08,1.3,49.4,M,44.6,M,,0000*62
$GPGSA,A,3,30,16,06,03,19,18,07,21,,,,,2.2,1.3,1.7*32
$GPRMC,140401.000,A,5230.5583,N,01326.0828,E,1.97,160.17,140912,,,A*64
$GPGGA,140402.000,5230.5579,N,01326.0836,E,1,08,1.3,49.2,M,44.6,M,,0000*6D
$GPGSA,A,3,30,16,06,03,19,18,07,21,,,,,2.2,1.3,1.7*32
$GPRMC,140402.000,A,5230.5579,N,01326.0836,E,1.70,134.36,140912,,,A*66
$GPGGA,140403.000,5230.5575,N,01326.0844,E,1,08,1.3,48.9,M,44.6,M,,0000*6F
$GPGSA,A,3,30,16,06,03,19,18,07,21,,,,,2.2,1.3,1.7*32
$GPRMC,140403.000,A,5230.5575,N,01326.0844,E,1.92,142.56,140912,,,A*65
$GPGGA,140404.000,5230.5570,N,01326.0850,E,1,08,1.3,48.5,M,44.6,M,,0000*64
$GPGSA,A,3,30,16,06,03,19,18,07,21,,,,,2.2,1.3,1.7*32
$GPRMC,140404.000,A,5230.5570,N,01326.0850,E,2.13,167.36,140912,,,A*69
$GPGGA,140405.000,5230.5565,N,01326.0855,E,1,07,1.7,48.1,M,44.6,M,,0000*6B
$GPGSA,A,3,30,16,06,03,19,18,07,,,,,,2.5,1.7,1.9*3C
$GPGSV,3,1,12,16,64,258,34,21,60,072,,06,57,285,39,30,49,198,42*7C
$GPGSV,3,2,12,18,42,130,33,03,39,288,40,22,18,170,39,07,13,329,23*70
$GPGSV,3,3,12,19,12,281,36,29,09,101,23,26,06,041,,15,05,075,14*7D
$GPRMC,140405.000,A,5230.5565,N,01326.0855,E,1.74,165.92,140912,,,A*67
$GPGGA,140406.000,5230.5559,N,01326.0861,E,1,07,1.7,47.7,M,44.6,M,,0000*69
$GPGSA,A,3,30,16,06,03,19,18,07,,,,,,2.5,1.7,1.9*3C
$GPRMC,140406.000,A,5230.5559,N,01326.0861,E,2.61,166.00,140912,,,A*63
$GPGGA,140407.000,5230.5553,N,01326.0867,E,1,07,1.7,47.3,M,44.6,M,,0000*60
$GPGSA,A,3,30,16,06,03,19,18,07,,,,,,2.5,1.7,1.9*3C
$GPRMC,140407.000,A,5230.5553,N,01326.0867,E,2.24,164.77,140912,,,A*6D
$GPGGA,140408.000,5230.5549,N,01326.0877,E,1,08,1.3,46.9,M,44.6,M,,0000*65
$GPGSA,A,3,30,16,06,03,19,18,07,21,,,,,2.2,1.3,1.7*32
$GPRMC,140408.000,A,5230.5549,N,01326.0877,E,1.95,139.34,140912,,,A*6E
$GPGGA,140409.000,5230.5546,N,01326.0887,E,1,08,1.3,46.5,M,44.6,M,,0000*68
$GPGSA,A,3,30,16,06,03,19,18,07,21,,,,,2.2,1.3,1.7*32
$GPRMC,140409.000,A,5230.5546,N,01326.0887,E,1.98,129.55,140912,,,A*64
$GPGGA,140410.000,5230.5542,N,01326.0897,E,1,08,1.3,46.0,M,44.6,M,,0000*60
$GPGSA,A,3,30,16,06,03,19,18,07,21,,,,,2.2,1.3,1.7*32
$GPGSV,3,1,12,16,64,258,37,21,60,072,30,06,57,285,37,30,49,198,41*71
$GPGSV,3,2,12,18,42,130,33,03,39,288,42,22,18,170,39,07,13,329,23*72
$GPGSV,3,3,12,19,12,281,39,29,09,101,24,26,06,041,,15,05,075,24*76
$GPRMC,140410.000,A,5230.5542,N,01326.0897,E,2.09,138.02,140912,,,A*60
$GPGGA,140411.000,5230.5537,N,01326.0905,E,1,08,1.3,45.7,M,44.6,M,,0000*6D
$GPGSA,A,3,30,16,06,03,19,18,07,21,,,,,2.2,1.3,1.7*32
$GPRMC,140411.000,A,5230.5537,N,01326.0905,E,2.20,155.17,140912,,,A*6D
$GPGGA,140412.000,5230.5534,N,01326.0915,E,1,08,1.3,45.2,M,44.6,M,,0000*69
$GPGSA,A,3,30,16,06,03,19,18,07,21,,,,,2.2,1.3,1.7*32
$GPRMC,140412.000,A,5230.5534,N,01326.0915,E,1.73,132.34,140912,,,A*69
$GPGGA,140413.000,5230.5534,N,01326.0926,E,1,08,1.3,44.9,M,44.6,M,,0000*62
$GPGSA,A,3,30,16,06,03,19,18,07,21,,,,,2.2,1.3,1.7*32
$GPRMC,140413.000,A,5230.5534,N,01326.0926,E,1.39,118.09,140912,,,A*60
$GPGGA,140414.000,5230.5535,N,01326.0937,E,1,08,1.3,44.5,M,44.6,M,,0000*68
$GPGSA,A,3,30,16,06,03,19,18,07,21,,,,,2.2,1.3,1.7*32
$GPRMC,140414.000,A,5230.5535,N,01326.0937,E,1.34,102.31,140912,,,A*6B
$GPGGA,140415.000,5230.5535,N,01326.0949,E,1,08,1.3,44.2,M,44.6,M,,0000*67
$GPGSA,A,3,30,16,06,03,19,18,07,21,,,,,2.2,1.3,1.7*32
$GPGSV,3,1,12,16,64,258,39,21,60,072,36,06,57,285,38,30,49,198,36*76
$GPGSV,3,2,12,18,42,130,33,03,39,288,45,22,18,170,38,07,13,329,22*75
$GPGSV,3,3,12,19,12,281,40,29,09,101,24,26,06,041,,15,05,075,13*7C
$GPRMC,140415.000,A,5230.5535,N,01326.0949,E,1.52,116.98,140912,,,A*65
$GPGGA,140416.000,5230.5533,N,01326.0958,E,1,08,1.3,44.0,M,44.6,M,,0000*60
$GPGSA,A,3,30,16,06,03,19,18,07,21,,,,,2.2,1.3,1.7*32
$GPRMC,140416.000,A,5230.5533,N,01326.0958,E,1.69,153.65,140912,,,A*6B
$GPGGA,140417.000,5230.5532,N,01326.0968,E,1,08,1.3,43.9,M,44.6,M,,0000*6D
$GPGSA,A,3,30,16,06,03,19,18,07,21,,,,,2.2,1.3,1.7*32
$GPRMC,140417.000,A,5230.5532,N,01326.0968,E,1.20,141.81,140912,,,A*6C
$GPGGA,140418.000,5230.5532,N,01326.0975,E,1,08,1.3,43.8,M,44.6,M,,0000*6F
$GPGSA,A,3,30,16,06,03,19,18,07,21,,,,,2.2,1.3,1.7*32
$GPRMC,140418.000,A,5230.5532,N,01326.0975,E,0.98,162.64,140912,,,A*67
$GPGGA,140419.000,5230.5531,N,01326.0981,E,1,08,1.3,43.7,M,44.6,M,,0000*69
$GPGSA,A,3,30,16,06,03,19,18,07,21,,,,,2.2,1.3,1.7*32
$GPRMC,140419.000,A,5230.5531,N,01326.0981,E,1.13,172.34,140912,,,A*68
$GPGGA,140420.000,5230.5534,N,01326.0989,E,1,07,1.4,43.7,M,44.6,M,,0000*66
$GPGSA,A,3,30,06,03,19,18,07,21,,,,,,2.4,1.4,2.0*30
$GPGSV,3,1,12,16,64,258,33,21,60,072,27,06,57,285,41,30,49,198,36*72
$GPGSV,3,2,12,18,42,130,34,03,39,288,39,22,18,170,40,07,13,329,23*77
$GPGSV,3,3,12,19,12,281,39,29,09,101,35,26,06,041,,15,05,075,*70
$GPRMC,140420.000,A,5230.5534,N,01326.0989,E,0.88,47.38,140912,,,A*57
$GPGGA,140421.000,5230.5536,N,01326.0993,E,1,08,1.3,43.7,M,44.6,M,,0000*66
$GPGSA,A,3,30,16,06,03,19,18,07,21,,,,,2.2,1.3,1.7*32
$GPRMC,140424.000,A,5230.5537,N,01326.1003,E,1.08,196.21,140912,,,A*66
$GPGGA,140425.000,5230.5536,N,01326.1006,E,1,08,1.3,43.4,M,44.6,M,,0000*65
$GPGSA,A,3,30,16,06,03,19,18,07,21,,,,,2.2,1.3,1.8*3D
$GPGSV,3,1,12,16,64,258,31,21,60,072,34,06,57,285,38,30,49,198,33*79
$GPGSV,3,2,12,18,42,130,34,03,39,288,40,22,18,170,40,07,13,329,24*7E
$GPGSV,3,3,12,19,12,281,44,29,09,101,39,26,06,041,21,15,05,075,30*76
$GPRMC,140425.000,A,5230.5536,N,01326.1006,E,1.09,198.98,140912,,,A*6E
$GPGGA,140426.000,5230.5534,N,01326.1010,E,1,07,1.6,43.0,M,44.6,M,,0000*6D
$GPGSA,A,3,30,16,06,03,19,18,21,,,,,,2.6,1.6,2.0*30
$GPRMC,140426.000,A,5230.5534,N,01326.1010,E,1.68,189.17,140912,,,A*68
$GPGGA,140427.000,5230.5535,N,01326.1015,E,1,08,1.3,42.6,M,44.6,M,,0000*65
$GPGSA,A,3,30,16,06,03,19,18,07,21,,,,,2.2,1.3,1.8*3D
$GPRMC,140428.000,A,5230.5533,N,01326.1019,E,1.11,180.41,140912,,,A*6C
$GPGGA,140429.000,5230.5533,N,01326.1022,E,1,08,1.3,41.8,M,44.6,M,,0000*64
$GPGSA,A,3,30,16,06,03,19,18,07,21,,,,,2.2,1.3,1.8*3D
$GPRMC,140429.000,A,5230.5533,N,01326.1022,E,0.98,200.37,140912,,,A*6F
$GPGGA,140430.000,5230.5533,N,01326.1026,E,1,08,1.3,41.3,M,44.6,M,,0000*63
$GPGSA,A,3,30,16,06,03,19,18,07,21,,,,,2.2,1.3,1.8*3D
$GPGSV,3,1,12,16,64,255,31,21,59,071,30,06,58,286,39,30,48,198,33*75
$GPGSV,3,2,12,18,42,129,34,03,40,288,41,22,19,170,37,19,13,282,44*71
$GPGSV,3,3,12,07,13,328,27,29,08,102,35,26,06,040,,15,05,074,38*7A
$GPRMC,140430.000,A,5230.5533,N,01326.1026,E,0.93,187.20,140912,,,A*62
$GPGGA,140431.000,5230.5534,N,01326.1031,E,1,07,1.6,40.8,M,44.6,M,,0000*63
$GPGSA,A,3,30,16,06,03,19,18,21,,,,,,2.6,1.6,2.0*30
$GPRMC,140434.000,A,5230.5537,N,01326.1046,E,0.83,183.96,140912,,,A*6C
$GPGGA,140435.000,5230.5539,N,01326.1051,E,1,08,1.3,38.7,M,44.6,M,,0000*66
$GPGSA,A,3,30,16,06,03,19,18,07,21,,,,,2.2,1.3,1.8*3D
$GPGSV,3,1,12,16,64,255,35,21,59,071,29,06,58,286,38,30,48,198,33*78
$GPGSV,3,2,12,18,42,129,35,03,40,288,40,22,19,170,31,19,13,282,41*72
$GPGSV,3,3,12,07,13,328,29,29,08,102,31,26,06,040,17,15,05,074,32*7C
$GPRMC,140438.000,A,5230.5542,N,01326.1068,E,1.35,165.29,140912,,,A*6E
$GPGGA,140439.000,5230.5541,N,01326.1075,E,1,07,1.7,36.7,M,44.6,M,,0000*66
$GPGSA,A,3,30,16,06,03,19,18,07,,,,,,2.5,1.7,1.9*3C
$GPRMC,140439.000,A,5230.5541,N,01326.1075,E,1.27,161.78,140912,,,A*63
$GPGGA,140440.000,5230.5538,N,01326.1080,E,1,08,1.3,36.4,M,44.6,M,,0000*64
$GPGSA,A,3,30,16,06,03,19,18,07,21,,,,,2.2,1.3,1.8*3D
$GPGSV,3,1,12,16,64,255,36,21,59,071,34,06,58,286,40,30,48,198,33*78
$GPGSV,3,2,12,18,42,129,34,03,40,288,47,22,19,170,33,19,13,282,40*77
$GPGSV,3,3,12,07,13,328,30,29,08,102,32,26,06,040,23,15,05,074,41*74
$GPRMC,140440.000,A,5230.5538,N,01326.1080,E,1.81,165.89,140912,,,A*6F
$GPGGA,140441.000,5230.5537,N,01326.1085,E,1,08,1.3,36.1,M,44.6,M,,0000*6A
$GPGSA,A,3,30,16,06,03,19,18,07,21,,,,,2.2,1.3,1.8*3D
$GPRMC,140441.000,A,5230.5537,N,01326.1085,E,1.09,162.61,140912,,,A*65
$GPGGA,140442.000,5230.5534,N,01326.1090,E,1,08,1.3,35.9,M,44.6,M,,0000*65
$GPGSA,A,3,30,16,06,03,19,18,07,21,,,,,2.2,1.3,1.8*3D
$GPRMC,140442.000,A,5230.5534,N,01326.1090,E,1.36,161.94,140912,,,A*64
$GPGGA,140443.000,5230.5532,N,01326.1094,E,1,08,1.3,35.7,M,44.6,M,,0000*68
$GPGSA,A,3,30,16,06,03,19,18,07,21,,,,,2.2,1.3,1.8*3D
$GPRMC,140443.000,A,5230.5532,N,01326.1094,E,1.10,156.99,140912,,,A*6A
$GPGGA,140444.000,5230.5527,N,01326.1096,E,1,08,1.3,35.4,M,44.6,M,,0000*6A
$GPGSA,A,3,30,16,06,03,19,18,07,21,,,,,2.2,1.3,1.8*3D
$GPRMC,140444.000,A,5230.5527,N,01326.1096,E,1.67,190.36,140912,,,A*64
$GPGGA,140445.000,5230.5522,N,01326.1095,E,1,08,1.3,35.2,M,44.6,M,,0000*6B
$GPGSA,A,3,30,16,06,03,19,18,07,21,,,,,2.2,1.3,1.8*3D
$GPGSV,3,1,12,16,64,255,33,21,59,071,34,06,58,286,40,30,48,198,34*7A
$GPGSV,3,2,12,18,42,129,34,03,40,288,35,22,19,170,32,19,13,282,34*70
$GPGSV,3,3,12,07,13,328,24,29,08,102,33,26,06,040,32,15,05,074,33*75
$GPRMC,140445.000,A,5230.5522,N,01326.1095,E,1.86,196.31,140912,,,A*6D
$GPGGA,140446.000,5230.5517,N,01326.1098,E,1,08,1.3,35.0,M,44.6,M,,0000*61
$GPGSA,A,3,30,16,06,03,19,18,07,21,,,,,2.2,1.3,1.8*3D
$GPRMC,140446.000,A,5230.5517,N,01326.1098,E,1.53,167.50,140912,,,A*64
$GPGGA,140447.000,5230.5512,N,01326.1100,E,1,08,1.3,34.8,M,44.6,M,,0000*6C
$GPGSA,A,3,30,16,06,03,19,18,07,21,,,,,2.2,1.3,1.8*3D
$GPRMC,140447.000,A,5230.5512,N,01326.1100,E,1.45,172.62,140912,,,A*62
$GPGGA,140448.000,5230.5508,N,01326.1101,E,1,08,1.3,34.6,M,44.6,M,,0000*67
$GPGSA,A,3,30,16,06,03,19,18,07,21,,,,,2.2,1.3,1.8*3D
$GPRMC,140448.000,A,5230.5508,N,01326.1101,E,0.88,183.29,140912,,,A*66
$GPGGA,140449.000,5230.5504,N,01326.1099,E,1,08,1.3,34.5,M,44.6,M,,0000*69
$GPGSA,A,3,30,16,06,03,19,18,07,21,,,,,2.2,1.3,1.8*3D
$GPRMC,140449.000,A,5230.5504,N,01326.1099,E,1.05,211.10,140912,,,A*6D
$GPGGA,140450.000,5230.5498,N,01326.1097,E,1,08,1.3,34.2,M,44.6,M,,0000*6C
$GPGSA,A,3,30,16,06,03,19,18,07,21,,,,,2.2,1.3,1.8*3D
$GPGSV,3,1,12,16,64,255,32,21,59,071,34,06,58,286,33,30,48,198,34*7F
$GPGSV,3,2,12,18,42,129,35,03,40,288,34,22,19,170,33,19,13,282,36*73
$GPGSV,3,3,12,07,13,328,31,29,08,102,33,26,06,040,42,15,05,074,28*7C
$GPRMC,140450.000,A,5230.5498,N,01326.1097,E,1.45,207.61,140912,,,A*6A
$GPGGA,140451.000,5230.5492,N,01326.1094,E,1,08,1.3,33.8,M,44.6,M,,0000*69
$GPGSA,A,3,30,16,06,03,19,18,07,21,,,,,2.2,1.3,1.8*3D
$GPRMC,140451.000,A,5230.5492,N,01326.1094,E,1.65,212.79,140912,,,A*6D
$GPGGA,140452.000,5230.5487,N,01326.1091,E,1,08,1.3,33.4,M,44.6,M,,0000*67
$GPGSA,A,3,30,16,06,03,19,18,07,21,,,,,2.2,1.3,1.8*3D
$GPRMC,140452.000,A,5230.5487,N,01326.1091,E,1.22,207.31,140912,,,A*64
$GPGGA,140453.000,5230.5482,N,01326.1089,E,1,08,1.3,33.0,M,44.6,M,,0000*6E
$GPGSA,A,3,30,16,06,03,19,18,07,21,,,,,2.2,1.3,1.8*3D
$GPRMC,140453.000,A,5230.5482,N,01326.1089,E,1.21,213.13,140912,,,A*6F
$GPGGA,140454.000,5230.5477,N,01326.1088,E,1,08,1.3,32.6,M,44.6,M,,0000*65
$GPGSA,A,3,30,16,06,03,19,18,07,21,,,,,2.2,1.3,1.8*3D
$GPRMC,140454.000,A,5230.5477,N,01326.1088,E,0.88,194.61,140912,,,A*68
$GPGGA,140455.000,5230.5471,N,01326.1086,E,1,08,1.3,32.2,M,44.6,M,,0000*68
$GPGSA,A,3,30,16,06,03,19,18,07,21,,,,,2.2,1.3,1.8*3D
$GPGSV,3,1,12,16,64,255,32,21,59,071,34,06,58,286,32,30,48,198,33*79
$GPGSV,3,2,12,18,42,129,40,03,40,288,36,22,19,170,37,19,13,282,36*77
$GPGSV,3,3,12,07,13,328,40,29,08,102,29,26,06,040,48,15,05,074,28*7B
$GPRMC,140455.000,A,5230.5471,N,01326.1086,E,1.18,202.10,140912,,,A*63
$GPGGA,140456.000,5230.5465,N,01326.1083,E,1,08,1.3,31.8,M,44.6,M,,0000*62
$GPGSA,A,3,30,16,06,03,19,18,07,21,,,,,2.2,1.3,1.8*3D
$GPRMC,140456.000,A,5230.5465,N,01326.1083,E,1.41,207.27,140912,,,A*6D
$GPGGA,140457.000,5230.5459,N,01326.1081,E,1,08,1.3,31.5,M,44.6,M,,0000*63
$GPGSA,A,3,30,16,06,03,19,18,07,21,,,,,2.2,1.3,1.8*3D
$GPRMC,140457.000,A,5230.5459,N,01326.1081,E,1.43,202.96,140912,,,A*6C
$GPGGA,140458.000,5230.5453,N,01326.1078,E,1,08,1.3,31.2,M,44.6,M,,0000*67
$GPGSA,A,3,30,16,06,03,19,18,07,21,,,,,2.2,1.3,1.8*3D
$GPRMC,140458.000,A,5230.5453,N,01326.1078,E,1.55,204.40,140912,,,A*65
$GPGGA,140459.000,5230.5446,N,01326.1076,E,1,08,1.3,30.8,M,44.6,M,,0000*67
$GPGSA,A,3,30,16,06,03,19,18,07,21,,,,,2.2,1.3,1.8*3D
$GPRMC,140459.000,A,5230.5446,N,01326.1076,E,1.54,203.31,140912,,,A*6E
$GPGGA,140500.000,5230.5440,N,01326.1074,E,1,08,1.3,30.2,M,44.6,M,,0000*64
$GPGSA,A,3,30,16,06,03,19,18,07,21,,,,,2.2,1.3,1.8*3D
$GPGSV,3,1,12,16,64,255,30,21,59,071,33,06,58,286,35,30,48,198,32*7A
$GPGSV,3,2,12,18,42,129,36,03,40,288,38,22,19,170,32,19,13,282,37*7C
$GPGSV,3,3,12,07,13,328,45,29,08,102,31,26,06,040,45,15,05,074,27*75
$GPRMC,140500.000,A,5230.5440,N,01326.1074,E,1.25,205.80,140912,,,A*6D
$GPGGA,140501.000,5230.5436,N,01326.1072,E,1,07,1.3,29.8,M,44.6,M,,0000*6F
$GPGSA,A,3,30,06,03,19,18,07,21,,,,,,2.4,1.3,2.0*37
$GPRMC,140502.000,A,5230.5431,N,01326.1070,E,0.83,207.39,140912,,,A*60
$GPGGA,140503.000,5230.5425,N,01326.1069,E,1,08,1.3,29.2,M,44.6,M,,0000*60
$GPGSA,A,3,30,16,06,03,19,18,07,21,,,,,2.2,1.3,1.8*3D
$GPRMC,140503.000,A,5230.5425,N,01326.1069,E,1.15,188.93,140912,,,A*66
$GPGGA,140504.000,5230.5420,N,01326.1066,E,1,08,1.3,28.8,M,44.6,M,,0000*66
$GPGSA,A,3,30,16,06,03,19,18,07,21,,,,,2.2,1.3,1.8*3D
$GPRMC,140504.000,A,5230.5420,N,01326.1066,E,1.27,207.05,140912,,,A*61
$GPGGA,140505.000,5230.5414,N,01326.1064,E,1,08,1.3,28.4,M,44.6,M,,0000*6E
$GPGSA,A,3,30,16,06,03,19,18,07,21,,,,,2.2,1.3,1.8*3D
$GPGSV,3,1,12,16,64,255,31,21,59,071,32,06,58,286,31,30,48,198,32*7E
$GPGSV,3,2,12,18,42,129,36,03,40,288,32,22,19,170,32,19,13,282,31*70
$GPGSV,3,3,12,07,13,328,39,29,08,102,31,26,06,040,39,15,05,074,35*76
$GPRMC,140505.000,A,5230.5414,N,01326.1064,E,1.26,203.29,140912,,,A*6E
$GPGGA,140506.000,5230.5409,N,01326.1061,E,1,08,1.3,28.1,M,44.6,M,,0000*61
$GPGSA,A,3,30,16,06,03,19,18,07,21,,,,,2.2,1.3,1.8*3D
$GPRMC,140506.000,A,5230.5409,N,01326.1061,E,0.90,209.64,140912,,,A*6B
$GPGGA,140507.000,5230.5404,N,01326.1058,E,1,08,1.3,27.8,M,44.6,M,,0000*61
$GPGSA,A,3,30,16,06,03,19,18,07,21,,,,,2.2,1.3,1.8*3D
$GPRMC,140507.000,A,5230.5404,N,01326.1058,E,1.00,212.36,140912,,,A*68
$GPGGA,140508.000,5230.5400,N,01326.1055,E,1,08,1.3,27.5,M,44.6,M,,0000*6A
$GPGSA,A,3,30,16,06,03,19,18,07,21,,,,,2.2,1.3,1.8*3D
$GPRMC,140511.000,A,5230.5387,N,01326.1049,E,0.94,204.20,140912,,,A*6F
$GPGGA,140512.000,5230.5382,N,01326.1046,E,1,08,1.3,25.5,M,44.6,M,,0000*6C
$GPGSA,A,3,30,16,06,03,19,18,07,21,,,,,2.2,1.3,1.8*3D
$GPRMC,140512.000,A,5230.5382,N,01326.1046,E,1.06,205.99,140912,,,A*6F
$GPGGA,140513.000,5230.5378,N,01326.1044,E,1,07,1.4,24.8,M,44.6,M,,0000*6E
$GPGSA,A,3,30,16,06,19,18,07,21,,,,,,2.3,1.4,1.8*38
$GPRMC,140513.000,A,5230.5378,N,01326.1044,E,0.96,202.53,140912,,,A*60
$GPGGA,140514.000,5230.5373,N,01326.1043,E,1,08,1.3,24.1,M,44.6,M,,0000*64
$GPGSA,A,3,30,16,06,03,19,18,07,21,,,,,2.2,1.3,1.8*3D
$GPRMC,140514.000,A,5230.5373,N,01326.1043,E,0.90,202.62,140912,,,A*6F
$GPGGA,140515.000,5230.5369,N,01326.1041,E,1,08,1.3,23.5,M,44.6,M,,0000*6F
$GPGSA,A,3,30,16,06,03,19,18,07,21,,,,,2.2,1.3,1.8*3D
$GPGSV,3,1,12,16,64,255,31,21,59,071,33,06,58,286,33,30,48,198,32*7D
$GPGSV,3,2,12,18,42,129,38,03,40,288,32,22,19,170,32,19,13,282,32*7D
$GPGSV,3,3,12,07,13,328,43,29,08,102,25,26,06,040,39,15,05,074,22*78
$GPRMC,140515.000,A,5230.5369,N,01326.1041,E,0.87,198.35,140912,,,A*63
$GPGGA,140516.000,5230.5365,N,01326.1040,E,1,08,1.3,22.9,M,44.6,M,,0000*6C
$GPGSA,A,3,30,16,06,03,19,18,07,21,,,,,2.2,1.3,1.8*3D
$GPRMC,140517.000,A,5230.5360,N,01326.1036,E,1.14,214.70,140912,,,A*65
$GPGGA,140518.000,5230.5354,N,01326.1032,E,1,08,1.3,21.9,M,44.6,M,,0000*66
$GPGSA,A,3,30,16,06,03,19,18,07,21,,,,,2.2,1.3,1.8*3D
$GPRMC,140518.000,A,5230.5354,N,01326.1032,E,1.58,215.54,140912,,,A*66
$GPGGA,140519.000,5230.5349,N,01326.1029,E,1,08,1.3,21.4,M,44.6,M,,0000*6C
$GPGSA,A,3,30,16,06,03,19,18,07,21,,,,,2.2,1.3,1.8*3D
$GPRMC,140519.000,A,5230.5349,N,01326.1029,E,1.08,205.18,140912,,,A*6D
$GPGGA,140520.000,5230.5346,N,01326.1026,E,1,08,1.3,21.1,M,44.6,M,,0000*63
$GPGSA,A,3,30,16,06,03,19,18,07,21,,,,,2.2,1.3,1.8*3D
$GPGSV,3,1,12,16,64,255,26,21,59,071,34,06,58,286,30,30,48,198,28*74
$GPGSV,3,2,12,18,42,129,35,03,40,288,30,22,19,170,32,19,13,282,31*71
$GPGSV,3,3,12,07,13,328,37,29,08,102,34,26,06,040,31,15,05,074,26*77
$GPRMC,140520.000,A,5230.5346,N,01326.1026,E,0.85,220.81,140912,,,A*64
$GPGGA,140521.000,5230.5341,N,01326.1023,E,1,08,1.3,20.8,M,44.6,M,,0000*68
$GPGSA,A,3,30,16,06,03,19,18,07,21,,,,,2.2,1.3,1.8*3D
$GPRMC,140521.000,A,5230.5341,N,01326.1023,E,1.07,208.08,140912,,,A*67
$GPGGA,140522.000,5230.5338,N,01326.1020,E,1,08,1.3,20.6,M,44.6,M,,0000*68
$GPGSA,A,3,30,16,06,03,19,18,07,21,,,,,2.2,1.3,1.8*3D
$GPRMC,140522.000,A,5230.5338,N,01326.1020,E,0.86,228.46,140912,,,A*69
$GPGGA,140523.000,5230.5336,N,01326.1017,E,1,08,1.3,20.5,M,44.6,M,,0000*60
$GPGSA,A,3,30,16,06,03,19,18,07,21,,,,,2.2,1.3,1.8*3D
$GPRMC,140524.000,A,5230.5333,N,01326.1013,E,1.00,254.99,140912,,,A*62
$GPGGA,140525.000,5230.5330,N,01326.1009,E,1,07,1.4,20.3,M,44.6,M,,0000*61
$GPGSA,A,3,30,16,06,19,18,07,21,,,,,,2.3,1.4,1.8*38
$GPGSV,3,1,12,16,64,255,31,21,59,071,32,06,58,286,30,30,48,198,30*7D
$GPGSV,3,2,12,18,42,129,35,03,40,288,,22,19,170,38,19,13,282,32*7B
$GPGSV,3,3,12,07,13,328,39,29,08,102,34,26,06,040,41,15,05,074,25*7D
$GPRMC,140525.000,A,5230.5330,N,01326.1009,E,0.85,237.24,140912,,,A*64
$GPGGA,140526.000,5230.5328,N,01326.1002,E,1,08,1.3,20.7,M,44.6,M,,0000*6C
$GPGSA,A,3,30,16,06,03,19,18,07,21,,,,,2.2,1.3,1.8*3D
$GPRMC,140526.000,A,5230.5328,N,01326.1002,E,1.19,259.86,140912,,,A*61
$GPGGA,140527.000,5230.5327,N,01326.0993,E,1,08,1.3,21.2,M,44.6,M,,0000*66
$GPGSA,A,3,30,16,06,03,19,18,07,21,,,,,2.2,1.3,1.8*3D
$GPRMC,140527.000,A,5230.5327,N,01326.0993,E,1.49,277.11,140912,,,A*68
$GPGGA,140528.000,5230.5326,N,01326.0983,E,1,07,1.4,21.8,M,44.6,M,,0000*6B
$GPGSA,A,3,30,16,06,03,18,07,21,,,,,,2.6,1.4,2.2*3F
$GPRMC,140528.000,A,5230.5326,N,01326.0983,E,1.88,266.33,140912,,,A*6A
$GPGGA,140529.000,5230.5325,N,01326.0976,E,1,06,1.6,22.5,M,44.6,M,,0000*6E
$GPGSA,A,3,30,16,06,03,18,21,,,,,,,4.7,1.6,4.4*3D
$GPRMC,140529.000,A,5230.5325,N,01326.0976,E,1.19,278.25,140912,,,A*62
$GPGGA,140530.000,5230.5325,N,01326.0967,E,1,07,1.7,23.2,M,44.6,M,,0000*60
$GPGSA,A,3,30,16,06,03,19,18,07,,,,,,2.5,1.7,1.9*3C
$GPGSV,3,1,12,16,64,255,30,21,59,071,,06,58,286,31,30,48,198,31*7D
$GPGSV,3,2,12,18,42,129,35,03,40,288,27,22,19,170,41,19,13,282,24*77
$GPGSV,3,3,12,07,13,328,38,29,08,102,41,26,06,040,33,15,05,074,29*77
$GPRMC,140530.000,A,5230.5325,N,01326.0967,E,1.43,280.43,140912,,,A*62
$GPGGA,140531.000,5230.5327,N,01326.0962,E,1,06,2.0,23.8,M,44.6,M,,0000*69
$GPGSA,A,3,16,06,03,19,18,07,,,,,,,2.8,2.0,1.9*36
$GPRMC,140531.000,A,5230.5327,N,01326.0962,E,1.20,321.08,140912,,,A*64
$GPGGA,140532.000,5230.5327,N,01326.0957,E,1,07,1.4,24.4,M,44.6,M,,0000*61
$GPGSA,A,3,30,16,06,19,18,07,21,,,,,,2.3,1.4,1.8*38
$GPRMC,140532.000,A,5230.5327,N,01326.0957,E,1.08,311.86,140912,,,A*6E
$GPGGA,140533.000,5230.5326,N,01326.0950,E,1,07,1.4,24.8,M,44.6,M,,0000*6A
$GPGSA,A,3,30,16,06,19,18,07,21,,,,,,2.3,1.4,1.8*38
$GPRMC,140533.000,A,5230.5326,N,01326.0950,E,1.20,262.68,140912,,,A*66
$GPGGA,140534.000,5230.5324,N,01326.0943,E,1,08,1.3,25.2,M,44.6,M,,0000*6E
$GPGSA,A,3,30,16,06,03,19,18,07,21,,,,,2.2,1.3,1.8*3D
$GPRMC,140534.000,A,5230.5324,N,01326.0943,E,0.98,266.21,140912,,,A*6A
$GPGGA,140535.000,5230.5321,N,01326.0936,E,1,08,1.3,25.4,M,44.6,M,,0000*6E
$GPGSA,A,3,30,16,06,03,19,18,07,21,,,,,2.2,1.3,1.8*3D
$GPGSV,3,1,12,16,64,255,28,21,59,071,39,06,58,286,30,30,48,198,29*76
$GPGSV,3,2,12,18,42,129,35,03,40,288,32,22,19,170,40,19,13,282,29*7F
$GPGSV,3,3,12,07,13,328,32,29,08,102,42,26,06,040,32,15,05,074,30*77
$GPRMC,140535.000,A,5230.5321,N,01326.0936,E,1.03,240.93,140912,,,A*62
$GPGGA,140536.000,5230.5319,N,01326.0931,E,1,08,1.3,25.5,M,44.6,M,,0000*60
$GPGSA,A,3,30,16,06,03,19,18,07,21,,,,,2.2,1.3,1.8*3D
$GPRMC,140634.000,A,5230.5250,N,01326.0804,E,1.05,193.46,140912,,,A*64
$GPGGA,140635.000,5230.5246,N,01326.0801,E,1,08,1.1,42.8,M,44.6,M,,0000*67
$GPGSA,A,3,30,22,16,03,19,18,07,21,,,,,1.9,1.1,1.5*3C
$GPGSV,3,1,12,16,64,253,29,06,59,286,,21,58,071,35,30,47,197,33*75
$GPGSV,3,2,12,18,43,128,38,03,41,288,29,22,19,170,33,19,14,282,27*74
$GPGSV,3,3,12,07,13,327,34,29,07,102,43,26,07,039,26,15,06,073,*7D
$GPRMC,140635.000,A,5230.5246,N,01326.0801,E,1.49,210.68,140912,,,A*6B
$GPGGA,140636.000,5230.5243,N,01326.0798,E,1,09,1.1,42.3,M,44.6,M,,0000*64
$GPGSA,A,3,30,22,16,03,19,18,07,06,21,,,,1.8,1.1,1.4*3A
$GPRMC,140636.000,A,5230.5243,N,01326.0798,E,1.31,204.61,140912,,,A*61
$GPGGA,140637.000,5230.5238,N,01326.0795,E,1,09,1.1,41.8,M,44.6,M,,0000*6C
$GPGSA,A,3,30,22,16,03,19,18,07,06,21,,,,1.8,1.1,1.4*3A
$GPRMC,140637.000,A,5230.5238,N,01326.0795,E,1.62,207.80,140912,,,A*6B
$GPGGA,140638.000,5230.5235,N,01326.0793,E,1,09,1.1,41.1,M,44.6,M,,0000*61
$GPGSA,A,3,30,22,16,03,19,18,07,06,21,,,,1.8,1.1,1.4*3A
$GPRMC,140638.000,A,5230.5235,N,01326.0793,E,1.23,201.63,140912,,,A*61
$GPGGA,140639.000,5230.5232,N,01326.0792,E,1,08,1.2,40.4,M,44.6,M,,0000*60
$GPGSA,A,3,30,22,16,03,18,07,06,21,,,,,1.9,1.2,1.5*31
$GPRMC,140639.000,A,5230.5232,N,01326.0792,E,0.97,202.08,140912,,,A*66
$GPGGA,140640.000,5230.5230,N,01326.0791,E,1,08,1.2,39.7,M,44.6,M,,0000*62
$GPGSA,A,3,30,22,16,03,18,07,06,21,,,,,1.9,1.2,1.5*31
$GPGSV,3,1,12,16,64,253,30,06,59,286,30,21,58,071,30,30,47,197,33*7B
$GPGSV,3,2,12,18,43,128,38,03,41,288,30,22,19,170,33,19,14,282,*79
$GPGSV,3,3,12,07,13,327,37,29,07,102,42,26,07,039,31,15,06,073,23*78
$GPRMC,140641.000,A,5230.5227,N,01326.0791,E,1.18,192.03,140912,,,A*69
$GPGGA,140642.000,5230.5224,N,01326.0789,E,1,08,1.1,38.1,M,44.6,M,,0000*68
$GPGSA,A,3,30,22,16,19,18,07,06,21,,,,,1.8,1.1,1.4*39
$GPRMC,140642.000,A,5230.5224,N,01326.0789,E,0.87,214.18,140912,,,A*60
$GPGGA,140643.000,5230.5222,N,01326.0788,E,1,08,1.1,37.4,M,44.6,M,,0000*64
$GPGSA,A,3,30,22,16,19,18,07,06,21,,,,,1.8,1.1,1.4*39
$GPRMC,140643.000,A,5230.5222,N,01326.0788,E,0.97,201.05,140912,,,A*6F
$GPGGA,140644.000,5230.5219,N,01326.0786,E,1,09,1.1,36.6,M,44.6,M,,0000*67
$GPGSA,A,3,30,22,16,03,19,18,07,06,21,,,,1.8,1.1,1.4*3A
$GPRMC,140644.000,A,5230.5219,N,01326.0786,E,1.10,201.84,140912,,,A*69
$GPGGA,140645.000,5230.5215,N,01326.0784,E,1,08,1.2,35.9,M,44.6,M,,0000*66
$GPGSA,A,3,30,22,03,19,18,07,06,21,,,,,1.9,1.2,1.6*3D
$GPGSV,3,1,12,16,64,253,,06,59,286,31,21,58,071,35,30,47,197,33*7C
$GPGSV,3,2,12,18,43,128,38,03,41,288,35,22,19,170,33,19,14,282,25*7B
$GPGSV,3,3,12,07,13,327,37,29,07,102,40,26,07,039,22,15,06,073,29*72
$GPRMC,140645.000,A,5230.5215,N,01326.0784,E,1.30,203.19,140912,,,A*62
$GPGGA,140646.000,5230.5212,N,01326.0782,E,1,09,1.1,35.3,M,44.6,M,,0000*6C
$GPGSA,A,3,30,22,16,03,19,18,07,06,21,,,,1.8,1.1,1.4*3A
$GPRMC,140646.000,A,5230.5212,N,01326.0782,E,1.24,200.33,140912,,,A*6E
$GPGGA,140647.000,5230.5209,N,01326.0778,E,1,09,1.1,34.8,M,44.6,M,,0000*68
$GPGSA,A,3,30,22,16,03,19,18,07,06,21,,,,1.8,1.1,1.4*3A
$GPRMC,140647.000,A,5230.5209,N,01326.0778,E,1.04,214.53,140912,,,A*61
$GPGGA,140648.000,5230.5206,N,01326.0774,E,1,09,1.1,34.4,M,44.6,M,,0000*68
$GPGSA,A,3,30,22,16,03,19,18,07,06,21,,,,1.8,1.1,1.4*3A
$GPRMC,140648.000,A,5230.5206,N,01326.0774,E,1.45,212.66,140912,,,A*68
$GPGGA,140649.000,5230.5201,N,01326.0768,E,1,09,1.1,34.1,M,44.6,M,,0000*66
$GPGSA,A,3,30,22,16,03,19,18,07,06,21,,,,1.8,1.1,1.4*3A
$GPRMC,140649.000,A,5230.5201,N,01326.0768,E,2.07,207.24,140912,,,A*64
$GPGGA,140650.000,5230.5198,N,01326.0764,E,1,09,1.1,33.9,M,44.6,M,,0000*6E
$GPGSA,A,3,30,22,16,03,19,18,07,06,21,,,,1.8,1.1,1.4*3A
$GPGSV,3,1,12,16,64,253,27,06,59,286,32,21,58,071,29,30,47,197,29*7C
$GPGSV,3,2,12,18,43,128,37,03,41,288,34,22,19,170,32,19,14,282,31*71
$GPGSV,3,3,12,07,13,327,37,29,07,102,41,26,07,039,22,15,06,073,34*7F
$GPRMC,140650.000,A,5230.5198,N,01326.0764,E,1.25,210.23,140912,,,A*61
$GPGGA,140651.000,5230.5194,N,01326.0760,E,1,08,1.2,33.9,M,44.6,M,,0000*65
$GPGSA,A,3,22,16,03,19,18,07,06,21,,,,,1.9,1.2,1.4*3B
$GPRMC,140651.000,A,5230.5194,N,01326.0760,E,1.45,207.75,140912,,,A*6B
$GPGGA,140652.000,5230.5191,N,01326.0756,E,1,09,1.1,33.9,M,44.6,M,,0000*64
$GPGSA,A,3,30,22,16,03,19,18,07,06,21,,,,1.8,1.1,1.4*3A
$GPRMC,140652.000,A,5230.5191,N,01326.0756,E,1.04,210.81,140912,,,A*60
$GPGGA,140653.000,5230.5189,N,01326.0751,E,1,09,1.1,33.9,M,44.6,M,,0000*6B
$GPGSA,A,3,30,22,16,03,19,18,07,06,21,,,,1.8,1.1,1.4*3A
$GPRMC,140653.000,A,5230.5189,N,01326.0751,E,1.07,222.42,140912,,,A*62
$GPGGA,140654.000,5230.5186,N,01326.0743,E,1,09,1.1,33.9,M,44.6,M,,0000*60
$GPGSA,A,3,30,22,16,03,19,18,07,06,21,,,,1.8,1.1,1.4*3A
$GPRMC,140654.000,A,5230.5186,N,01326.0743,E,1.52,231.98,140912,,,A*6C
$GPGGA,140655.000,5230.5183,N,01326.0737,E,1,09,1.1,33.9,M,44.6,M,,0000*67
$GPGSA,A,3,30,22,16,03,19,18,07,06,21,,,,1.8,1.1,1.4*3A
$GPGSV,3,1,12,16,64,253,28,06,59,286,32,21,58,071,34,30,47,197,29*7F
$GPGSV,3,2,12,18,43,128,37,03,41,288,38,22,19,170,32,19,14,282,31*7D
$GPGSV,3,3,12,07,13,327,39,29,07,102,41,26,07,039,23,15,06,073,34*70
$GPRMC,140655.000,A,5230.5183,N,01326.0737,E,1.29,219.77,140912,,,A*6C
$GPGGA,140656.000,5230.5178,N,01326.0731,E,1,09,1.1,34.0,M,44.6,M,,0000*68
$GPGSA,A,3,30,22,16,03,19,18,07,06,21,,,,1.8,1.1,1.4*3A
$GPRMC,140656.000,A,5230.5178,N,01326.0731,E,1.71,209.84,140912,,,A*6D
$GPGGA,140657.000,5230.5174,N,01326.0725,E,1,09,1.1,34.1,M,44.6,M,,0000*61
$GPGSA,A,3,30,22,16,03,19,18,07,06,21,,,,1.8,1.1,1.4*3A
$GPRMC,140657.000,A,5230.5174,N,01326.0725,E,1.52,206.18,140912,,,A*6E
$GPGGA,140658.000,5230.5171,N,01326.0719,E,1,09,1.1,34.2,M,44.6,M,,0000*67
$GPGSA,A,3,30,22,16,03,19,18,07,06,21,,,,1.8,1.1,1.4*3A
$GPRMC,140658.000,A,5230.5171,N,01326.0719,E,1.31,218.94,140912,,,A*65
$GPGGA,140659.000,5230.5168,N,01326.0715,E,1,09,1.1,34.2,M,44.6,M,,0000*62
$GPGSA,A,3,30,22,16,03,19,18,07,06,21,,,,1.8,1.1,1.4*3A
$GPRMC,140659.000,A,5230.5168,N,01326.0715,E,0.93,203.26,140912,,,A*6A
$GPGGA,140700.000,5230.5165,N,01326.0712,E,1,08,1.2,34.1,M,44.6,M,,0000*64
$GPGSA,A,3,30,22,03,19,18,07,06,21,,,,,1.9,1.2,1.6*3D
$GPGSV,3,1,12,16,64,253,,06,59,286,32,21,58,071,30,30,47,197,30*79
$GPGSV,3,2,12,18,43,128,37,03,41,288,33,22,20,170,25,19,14,282,31*7A
$GPGSV,3,3,12,07,13,327,38,29,07,103,41,26,07,039,23,15,06,073,39*7D
$GPRMC,140707.000,A,5230.5155,N,01326.0705,E,1.10,106.74,140912,,,A*64
$GPGGA,140708.000,5230.5154,N,01326.0706,E,1,09,1.1,35.5,M,44.6,M,,0000*6C
$GPGSA,A,3,30,22,16,03,19,18,07,06,21,,,,1.8,1.1,1.4*3A
$GPRMC,140709.000,A,5230.5154,N,01326.0710,E,1.25,74.28,140912,,,A*54
$GPGGA,140710.000,5230.5153,N,01326.0715,E,1,08,1.1,35.7,M,44.6,M,,0000*63
$GPGSA,A,3,30,22,16,03,19,18,07,21,,,,,1.9,1.1,1.5*3C
$GPGSV,3,1,12,16,64,253,24,06,59,286,,21,58,071,30,30,47,197,22*7D
$GPGSV,3,2,12,18,43,128,29,03,41,288,28,22,20,170,19,19,14,282,18*7B
$GPGSV,3,3,12,07,13,327,26,29,07,103,29,26,07,039,26,15,06,073,37*77
$GPRMC,140710.000,A,5230.5153,N,01326.0715,E,1.50,93.48,140912,,,A*53
$GPGGA,140711.000,5230.5152,N,01326.0719,E,1,08,1.1,35.6,M,44.6,M,,0000*6E
$GPGSA,A,3,30,22,16,03,19,18,07,21,,,,,1.9,1.1,1.5*3C
$GPRMC,140711.000,A,5230.5152,N,01326.0719,E,1.14,83.49,140912,,,A*5F
$GPGGA,140712.000,5230.5150,N,01326.0723,E,1,09,1.1,35.6,M,44.6,M,,0000*67
$GPGSA,A,3,30,22,16,03,19,18,07,06,21,,,,1.8,1.1,1.4*3A
$GPRMC,140712.000,A,5230.5150,N,01326.0723,E,1.31,117.74,140912,,,A*62
$GPGGA,140713.000,5230.5145,N,01326.0726,E,1,09,1.1,35.6,M,44.6,M,,0000*67
$GPGSA,A,3,30,22,16,03,19,18,07,06,21,,,,1.8,1.1,1.4*3A
$GPRMC,140713.000,A,5230.5145,N,01326.0726,E,1.67,141.61,140912,,,A*66
$GPGGA,140714.000,5230.5141,N,01326.0729,E,1,09,1.1,35.8,M,44.6,M,,0000*65
$GPGSA,A,3,30,22,16,03,19,18,07,06,21,,,,1.8,1.1,1.4*3A
$GPRMC,140714.000,A,5230.5141,N,01326.0729,E,1.37,141.73,140912,,,A*6C
$GPGGA,140715.000,5230.5137,N,01326.0730,E,1,09,1.1,35.9,M,44.6,M,,0000*6C
$GPGSA,A,3,30,22,16,03,19,18,07,06,21,,,,1.8,1.1,1.4*3A
$GPGSV,3,1,12,16,64,253,25,06,59,286,28,21,58,071,32,30,47,197,25*73
$GPGSV,3,2,12,18,43,128,33,03,41,288,29,22,20,170,27,19,14,282,23*74
$GPGSV,3,3,12,07,13,327,37,29,07,103,39,26,07,039,34,15,06,073,33*71
$GPRMC,140715.000,A,5230.5137,N,01326.0730,E,1.14,145.53,140912,,,A*63
$GPGGA,140716.000,5230.5134,N,01326.0733,E,1,09,1.1,35.9,M,44.6,M,,0000*6F
$GPGSA,A,3,30,22,16,03,19,18,07,06,21,,,,1.8,1.1,1.4*3A
$GPRMC,140716.000,A,5230.5134,N,01326.0733,E,1.24,132.07,140912,,,A*62
$GPGGA,140717.000,5230.5129,N,01326.0738,E,1,09,1.1,35.8,M,44.6,M,,0000*68
$GPGSA,A,3,30,22,16,03,19,18,07,06,21,,,,1.8,1.1,1.4*3A
$GPRMC,140717.000,A,5230.5129,N,01326.0738,E,1.79,127.30,140912,,,A*6C
$GPGGA,140718.000,5230.5126,N,01326.0742,E,1,09,1.1,35.6,M,44.6,M,,0000*6B
$GPGSA,A,3,30,22,16,03,19,18,07,06,21,,,,1.8,1.1,1.4*3A
$GPRMC,140718.000,A,5230.5126,N,01326.0742,E,1.45,119.81,140912,,,A*69
$GPGGA,140719.000,5230.5121,N,01326.0745,E,1,09,1.1,35.4,M,44.6,M,,0000*68
$GPGSA,A,3,30,22,16,03,19,18,07,06,21,,,,1.8,1.1,1.4*3A
$GPRMC,140719.000,A,5230.5121,N,01326.0745,E,1.35,138.49,140912,,,A*68
$GPGGA,140720.000,5230.5116,N,01326.0747,E,1,08,1.4,35.3,M,44.6,M,,0000*67
$GPGSA,A,3,30,22,16,03,19,18,06,21,,,,,2.2,1.4,1.8*3D
$GPGSV,3,1,12,16,64,253,26,06,59,286,28,21,58,071,33,30,47,197,36*73
$GPGSV,3,2,12,18,43,128,34,03,41,288,28,22,20,170,28,19,14,282,22*7C
$GPGSV,3,3,12,07,13,327,,29,07,103,37,26,07,039,39,15,06,073,32*77
$GPRMC,140720.000,A,5230.5116,N,01326.0747,E,1.52,149.60,140912,,,A*68
$GPGGA,140721.000,5230.5110,N,01326.0747,E,1,08,1.4,35.1,M,44.6,M,,0000*62
$GPGSA,A,3,30,22,16,03,19,18,06,21,,,,,2.2,1.4,1.8*3D
$GPRMC,140721.000,A,5230.5110,N,01326.0747,E,1.41,161.21,140912,,,A*62
$GPGGA,140722.000,5230.5104,N,01326.0746,E,1,07,1.4,34.9,M,44.6,M,,0000*63
$GPGSA,A,3,30,22,16,03,19,18,21,,,,,,2.4,1.4,1.9*3C
$GPRMC,140722.000,A,5230.5104,N,01326.0746,E,1.12,172.07,140912,,,A*65
$GPGGA,140723.000,5230.5098,N,01326.0744,E,1,09,1.1,34.9,M,44.6,M,,0000*6F
$GPGSA,A,3,30,22,16,03,19,18,07,06,21,,,,1.8,1.1,1.4*3A
$GPRMC,140723.000,A,5230.5098,N,01326.0744,E,1.27,174.14,140912,,,A*60
$GPGGA,140724.000,5230.5093,N,01326.0743,E,1,09,1.1,35.0,M,44.6,M,,0000*6C
$GPGSA,A,3,30,22,16,03,19,18,07,06,21,,,,1.8,1.1,1.4*3A
$GPRMC,140724.000,A,5230.5093,N,01326.0743,E,1.16,171.00,140912,,,A*69
$GPGGA,140725.000,5230.5088,N,01326.0744,E,1,09,1.1,35.0,M,44.6,M,,0000*60
$GPGSA,A,3,30,22,16,03,19,18,07,06,21,,,,1.8,1.1,1.4*3A
$GPGSV,3,1,12,16,64,253,28,06,59,286,40,21,58,071,33,30,47,197,25*71
$GPGSV,3,2,12,18,43,128,36,03,41,288,28,22,20,170,32,19,14,282,21*76
$GPGSV,3,3,12,07,13,327,25,29,07,103,38,26,07,039,40,15,06,073,29*7B
$GPRMC,140725.000,A,5230.5088,N,01326.0744,E,1.12,143.04,140912,,,A*64
$GPGGA,140726.000,5230.5083,N,01326.0745,E,1,09,1.1,34.9,M,44.6,M,,0000*61
$GPGSA,A,3,30,22,16,03,19,18,07,06,21,,,,1.8,1.1,1.4*3A
$GPRMC,140726.000,A,5230.5083,N,01326.0745,E,1.26,149.91,140912,,,A*6C
$GPGGA,140727.000,5230.5079,N,01326.0744,E,1,09,1.1,34.8,M,44.6,M,,0000*65
$GPGSA,A,3,30,22,16,03,19,18,07,06,21,,,,1.8,1.1,1.4*3A
$GPRMC,140727.000,A,5230.5079,N,01326.0744,E,0.85,162.13,140912,,,A*62
$GPGGA,140728.000,5230.5073,N,01326.0742,E,1,09,1.1,34.7,M,44.6,M,,0000*69
$GPGSA,A,3,30,22,16,03,19,18,07,06,21,,,,1.8,1.1,1.4*3A
$GPRMC,140728.000,A,5230.5073,N,01326.0742,E,0.92,181.65,140912,,,A*6B
$GPGGA,140729.000,5230.5069,N,01326.0739,E,1,08,1.2,34.6,M,44.6,M,,0000*6C
$GPGSA,A,3,30,22,03,19,18,07,06,21,,,,,2.0,1.2,1.6*37
$GPRMC,140738.000,A,5230.5046,N,01326.0725,E,1.00,124.84,140912,,,A*67
$GPGGA,140739.000,5230.5043,N,01326.0726,E,1,09,1.1,32.8,M,44.6,M,,0000*61
$GPGSA,A,3,30,22,16,03,19,18,07,06,21,,,,1.8,1.1,1.4*3A
$GPRMC,140744.000,A,5230.5030,N,01326.0719,E,0.93,198.48,140912,,,A*6E
$GPGGA,140745.000,5230.5027,N,01326.0718,E,1,09,1.1,33.2,M,44.6,M,,0000*6E
$GPGSA,A,3,30,22,16,03,19,18,07,06,21,,,,1.8,1.1,1.4*3A
$GPGSV,3,1,12,16,64,253,30,06,59,286,39,21,58,071,35,30,47,197,33*77
$GPGSV,3,2,12,18,43,128,35,03,41,288,38,22,20,170,31,19,14,282,25*73
$GPGSV,3,3,12,07,13,327,30,29,07,103,29,26,07,039,33,15,06,073,25*77
$GPRMC,140745.000,A,5230.5027,N,01326.0718,E,0.89,191.01,140912,,,A*67
$GPGGA,140746.000,5230.5024,N,01326.0717,E,1,09,1.1,33.4,M,44.6,M,,0000*67
$GPGSA,A,3,30,22,16,03,19,18,07,06,21,,,,1.8,1.1,1.4*3A
$GPRMC,140831.000,A,5230.5010,N,01326.0689,E,1.30,33.05,140912,,,A*58
$GPGGA,140832.000,5230.5014,N,01326.0693,E,1,09,1.1,25.8,M,44.6,M,,0000*6E
$GPGSA,A,3,30,22,16,03,19,18,07,06,21,,,,1.8,1.1,1.4*3A
$GPRMC,140832.000,A,5230.5014,N,01326.0693,E,1.53,31.59,140912,,,A*5A
$GPGGA,140833.000,5230.5018,N,01326.0696,E,1,09,1.1,25.6,M,44.6,M,,0000*68
$GPGSA,A,3,30,22,16,03,19,18,07,06,21,,,,1.8,1.1,1.4*3A
$GPRMC,140833.000,A,5230.5018,N,01326.0696,E,1.67,21.61,140912,,,A*5F
$GPGGA,140834.000,5230.5022,N,01326.0699,E,1,09,1.1,25.4,M,44.6,M,,0000*6B
$GPGSA,A,3,30,22,16,03,19,18,07,06,21,,,,1.8,1.1,1.4*3A
$GPRMC,140834.000,A,5230.5022,N,01326.0699,E,1.22,24.92,140912,,,A*56
$GPGGA,140835.000,5230.5025,N,01326.0702,E,1,09,1.1,25.3,M,44.6,M,,0000*69
$GPGSA,A,3,30,22,16,03,19,18,07,06,21,,,,1.8,1.1,1.4*3A
$GPGSV,3,1,12,16,64,251,30,06,60,286,29,21,58,071,27,30,47,197,33*7D
$GPGSV,3,2,12,18,43,128,36,03,42,288,31,22,20,170,47,19,15,282,22*7D
$GPGSV,3,3,12,07,13,326,21,26,07,039,26,29,07,103,29,15,06,073,21*76
$GPRMC,140835.000,A,5230.5025,N,01326.0702,E,1.19,26.19,140912,,,A*5A
$GPGGA,140836.000,5230.5027,N,01326.0706,E,1,09,1.1,25.1,M,44.6,M,,0000*6E
$GPGSA,A,3,30,22,16,03,19,18,07,06,21,,,,1.8,1.1,1.4*3A
$GPRMC,140836.000,A,5230.5027,N,01326.0706,E,1.22,35.89,140912,,,A*5C
$GPGGA,140837.000,5230.5029,N,01326.0710,E,1,09,1.1,25.0,M,44.6,M,,0000*67
$GPGSA,A,3,30,22,16,03,19,18,07,06,21,,,,1.8,1.1,1.4*3A
$GPRMC,140837.000,A,5230.5029,N,01326.0710,E,1.16,44.96,140912,,,A*5B
$GPGGA,140838.000,5230.5031,N,01326.0714,E,1,09,1.1,24.9,M,44.6,M,,0000*6D
$GPGSA,A,3,30,22,16,03,19,18,07,06,21,,,,1.8,1.1,1.4*3A
$GPRMC,140838.000,A,5230.5031,N,01326.0714,E,0.92,57.22,140912,,,A*59
$GPGGA,140839.000,5230.5032,N,01326.0719,E,1,09,1.1,24.9,M,44.6,M,,0000*62
$GPGSA,A,3,30,22,16,03,19,18,07,06,21,,,,1.8,1.1,1.4*3A
$GPRMC,140839.000,A,5230.5032,N,01326.0719,E,1.16,68.78,140912,,,A*58
$GPGGA,140840.000,5230.5032,N,01326.0723,E,1,09,1.1,24.8,M,44.6,M,,0000*64
$GPGSA,A,3,30,22,16,03,19,18,07,06,21,,,,1.8,1.1,1.4*3A
$GPGSV,3,1,12,16,64,251,32,06,60,286,32,21,58,071,29,30,47,197,39*71
$GPGSV,3,2,12,18,43,128,27,03,42,288,37,22,20,170,41,19,15,282,19*75
$GPGSV,3,3,12,07,13,326,25,26,07,039,,29,07,103,34,15,06,073,20*7B
$GPRMC,140840.000,A,5230.5032,N,01326.0723,E,0.93,61.85,140912,,,A*58
$GPGGA,140841.000,5230.5033,N,01326.0726,E,1,09,1.1,24.9,M,44.6,M,,0000*60
$GPGSA,A,3,30,22,16,03,19,18,07,06,21,,,,1.8,1.1,1.4*3A
$GPRMC,140844.000,A,5230.5032,N,01326.0735,E,1.12,70.76,140912,,,A*5F
$GPGGA,140845.000,5230.5032,N,01326.0740,E,1,09,1.1,25.2,M,44.6,M,,0000*6F
$GPGSA,A,3,30,22,16,03,19,18,07,06,21,,,,1.8,1.1,1.4*3A
$GPGSV,3,1,12,16,64,251,38,06,60,286,37,21,58,071,30,30,47,197,31*7E
$GPGSV,3,2,12,18,43,128,32,03,42,288,35,22,20,170,29,19,15,282,26*71
$GPGSV,3,3,12,07,13,326,40,26,07,039,,29,07,103,39,15,06,073,21*74
$GPRMC,140845.000,A,5230.5032,N,01326.0740,E,0.93,72.29,140912,,,A*5C
$GPGGA,140846.000,5230.5032,N,01326.0745,E,1,09,1.1,25.3,M,44.6,M,,0000*68
$GPGSA,A,3,30,22,16,03,19,18,07,06,21,,,,1.8,1.1,1.4*3A
$GPRMC,140846.000,A,5230.5032,N,01326.0745,E,1.10,93.74,140912,,,A*57
$GPGGA,140847.000,5230.5031,N,01326.0750,E,1,09,1.1,25.4,M,44.6,M,,0000*69
$GPGSA,A,3,30,22,16,03,19,18,07,06,21,,,,1.8,1.1,1.4*3A
$GPRMC,140847.000,A,5230.5031,N,01326.0750,E,0.92,104.30,140912,,,A*65
$GPGGA,140848.000,5230.5031,N,01326.0752,E,1,09,1.1,25.6,M,44.6,M,,0000*66
$GPGSA,A,3,30,22,16,03,19,18,07,06,21,,,,1.8,1.1,1.4*3A
$GPRMC,140851.000,A,5230.5028,N,01326.0751,E,0.92,236.32,140912,,,A*6B
$GPGGA,140852.000,5230.5027,N,01326.0749,E,1,08,1.4,26.7,M,44.6,M,,0000*66
$GPGSA,A,3,30,22,16,03,19,18,06,21,,,,,2.3,1.4,1.8*3C
$GPRMC,140859.000,A,5230.5024,N,01326.0758,E,0.81,146.18,140912,,,A*68
$GPGGA,140900.000,5230.5022,N,01326.0761,E,1,09,1.1,28.4,M,44.6,M,,0000*66
$GPGSA,A,3,30,22,16,03,19,18,07,06,21,,,,1.8,1.1,1.4*3A
$GPGSV,3,1,12,16,64,251,37,06,60,286,42,21,58,071,31,30,47,197,34*77
$GPGSV,3,2,12,18,43,128,33,03,42,288,42,22,20,170,28,19,15,282,27*70
$GPGSV,3,3,12,07,13,326,37,26,07,039,40,29,07,103,37,15,06,073,27*78
$GPRMC,140900.000,A,5230.5022,N,01326.0761,E,1.11,146.11,140912,,,A*68
$GPGGA,140901.000,5230.5018,N,01326.0764,E,1,09,1.1,28.7,M,44.6,M,,0000*68
$GPGSA,A,3,30,22,16,03,19,18,07,06,21,,,,1.8,1.1,1.4*3A
$GPRMC,140901.000,A,5230.5018,N,01326.0764,E,1.55,156.98,140912,,,A*65
$GPGGA,140902.000,5230.5015,N,01326.0768,E,1,09,1.1,28.9,M,44.6,M,,0000*64
$GPGSA,A,3,30,22,16,03,19,18,07,06,21,,,,1.8,1.1,1.4*3A
$GPRMC,140902.000,A,5230.5015,N,01326.0768,E,1.31,136.34,140912,,,A*65
$GPGGA,140903.000,5230.5013,N,01326.0773,E,1,09,1.1,29.2,M,44.6,M,,0000*63
$GPGSA,A,3,30,22,16,03,19,18,07,06,21,,,,1.8,1.1,1.4*3A
$GPRMC,140903.000,A,5230.5013,N,01326.0773,E,1.17,125.62,140912,,,A*6D
$GPGGA,140904.000,5230.5012,N,01326.0778,E,1,09,1.1,29.6,M,44.6,M,,0000*6A
$GPGSA,A,3,30,22,16,03,19,18,07,06,21,,,,1.8,1.1,1.4*3A
$GPRMC,140904.000,A,5230.5012,N,01326.0778,E,1.25,116.94,140912,,,A*68
$GPGGA,140905.000,5230.5010,N,01326.0785,E,1,09,1.1,30.0,M,44.6,M,,0000*65
$GPGSA,A,3,30,22,16,03,19,18,07,06,21,,,,1.8,1.1,1.4*3A
$GPGSV,3,1,12,16,64,251,40,06,60,286,29,21,58,071,28,30,47,197,28*7F
$GPGSV,3,2,12,18,43,128,33,03,42,288,36,22,20,170,31,19,15,282,27*7B
$GPGSV,3,3,12,07,13,326,38,26,07,039,42,29,07,103,33,15,06,073,25*73
$GPRMC,140905.000,A,5230.5010,N,01326.0785,E,1.63,106.21,140912,,,A*64
$GPGGA,140906.000,5230.5009,N,01326.0796,E,1,09,1.1,30.3,M,44.6,M,,0000*6F
$GPGSA,A,3,30,22,16,03,19,18,07,06,21,,,,1.8,1.1,1.4*3A
$GPRMC,140906.000,A,5230.5009,N,01326.0796,E,2.36,99.71,140912,,,A*5C
$GPGGA,140907.000,5230.5007,N,01326.0804,E,1,09,1.1,30.6,M,44.6,M,,0000*61
$GPGSA,A,3,30,22,16,03,19,18,07,06,21,,,,1.8,1.1,1.4*3A
$GPRMC,140907.000,A,5230.5007,N,01326.0804,E,1.77,117.38,140912,,,A*6B
$GPGGA,140908.000,5230.5005,N,01326.0809,E,1,08,1.2,30.8,M,44.6,M,,0000*6D
$GPGSA,A,3,30,22,16,03,18,07,06,21,,,,,2.0,1.2,1.6*38
$GPRMC,140908.000,A,5230.5005,N,01326.0809,E,1.22,117.02,140912,,,A*62
$GPGGA,140909.000,5230.5003,N,01326.0814,E,1,09,1.1,31.0,M,44.6,M,,0000*6D
$GPGSA,A,3,30,22,16,03,19,18,07,06,21,,,,1.8,1.1,1.4*3A
$GPRMC,140909.000,A,5230.5003,N,01326.0814,E,1.40,128.65,140912,,,A*60
$GPGGA,140910.000,5230.5000,N,01326.0819,E,1,09,1.1,31.2,M,44.6,M,,0000*69
$GPGSA,A,3,30,22,16,03,19,18,07,06,21,,,,1.8,1.1,1.4*3A
$GPGSV,3,1,12,16,64,251,39,06,60,286,42,21,58,071,33,30,47,197,29*77
$GPGSV,3,2,12,18,43,128,33,03,42,288,40,22,20,170,31,19,15,282,31*7D
$GPGSV,3,3,12,07,13,326,37,26,07,039,35,29,07,103,34,15,06,073,25*7B
$GPRMC,140910.000,A,5230.5000,N,01326.0819,E,1.29,125.65,140912,,,A*64
$GPGGA,140911.000,5230.4998,N,01326.0824,E,1,09,1.1,31.5,M,44.6,M,,0000*68
$GPGSA,A,3,30,22,16,03,19,18,07,06,21,,,,1.8,1.1,1.4*3A
$GPRMC,140911.000,A,5230.4998,N,01326.0824,E,1.45,117.59,140912,,,A*66
$GPGGA,140912.000,5230.4996,N,01326.0829,E,1,09,1.1,31.7,M,44.6,M,,0000*6A
$GPGSA,A,3,30,22,16,03,19,18,07,06,21,,,,1.8,1.1,1.4*3A
$GPRMC,140912.000,A,5230.4996,N,01326.0829,E,1.20,113.50,140912,,,A*68
$GPGGA,140913.000,5230.4995,N,01326.0831,E,1,09,1.1,31.9,M,44.6,M,,0000*6F
$GPGSA,A,3,30,22,16,03,19,18,07,06,21,,,,1.8,1.1,1.4*3A
$GPRMC,140923.000,A,5230.4987,N,01326.0840,E,0.89,134.69,140912,,,A*68
$GPGGA,140924.000,5230.4984,N,01326.0843,E,1,09,1.1,32.8,M,44.6,M,,0000*6C
$GPGSA,A,3,30,22,16,03,19,18,07,06,21,,,,1.8,1.1,1.4*3A
$GPRMC,140924.000,A,5230.4984,N,01326.0843,E,1.13,144.61,140912,,,A*62
$GPGGA,140925.000,5230.4980,N,01326.0847,E,1,09,1.1,32.8,M,44.6,M,,0000*6D
$GPGSA,A,3,30,22,16,03,19,18,07,06,21,,,,1.8,1.1,1.4*3A
$GPGSV,3,1,12,16,64,251,40,06,60,286,40,21,58,071,32,30,47,197,36*74
$GPGSV,3,2,12,18,43,128,32,03,42,288,41,22,20,170,30,19,15,282,31*7C
$GPGSV,3,3,12,07,13,326,37,26,07,039,38,29,07,103,26,15,06,073,31*70
$GPRMC,140925.000,A,5230.4980,N,01326.0847,E,1.79,143.87,140912,,,A*60
$GPGGA,140926.000,5230.4976,N,01326.0852,E,1,09,1.1,32.9,M,44.6,M,,0000*62
$GPGSA,A,3,30,22,16,03,19,18,07,06,21,,,,1.8,1.1,1.4*3A
$GPRMC,140926.000,A,5230.4976,N,01326.0852,E,1.70,142.38,140912,,,A*62
$GPGGA,140927.000,5230.4972,N,01326.0858,E,1,09,1.1,32.9,M,44.6,M,,0000*6D
$GPGSA,A,3,30,22,16,03,19,18,07,06,21,,,,1.8,1.1,1.4*3A
$GPRMC,140927.000,A,5230.4972,N,01326.0858,E,1.79,135.13,140912,,,A*6D
$GPGGA,140928.000,5230.4968,N,01326.0865,E,1,09,1.1,33.1,M,44.6,M,,0000*6E
$GPGSA,A,3,30,22,16,03,19,18,07,06,21,,,,1.8,1.1,1.4*3A
$GPRMC,140928.000,A,5230.4968,N,01326.0865,E,1.84,129.56,140912,,,A*69
$GPGGA,140929.000,5230.4965,N,01326.0872,E,1,09,1.1,33.2,M,44.6,M,,0000*67
$GPGSA,A,3,30,22,16,03,19,18,07,06,21,,,,1.8,1.1,1.4*3A
$GPRMC,140929.000,A,5230.4965,N,01326.0872,E,2.02,128.20,140912,,,A*6E
$GPGGA,140930.000,5230.4962,N,01326.0880,E,1,08,1.2,33.3,M,44.6,M,,0000*66
$GPGSA,A,3,22,16,03,19,18,07,06,21,,,,,1.9,1.2,1.4*3B
$GPGSV,3,1,12,16,64,251,40,06,60,286,40,21,58,071,28,30,47,197,*7A
$GPGSV,3,2,12,18,43,128,29,03,42,288,41,22,20,170,30,19,15,282,35*72
$GPGSV,3,3,12,07,13,326,37,26,07,039,43,29,07,103,33,15,06,073,30*79
$GPRMC,140930.000,A,5230.4962,N,01326.0880,E,2.09,122.08,140912,,,A*67
$GPGGA,140931.000,5230.4959,N,01326.0888,E,1,09,1.1,33.5,M,44.6,M,,0000*63
$GPGSA,A,3,30,22,16,03,19,18,07,06,21,,,,1.8,1.1,1.4*3A
$GPRMC,140931.000,A,5230.4959,N,01326.0888,E,1.86,118.96,140912,,,A*6C
$GPGGA,140932.000,5230.4957,N,01326.0896,E,1,09,1.1,33.6,M,44.6,M,,0000*62
$GPGSA,A,3,30,22,16,03,19,18,07,06,21,,,,1.8,1.1,1.4*3A
$GPRMC,140932.000,A,5230.4957,N,01326.0896,E,2.02,112.19,140912,,,A*6C
$GPGGA,140933.000,5230.4954,N,01326.0904,E,1,09,1.1,33.7,M,44.6,M,,0000*6B
$GPGSA,A,3,30,22,16,03,19,18,07,06,21,,,,1.8,1.1,1.4*3A
$GPRMC,140933.000,A,5230.4954,N,01326.0904,E,1.91,119.06,140912,,,A*68
$GPGGA,140934.000,5230.4949,N,01326.0910,E,1,08,1.2,33.8,M,44.6,M,,0000*68
$GPGSA,A,3,30,22,16,03,18,07,06,21,,,,,2.0,1.2,1.6*38
$GPRMC,140934.000,A,5230.4949,N,01326.0910,E,1.90,137.54,140912,,,A*6C
$GPGGA,140935.000,5230.4945,N,01326.0915,E,1,09,1.1,33.8,M,44.6,M,,0000*62
$GPGSA,A,3,30,22,16,03,19,18,07,06,21,,,,1.8,1.1,1.4*3A
$GPGSV,3,1,12,16,64,251,40,06,60,286,38,21,58,071,22,30,47,197,36*7A
$GPGSV,3,2,12,18,43,128,30,03,42,288,41,22,20,170,30,19,15,282,31*7E
$GPGSV,3,3,12,07,13,326,31,26,07,039,40,29,07,103,32,15,06,073,29*75
$GPRMC,140935.000,A,5230.4945,N,01326.0915,E,1.84,137.24,140912,,,A*66
$GPGGA,140936.000,5230.4942,N,01326.0921,E,1,09,1.1,33.8,M,44.6,M,,0000*61
$GPGSA,A,3,30,22,16,03,19,18,07,06,21,,,,1.8,1.1,1.4*3A
$GPRMC,140936.000,A,5230.4942,N,01326.0921,E,1.80,132.16,140912,,,A*65
$GPGGA,140937.000,5230.4939,N,01326.0928,E,1,09,1.1,33.9,M,44.6,M,,0000*64
$GPGSA,A,3,30,22,16,03,19,18,07,06,21,,,,1.8,1.1,1.4*3A
$GPRMC,140937.000,A,5230.4939,N,01326.0928,E,1.70,128.27,140912,,,A*67
$GPGGA,140938.000,5230.4936,N,01326.0934,E,1,08,1.2,33.9,M,44.6,M,,0000*6B
$GPGSA,A,3,30,22,16,03,19,07,06,21,,,,,1.9,1.2,1.4*31
$GPRMC,140938.000,A,5230.4936,N,01326.0934,E,1.70,124.91,140912,,,A*6B
$GPGGA,140939.000,5230.4932,N,01326.0939,E,1,09,1.1,33.9,M,44.6,M,,0000*61
$GPGSA,A,3,30,22,16,03,19,18,07,06,21,,,,1.8,1.1,1.4*3A
$GPRMC,140939.000,A,5230.4932,N,01326.0939,E,1.54,135.53,140912,,,A*6B
$GPGGA,140940.000,5230.4929,N,01326.0944,E,1,09,1.1,34.0,M,44.6,M,,0000*61
$GPGSA,A,3,30,22,16,03,19,18,07,06,21,,,,1.8,1.1,1.4*3A
$GPGSV,3,1,12,16,64,251,40,06,60,286,40,21,58,071,31,30,47,197,35*74
$GPGSV,3,2,12,18,43,128,33,03,42,288,41,22,20,170,28,19,15,282,31*74
$GPGSV,3,3,12,07,13,326,39,26,07,039,40,29,07,103,,15,06,073,29*7C
$GPRMC,140940.000,A,5230.4929,N,01326.0944,E,1.60,144.45,140912,,,A*63
$GPGGA,140941.000,5230.4925,N,01326.0947,E,1,09,1.1,34.0,M,44.6,M,,0000*6F
$GPGSA,A,3,30,22,16,03,19,18,07,06,21,,,,1.8,1.1,1.4*3A
$GPRMC,140941.000,A,5230.4925,N,01326.0947,E,1.42,149.06,140912,,,A*67
$GPGGA,140942.000,5230.4922,N,01326.0951,E,1,09,1.1,34.1,M,44.6,M,,0000*6D
$GPGSA,A,3,30,22,16,03,19,18,07,06,21,,,,1.8,1.1,1.4*3A
$GPRMC,140942.000,A,5230.4922,N,01326.0951,E,1.42,136.70,140912,,,A*6D
$GPGGA,140943.000,5230.4919,N,01326.0956,E,1,07,1.4,34.1,M,44.6,M,,0000*68
$GPGSA,A,3,30,16,03,18,07,06,21,,,,,,2.6,1.4,2.2*3F
$GPRMC,140943.000,A,5230.4919,N,01326.0956,E,1.49,138.60,140912,,,A*67
$GPGGA,140944.000,5230.4916,N,01326.0961,E,1,09,1.1,34.2,M,44.6,M,,0000*6C
$GPGSA,A,3,30,22,16,03,19,18,07,06,21,,,,1.8,1.1,1.4*3A
$GPRMC,140944.000,A,5230.4916,N,01326.0961,E,1.57,135.10,140912,,,A*6E
$GPGGA,140945.000,5230.4913,N,01326.0967,E,1,09,1.1,34.2,M,44.6,M,,0000*6E
$GPGSA,A,3,30,22,16,03,19,18,07,06,21,,,,1.8,1.1,1.4*3A
$GPGSV,3,1,12,16,64,251,40,06,60,286,40,21,58,071,25,30,47,197,33*77
