$GPGGA,100046.000,6432.6835,N,01435.4945,W,1,08,1.0,11.6,M,58.7,M,,0000*7C
$GPGSA,A,3,12,29,25,04,31,02,32,20,,,,,2.1,1.0,1.8*31
$GPRMC,100046.000,A,6432.6835,N,01435.4945,W,39.14,301.83,020912,,,A*45
$GPGGA,100047.000,6432.6890,N,01435.5162,W,1,08,1.0,11.2,M,58.7,M,,0000*7A
$GPGSA,A,3,12,29,25,04,31,02,32,20,,,,,2.1,1.0,1.8*31
$GPRMC,100047.000,A,6432.6890,N,01435.5162,W,39.12,300.46,020912,,,A*49
$GPGGA,100048.000,6432.6942,N,01435.5384,W,1,08,1.0,11.0,M,58.7,M,,0000*73
$GPGSA,A,3,12,29,14,25,31,02,32,20,,,,,2.0,1.0,1.8*31
$GPGSV,3,1,09,25,75,176,31,12,49,086,35,31,45,282,37,14,37,211,35*79
$GPGSV,3,2,09,29,30,169,32,04,21,038,,02,20,082,31,32,19,301,36*7C
$GPGSV,3,3,09,20,16,330,33*45
$GPRMC,100048.000,A,6432.6942,N,01435.5384,W,39.13,298.73,020912,,,A*45
$GPGGA,100049.000,6432.6992,N,01435.5608,W,1,09,0.9,10.8,M,58.7,M,,0000*7E
$GPGSA,A,3,12,29,14,25,04,31,02,32,20,,,,2.0,0.9,1.8*3D
$GPRMC,100049.000,A,6432.6992,N,01435.5608,W,39.12,297.65,020912,,,A*41
$GPGGA,100050.000,6432.7040,N,01435.5834,W,1,09,0.9,10.8,M,58.7,M,,0000*70
$GPGSA,A,3,12,29,14,25,04,31,02,32,20,,,,2.0,0.9,1.8*3D
$GPRMC,100050.000,A,6432.7040,N,01435.5834,W,39.00,296.45,020912,,,A*4F
$GPGGA,100051.000,6432.7086,N,01435.6061,W,1,09,0.9,11.1,M,58.7,M,,0000*78
$GPGSA,A,3,12,29,14,25,04,31,02,32,20,,,,2.0,0.9,1.8*3D
$GPRMC,100051.000,A,6432.7086,N,01435.6061,W,38.82,295.18,020912,,,A*4F
$GPGGA,100052.000,6432.7130,N,01435.6290,W,1,09,0.9,11.5,M,58.7,M,,0000*7F
$GPGSA,A,3,12,29,14,25,04,31,02,32,20,,,,2.0,0.9,1.8*3D
$GPRMC,100052.000,A,6432.7130,N,01435.6290,W,38.67,294.07,020912,,,A*48
$GPGGA,100053.000,6432.7173,N,01435.6518,W,1,09,0.9,11.9,M,58.7,M,,0000*72
$GPGSA,A,3,12,29,14,25,04,31,02,32,20,,,,2.0,0.9,1.8*3D
$GPGSV,3,1,09,25,75,176,32,12,49,086,35,31,45,282,37,14,37,211,25*7B
$GPGSV,3,2,09,29,30,169,26,04,21,038,41,02,20,082,26,32,19,301,29*74
$GPGSV,3,3,09,20,16,330,34*42
$GPRMC,100053.000,A,6432.7173,N,01435.6518,W,38.56,293.52,020912,,,A*4C
$GPGGA,100054.000,6432.7214,N,01435.6747,W,1,09,0.9,12.5,M,58.7,M,,0000*70
$GPGSA,A,3,12,29,14,25,04,31,02,32,20,,,,2.0,0.9,1.8*3D
$GPRMC,100054.000,A,6432.7214,N,01435.6747,W,38.32,292.69,020912,,,A*4A
$GPGGA,100055.000,6432.7253,N,01435.6976,W,1,09,0.9,13.1,M,58.7,M,,0000*7B
$GPGSA,A,3,12,29,14,25,04,31,02,32,20,,,,2.0,0.9,1.8*3D
$GPRMC,100055.000,A,6432.7253,N,01435.6976,W,37.95,291.36,020912,,,A*4F
$GPGGA,100056.000,6432.7289,N,01435.7205,W,1,09,0.9,13.8,M,58.7,M,,0000*78
$GPGSA,A,3,12,29,14,25,04,31,02,32,20,,,,2.0,0.9,1.8*3D
$GPRMC,100056.000,A,6432.7289,N,01435.7205,W,37.64,290.12,020912,,,A*4C
$GPGGA,100057.000,6432.7323,N,01435.7434,W,1,09,0.9,14.5,M,58.7,M,,0000*76
$GPGSA,A,3,12,29,14,25,04,31,02,32,20,,,,2.0,0.9,1.8*3D
$GPRMC,100057.000,A,6432.7323,N,01435.7434,W,37.47,288.87,020912,,,A*4C
$GPGGA,100058.000,6432.7355,N,01435.7664,W,1,09,0.9,15.3,M,58.7,M,,0000*78
$GPGSA,A,3,12,29,14,25,04,31,02,32,20,,,,2.0,0.9,1.8*3D
$GPGSV,3,1,09,25,75,176,32,12,49,086,28,31,45,282,36,14,37,211,26*75
$GPGSV,3,2,09,29,31,169,35,04,21,037,36,02,21,082,34,32,19,301,29*7A
$GPGSV,3,3,09,20,16,330,27*40
$GPRMC,100058.000,A,6432.7355,N,01435.7664,W,37.45,287.92,020912,,,A*4C
$GPGGA,100059.000,6432.7386,N,01435.7897,W,1,09,0.9,16.0,M,58.7,M,,0000*75
$GPGSA,A,3,12,29,14,25,04,31,02,32,20,,,,2.0,0.9,1.8*3D
$GPRMC,100059.000,A,6432.7386,N,01435.7897,W,37.71,287.20,020912,,,A*4F
$GPGGA,100100.000,6432.7415,N,01435.8132,W,1,09,0.9,16.7,M,58.7,M,,0000*7B
$GPGSA,A,3,12,29,14,25,04,31,02,32,20,,,,2.0,0.9,1.8*3D
$GPRMC,100100.000,A,6432.7415,N,01435.8132,W,37.88,286.23,020912,,,A*42
$GPGGA,100101.000,6432.7445,N,01435.8368,W,1,09,0.9,17.4,M,58.7,M,,0000*70
$GPGSA,A,3,12,29,14,25,04,31,02,32,20,,,,2.0,0.9,1.8*3D
$GPRMC,100101.000,A,6432.7445,N,01435.8368,W,38.11,286.22,020912,,,A*45
$GPGGA,100102.000,6432.7475,N,01435.8605,W,1,09,0.9,18.1,M,58.7,M,,0000*74
$GPGSA,A,3,12,29,14,25,04,31,02,32,20,,,,2.0,0.9,1.8*3D
$GPRMC,100102.000,A,6432.7475,N,01435.8605,W,38.26,286.60,020912,,,A*49
$GPGGA,100103.000,6432.7506,N,01435.8842,W,1,09,0.9,18.8,M,58.7,M,,0000*74
$GPGSA,A,3,12,29,14,25,04,31,02,32,20,,,,2.0,0.9,1.8*3D
$GPGSV,3,1,09,25,75,175,33,12,48,086,13,31,45,281,31,14,37,211,28*74
$GPGSV,3,2,09,29,31,169,35,04,21,037,37,02,21,082,29,32,19,301,30*7F
$GPGSV,3,3,09,20,16,330,26*41
$GPRMC,100103.000,A,6432.7506,N,01435.8842,W,38.40,287.05,020912,,,A*42
$GPGGA,100104.000,6432.7537,N,01435.9080,W,1,09,0.9,19.3,M,58.7,M,,0000*7C
$GPGSA,A,3,12,29,14,25,04,31,02,32,20,,,,2.0,0.9,1.8*3D
$GPRMC,100104.000,A,6432.7537,N,01435.9080,W,38.52,287.22,020912,,,A*46
$GPGGA,100105.000,6432.7567,N,01435.9318,W,1,09,0.9,19.8,M,58.7,M,,0000*71
$GPGSA,A,3,12,29,14,25,04,31,02,32,20,,,,2.0,0.9,1.8*3D
$GPRMC,100105.000,A,6432.7567,N,01435.9318,W,38.43,286.41,020912,,,A*44
$GPGGA,100106.000,6432.7596,N,01435.9557,W,1,09,0.9,20.4,M,58.7,M,,0000*77
$GPGSA,A,3,12,29,14,25,04,31,02,32,20,,,,2.0,0.9,1.8*3D
$GPRMC,100106.000,A,6432.7596,N,01435.9557,W,38.35,285.80,020912,,,A*4B
$GPGGA,100107.000,6432.7623,N,01435.9794,W,1,09,0.9,21.0,M,58.7,M,,0000*73
$GPGSA,A,3,12,29,14,25,04,31,02,32,20,,,,2.0,0.9,1.8*3D
$GPRMC,100107.000,A,6432.7623,N,01435.9794,W,38.16,285.09,020912,,,A*4A
$GPGGA,100108.000,6432.7650,N,01436.0033,W,1,09,0.9,21.7,M,58.7,M,,0000*7F
$GPGSA,A,3,12,29,14,25,04,31,02,32,20,,,,2.0,0.9,1.8*3D
$GPGSV,3,1,09,25,75,175,34,12,48,086,31,31,45,281,31,14,37,211,33*79
$GPGSV,3,2,09,29,31,169,29,04,21,037,38,02,21,082,25,32,19,301,30*71
$GPGSV,3,3,09,20,16,330,25*42
$GPRMC,100108.000,A,6432.7650,N,01436.0033,W,38.26,284.75,020912,,,A*48
$GPGGA,100109.000,6432.7678,N,01436.0273,W,1,09,0.9,22.3,M,58.7,M,,0000*75
$GPGSA,A,3,12,29,14,25,04,31,02,32,20,,,,2.0,0.9,1.8*3D
$GPRMC,100109.000,A,6432.7678,N,01436.0273,W,38.49,285.32,020912,,,A*4E
$GPGGA,100110.000,6432.7707,N,01436.0514,W,1,08,1.2,22.9,M,58.7,M,,0000*73
$GPGSA,A,3,12,14,25,04,31,02,32,20,,,,,2.4,1.2,2.1*32
$GPRMC,100110.000,A,6432.7707,N,01436.0514,W,38.78,285.85,020912,,,A*47
$GPGGA,100111.000,6432.7737,N,01436.0755,W,1,09,0.9,23.4,M,58.7,M,,0000*71
$GPGSA,A,3,12,29,14,25,04,31,02,32,20,,,,2.0,0.9,1.8*3D
$GPRMC,100111.000,A,6432.7737,N,01436.0755,W,38.95,285.92,020912,,,A*47
$GPGGA,100112.000,6432.7766,N,01436.0998,W,1,09,0.9,23.8,M,58.7,M,,0000*75
$GPGSA,A,3,12,29,14,25,04,31,02,32,20,,,,2.0,0.9,1.8*3D
$GPRMC,100112.000,A,6432.7766,N,01436.0998,W,39.08,285.86,020912,,,A*4F
$GPGGA,100113.000,6432.7794,N,01436.1240,W,1,09,0.9,23.9,M,58.7,M,,0000*77
$GPGSA,A,3,12,29,14,25,04,31,02,32,20,,,,2.0,0.9,1.8*3D
$GPGSV,3,1,09,25,75,175,33,12,48,086,31,31,45,281,31,14,37,211,21*7D
$GPGSV,3,2,09,29,31,169,28,04,21,037,38,02,21,082,24,32,19,301,30*71
$GPGSV,3,3,09,20,16,330,23*44
$GPRMC,100113.000,A,6432.7794,N,01436.1240,W,38.89,285.55,020912,,,A*4A
$GPGGA,100114.000,6432.7821,N,01436.1480,W,1,09,0.9,23.8,M,58.7,M,,0000*7A
$GPGSA,A,3,12,29,14,25,04,31,02,32,20,,,,2.0,0.9,1.8*3D
$GPRMC,100114.000,A,6432.7821,N,01436.1480,W,38.58,285.50,020912,,,A*4F
$GPGGA,100115.000,6432.7848,N,01436.1718,W,1,09,0.9,23.9,M,58.7,M,,0000*77
$GPGSA,A,3,12,29,14,25,04,31,02,32,20,,,,2.0,0.9,1.8*3D
$GPRMC,100115.000,A,6432.7848,N,01436.1718,W,38.30,285.07,020912,,,A*4F
$GPGGA,100116.000,6432.7874,N,01436.1955,W,1,09,0.9,23.9,M,58.7,M,,0000*7C
$GPGSA,A,3,12,29,14,25,04,31,02,32,20,,,,2.0,0.9,1.8*3D
$GPRMC,100116.000,A,6432.7874,N,01436.1955,W,37.98,284.94,020912,,,A*42
$GPGGA,100117.000,6432.7900,N,01436.2190,W,1,09,0.9,23.8,M,58.7,M,,0000*7C
$GPGSA,A,3,12,29,14,25,04,31,02,32,20,,,,2.0,0.9,1.8*3D
$GPRMC,100117.000,A,6432.7900,N,01436.2190,W,37.80,285.17,020912,,,A*40
$GPGGA,100118.000,6432.7926,N,01436.2423,W,1,09,0.9,23.7,M,58.7,M,,0000*75
$GPGSA,A,3,12,29,14,25,04,31,02,32,20,,,,2.0,0.9,1.8*3D
$GPGSV,3,1,09,25,75,175,33,12,48,086,32,31,45,281,31,14,37,211,24*7B
$GPGSV,3,2,09,29,31,169,29,04,21,037,38,02,21,082,23,32,19,301,30*77
$GPGSV,3,3,09,20,16,330,22*45
$GPRMC,100118.000,A,6432.7926,N,01436.2423,W,37.54,285.41,020912,,,A*4C
$GPGGA,100119.000,6432.7953,N,01436.2655,W,1,09,0.9,23.6,M,58.7,M,,0000*74
$GPGSA,A,3,12,29,14,25,04,31,02,32,20,,,,2.0,0.9,1.8*3D
$GPRMC,100119.000,A,6432.7953,N,01436.2655,W,37.39,285.70,020912,,,A*45
$GPGGA,100120.000,6432.7981,N,01436.2886,W,1,09,0.9,23.5,M,58.7,M,,0000*72
$GPGSA,A,3,12,29,14,25,04,31,02,32,20,,,,2.0,0.9,1.8*3D
$GPRMC,100120.000,A,6432.7981,N,01436.2886,W,37.33,286.39,020912,,,A*44
$GPGGA,100121.000,6432.8011,N,01436.3116,W,1,09,0.9,23.4,M,58.7,M,,0000*7C
$GPGSA,A,3,12,29,14,25,04,31,02,32,20,,,,2.0,0.9,1.8*3D
$GPRMC,100121.000,A,6432.8011,N,01436.3116,W,37.35,287.76,020912,,,A*47
$GPGGA,100122.000,6432.8044,N,01436.3342,W,1,09,0.9,23.4,M,58.7,M,,0000*7C
$GPGSA,A,3,12,29,14,25,04,31,02,32,20,,,,2.0,0.9,1.8*3D
$GPRMC,100122.000,A,6432.8044,N,01436.3342,W,37.18,289.31,020912,,,A*45
$GPGGA,100123.000,6432.8078,N,01436.3565,W,1,09,0.9,23.3,M,58.7,M,,0000*76
$GPGSA,A,3,12,29,14,25,04,31,02,32,20,,,,2.0,0.9,1.8*3D
$GPGSV,3,1,09,25,75,175,33,12,48,086,28,31,45,281,36,14,37,211,30*72
$GPGSV,3,2,09,29,31,169,26,04,21,037,39,02,21,082,31,32,19,301,31*7B
$GPGSV,3,3,09,20,16,330,33*45
$GPRMC,100123.000,A,6432.8078,N,01436.3565,W,36.88,290.62,020912,,,A*4E
$GPGGA,100124.000,6432.8115,N,01436.3784,W,1,09,0.9,23.2,M,58.7,M,,0000*77
$GPGSA,A,3,12,29,14,25,04,31,02,32,20,,,,2.0,0.9,1.8*3D
$GPRMC,100124.000,A,6432.8115,N,01436.3784,W,36.73,292.10,020912,,,A*4D
$GPGGA,100125.000,6432.8154,N,01436.4000,W,1,09,0.9,23.1,M,58.7,M,,0000*7C
$GPGSA,A,3,12,29,14,25,04,31,02,32,20,,,,2.0,0.9,1.8*3D
$GPRMC,100125.000,A,6432.8154,N,01436.4000,W,36.56,293.69,020912,,,A*4D
$GPGGA,100126.000,6432.8196,N,01436.4212,W,1,09,0.9,23.0,M,58.7,M,,0000*71
$GPGSA,A,3,12,29,14,25,04,31,02,32,20,,,,2.0,0.9,1.8*3D
$GPRMC,100126.000,A,6432.8196,N,01436.4212,W,36.34,295.39,020912,,,A*46
$GPGGA,100127.000,6432.8241,N,01436.4420,W,1,09,0.9,23.0,M,58.7,M,,0000*7E
$GPGSA,A,3,12,29,14,25,04,31,02,32,20,,,,2.0,0.9,1.8*3D
$GPRMC,100127.000,A,6432.8241,N,01436.4420,W,36.19,297.38,020912,,,A*45
$GPGGA,100128.000,6432.8289,N,01436.4623,W,1,09,0.9,23.0,M,58.7,M,,0000*74
$GPGSA,A,3,12,29,14,25,04,31,02,32,20,,,,2.0,0.9,1.8*3D
$GPGSV,3,1,09,25,75,175,33,12,48,086,28,31,45,281,38,14,37,211,31*7D
$GPGSV,3,2,09,29,31,169,35,04,21,037,36,02,21,082,27,32,19,301,32*72
$GPGSV,3,3,09,20,16,330,26*41
$GPRMC,100128.000,A,6432.8289,N,01436.4623,W,36.03,299.33,020912,,,A*41
$GPGGA,100129.000,6432.8341,N,01436.4819,W,1,09,0.9,23.1,M,58.7,M,,0000*76
$GPGSA,A,3,12,29,14,25,04,31,02,32,20,,,,2.0,0.9,1.8*3D
$GPRMC,100129.000,A,6432.8341,N,01436.4819,W,36.10,302.51,020912,,,A*47
$GPGGA,100130.000,6432.8399,N,01436.5010,W,1,09,0.9,23.2,M,58.7,M,,0000*78
$GPGSA,A,3,12,29,14,25,04,31,02,32,20,,,,2.0,0.9,1.8*3D
$GPRMC,100130.000,A,6432.8399,N,01436.5010,W,36.39,305.93,020912,,,A*48
$GPGGA,100131.000,6432.8462,N,01436.5195,W,1,09,0.9,23.3,M,58.7,M,,0000*77
$GPGSA,A,3,12,29,14,25,04,31,02,32,20,,,,2.0,0.9,1.8*3D
$GPRMC,100131.000,A,6432.8462,N,01436.5195,W,36.84,308.98,020912,,,A*46
$GPGGA,100132.000,6432.8529,N,01436.5372,W,1,09,0.9,23.3,M,58.7,M,,0000*71
$GPGSA,A,3,12,29,14,25,04,31,02,32,20,,,,2.0,0.9,1.8*3D
$GPRMC,100132.000,A,6432.8529,N,01436.5372,W,36.77,312.06,020912,,,A*40
$GPGGA,100133.000,6432.8599,N,01436.5543,W,1,09,0.9,23.2,M,58.7,M,,0000*7E
$GPGSA,A,3,12,29,14,25,04,31,02,32,20,,,,2.0,0.9,1.8*3D
$GPGSV,3,1,09,25,75,175,35,12,48,086,24,31,45,281,30,14,37,211,30*7E
$GPGSV,3,2,09,29,31,169,27,04,21,037,27,02,21,082,38,32,19,301,31*7C
$GPGSV,3,3,09,20,16,330,25*42
$GPRMC,100133.000,A,6432.8599,N,01436.5543,W,36.84,314.06,020912,,,A*44
$GPGGA,100134.000,6432.8673,N,01436.5706,W,1,09,0.9,23.3,M,58.7,M,,0000*7C
$GPGSA,A,3,12,29,14,25,04,31,02,32,20,,,,2.0,0.9,1.8*3D
$GPRMC,100134.000,A,6432.8673,N,01436.5706,W,36.98,316.49,020912,,,A*43
$GPGGA,100135.000,6432.8750,N,01436.5861,W,1,09,0.9,23.3,M,58.7,M,,0000*73
$GPGSA,A,3,12,29,14,25,04,31,02,32,20,,,,2.0,0.9,1.8*3D
$GPRMC,100135.000,A,6432.8750,N,01436.5861,W,37.22,319.45,020912,,,A*4F
$GPGGA,100136.000,6432.8831,N,01436.6009,W,1,09,0.9,23.4,M,58.7,M,,0000*7A
$GPGSA,A,3,12,29,14,25,04,31,02,32,20,,,,2.0,0.9,1.8*3D
$GPRMC,100136.000,A,6432.8831,N,01436.6009,W,37.58,321.98,020912,,,A*47
$GPGGA,100137.000,6432.8915,N,01436.6151,W,1,09,0.9,23.5,M,58.7,M,,0000*71
$GPGSA,A,3,12,29,14,25,04,31,02,32,20,,,,2.0,0.9,1.8*3D
$GPRMC,100137.000,A,6432.8915,N,01436.6151,W,37.86,324.12,020912,,,A*49
$GPGGA,100138.000,6432.9002,N,01436.6284,W,1,09,0.9,23.6,M,58.7,M,,0000*78
$GPGSA,A,3,12,29,14,25,04,31,02,32,20,,,,2.0,0.9,1.8*3D
$GPGSV,3,1,09,25,75,175,31,12,48,086,36,31,45,281,31,14,37,211,36*7E
$GPGSV,3,2,09,29,31,169,33,04,21,037,31,02,21,082,37,32,19,301,23*72
$GPGSV,3,3,09,20,16,330,33*45
$GPRMC,100138.000,A,6432.9002,N,01436.6284,W,37.84,326.74,020912,,,A*43
$GPGGA,100139.000,6432.9091,N,01436.6406,W,1,09,0.9,23.9,M,58.7,M,,0000*70
$GPGSA,A,3,12,29,14,25,04,31,02,32,20,,,,2.0,0.9,1.8*3D
$GPRMC,100139.000,A,6432.9091,N,01436.6406,W,37.46,329.16,020912,,,A*41
$GPGGA,100140.000,6432.9181,N,01436.6518,W,1,09,0.9,24.2,M,58.7,M,,0000*7C
$GPGSA,A,3,12,29,14,25,04,31,02,32,20,,,,2.0,0.9,1.8*3D
$GPRMC,100140.000,A,6432.9181,N,01436.6518,W,36.98,331.85,020912,,,A*40
$GPGGA,100141.000,6432.9272,N,01436.6615,W,1,09,0.9,24.5,M,58.7,M,,0000*7B
$GPGSA,A,3,12,29,14,25,04,31,02,32,20,,,,2.0,0.9,1.8*3D
$GPRMC,100141.000,A,6432.9272,N,01436.6615,W,36.08,335.08,020912,,,A*48
$GPGGA,100142.000,6432.9362,N,01436.6697,W,1,09,0.9,24.8,M,58.7,M,,0000*7F
$GPGSA,A,3,12,29,14,25,04,31,02,32,20,,,,2.0,0.9,1.8*3D
$GPRMC,100142.000,A,6432.9362,N,01436.6697,W,34.99,338.57,020912,,,A*4C
$GPGGA,100143.000,6432.9452,N,01436.6766,W,1,07,1.0,25.0,M,58.7,M,,0000*7A
$GPGSA,A,3,12,29,14,31,02,32,20,,,,,,2.7,1.0,2.5*3F
$GPGSV,3,1,09,25,75,175,,12,48,086,43,31,45,281,35,14,37,211,27*7A
$GPGSV,3,2,09,29,31,169,30,04,21,037,,02,21,082,39,32,19,301,25*7B
$GPGSV,3,3,09,20,16,330,26*41
$GPRMC,100143.000,A,6432.9452,N,01436.6766,W,34.25,341.78,020912,,,A*42
$GPGGA,100144.000,6432.9542,N,01436.6826,W,1,08,1.0,25.1,M,58.7,M,,0000*78
$GPGSA,A,3,12,29,14,25,31,02,32,20,,,,,2.0,1.0,1.8*31
$GPRMC,100144.000,A,6432.9542,N,01436.6826,W,33.75,343.87,020912,,,A*4E
$GPGGA,100145.000,6432.9631,N,01436.6882,W,1,08,1.0,25.2,M,58.7,M,,0000*73
$GPGSA,A,3,12,29,14,25,31,02,32,20,,,,,2.0,1.0,1.8*31
$GPRMC,100145.000,A,6432.9631,N,01436.6882,W,33.36,344.71,020912,,,A*4F
$GPGGA,100146.000,6432.9720,N,01436.6936,W,1,09,0.9,25.4,M,58.7,M,,0000*70
$GPGSA,A,3,12,29,14,25,04,31,02,32,20,,,,2.0,0.9,1.8*3D
$GPRMC,100146.000,A,6432.9720,N,01436.6936,W,33.21,345.04,020912,,,A*46
$GPGGA,100147.000,6432.9810,N,01436.6989,W,1,09,0.9,25.6,M,58.7,M,,0000*7B
$GPGSA,A,3,12,29,14,25,04,31,02,32,20,,,,2.0,0.9,1.8*3D
$GPRMC,100147.000,A,6432.9810,N,01436.6989,W,33.47,345.43,020912,,,A*4C
$GPGGA,100148.000,6432.9901,N,01436.7038,W,1,09,0.9,25.8,M,58.7,M,,0000*79
$GPGSA,A,3,12,29,14,25,04,31,02,32,20,,,,2.0,0.9,1.8*3D
$GPGSV,3,1,09,25,75,175,27,12,48,086,42,31,45,281,26,14,37,211,27*7C
$GPGSV,3,2,09,29,31,169,25,04,21,037,28,02,21,082,31,32,19,301,23*7B
$GPGSV,3,3,09,20,16,330,20*47
$GPRMC,100148.000,A,6432.9901,N,01436.7038,W,33.63,346.68,020912,,,A*4C
$GPGGA,100149.000,6432.9991,N,01436.7086,W,1,09,0.9,25.7,M,58.7,M,,0000*7B
$GPGSA,A,3,12,29,14,25,04,31,02,32,20,,,,2.0,0.9,1.8*3D
$GPRMC,100149.000,A,6432.9991,N,01436.7086,W,33.28,346.57,020912,,,A*42
$GPGGA,100150.000,6433.0080,N,01436.7133,W,1,09,0.9,25.7,M,58.7,M,,0000*7D
$GPGSA,A,3,12,29,14,25,04,31,02,32,20,,,,2.0,0.9,1.8*3D
$GPRMC,100150.000,A,6433.0080,N,01436.7133,W,33.14,346.51,020912,,,A*4D
$GPGGA,100151.000,6433.0168,N,01436.7178,W,1,09,0.9,25.8,M,58.7,M,,0000*7B
$GPGSA,A,3,12,29,14,25,04,31,02,32,20,,,,2.0,0.9,1.8*3D
$GPRMC,100151.000,A,6433.0168,N,01436.7178,W,32.61,346.97,020912,,,A*4D
$GPGGA,100152.000,6433.0256,N,01436.7222,W,1,09,0.9,25.8,M,58.7,M,,0000*7A
$GPGSA,A,3,12,29,14,25,04,31,02,32,20,,,,2.0,0.9,1.8*3D
$GPRMC,100152.000,A,6433.0256,N,01436.7222,W,32.41,346.94,020912,,,A*4D
$GPGGA,100153.000,6433.0345,N,01436.7268,W,1,09,0.9,25.7,M,58.7,M,,0000*79
$GPGSA,A,3,12,29,14,25,04,31,02,32,20,,,,2.0,0.9,1.8*3D
$GPGSV,3,1,09,25,75,175,24,12,48,086,42,31,45,281,27,14,37,211,26*7F
$GPGSV,3,2,09,29,31,169,25,04,21,037,24,02,21,082,33,32,19,301,23*75
$GPGSV,3,3,09,20,16,330,18*4C
$GPRMC,100153.000,A,6433.0345,N,01436.7268,W,32.87,346.73,020912,,,A*42
$GPGGA,100154.000,6433.0433,N,01436.7313,W,1,08,1.0,25.6,M,58.7,M,,0000*7D
$GPGSA,A,3,12,29,14,25,04,02,32,20,,,,,2.1,1.0,1.9*37
$GPRMC,100154.000,A,6433.0433,N,01436.7313,W,32.94,346.84,020912,,,A*44
$GPGGA,100155.000,6433.0524,N,01436.7358,W,1,08,1.0,25.6,M,58.7,M,,0000*74
$GPGSA,A,3,12,29,14,25,04,02,32,20,,,,,2.1,1.0,1.9*37
$GPRMC,100155.000,A,6433.0524,N,01436.7358,W,33.42,347.30,020912,,,A*49
$GPGGA,100156.000,6433.0616,N,01436.7404,W,1,09,0.9,25.6,M,58.7,M,,0000*72
$GPGSA,A,3,12,29,14,25,04,31,02,32,20,,,,2.0,0.9,1.8*3D
$GPRMC,100156.000,A,6433.0616,N,01436.7404,W,34.14,347.25,020912,,,A*46
$GPGGA,100157.000,6433.0710,N,01436.7453,W,1,09,0.9,25.7,M,58.7,M,,0000*77
$GPGSA,A,3,12,29,14,25,04,31,02,32,20,,,,2.0,0.9,1.8*3D
$GPRMC,100157.000,A,6433.0710,N,01436.7453,W,34.72,346.71,020912,,,A*42
$GPGGA,100158.000,6433.0805,N,01436.7499,W,1,09,0.9,25.8,M,58.7,M,,0000*7A
$GPGSA,A,3,12,29,14,25,04,31,02,32,20,,,,2.0,0.9,1.8*3D
$GPGSV,3,1,09,25,75,175,31,12,48,086,41,31,45,281,29,14,37,211,23*73
$GPGSV,3,2,09,29,31,169,22,04,21,037,25,02,21,082,36,32,19,301,23*76
$GPGSV,3,3,09,20,16,330,25*42
$GPRMC,100158.000,A,6433.0805,N,01436.7499,W,35.10,347.64,020912,,,A*40
$GPGGA,100159.000,6433.0899,N,01436.7546,W,1,09,0.9,25.8,M,58.7,M,,0000*7D
$GPGSA,A,3,12,29,14,25,04,31,02,32,20,,,,2.0,0.9,1.8*3D
$GPRMC,100159.000,A,6433.0899,N,01436.7546,W,34.56,347.40,020912,,,A*42
$GPGGA,100200.000,6433.0992,N,01436.7593,W,1,09,0.9,26.0,M,58.7,M,,0000*7B
$GPGSA,A,3,12,29,14,25,04,31,02,32,20,,,,2.0,0.9,1.8*3D
$GPRMC,100200.000,A,6433.0992,N,01436.7593,W,34.34,347.32,020912,,,A*4E
$GPGGA,100201.000,6433.1084,N,01436.7638,W,1,09,0.9,26.1,M,58.7,M,,0000*76
$GPGSA,A,3,12,29,14,25,04,31,02,32,20,,,,2.0,0.9,1.8*3D
$GPRMC,100201.000,A,6433.1084,N,01436.7638,W,34.12,347.77,020912,,,A*47
$GPGGA,100202.000,6433.1179,N,01436.7677,W,1,09,0.9,26.2,M,58.7,M,,0000*7E
$GPGSA,A,3,12,29,14,25,04,31,02,32,20,,,,2.0,0.9,1.8*3D
$GPRMC,100202.000,A,6433.1179,N,01436.7677,W,34.42,349.59,020912,,,A*4B
$GPGGA,100203.000,6433.1275,N,01436.7709,W,1,09,0.9,26.3,M,58.7,M,,0000*79
$GPGSA,A,3,12,29,14,25,04,31,02,32,20,,,,2.0,0.9,1.8*3D
$GPGSV,3,1,09,25,75,175,31,12,48,086,41,31,45,281,37,14,37,211,31*7F
$GPGSV,3,2,09,29,31,169,22,04,21,037,18,02,21,082,36,32,19,301,26*7D
$GPGSV,3,3,09,20,16,330,34*42
$GPRMC,100203.000,A,6433.1275,N,01436.7709,W,34.99,351.46,020912,,,A*4C
$GPGGA,100204.000,6433.1372,N,01436.7732,W,1,09,0.9,26.4,M,58.7,M,,0000*77
$GPGSA,A,3,12,29,14,25,04,31,02,32,20,,,,2.0,0.9,1.8*3D
$GPRMC,100204.000,A,6433.1372,N,01436.7732,W,35.14,354.20,020912,,,A*44
$GPGGA,100205.000,6433.1470,N,01436.7743,W,1,08,0.9,26.4,M,58.7,M,,0000*74
$GPGSA,A,3,12,29,14,04,31,02,32,20,,,,,2.6,0.9,2.5*32
$GPRMC,100205.000,A,6433.1470,N,01436.7743,W,35.45,357.17,020912,,,A*45
$GPGGA,100206.000,6433.1568,N,01436.7740,W,1,09,0.9,26.3,M,58.7,M,,0000*7A
$GPGSA,A,3,12,29,14,25,04,31,02,32,20,,,,2.0,0.9,1.8*3D
$GPRMC,100206.000,A,6433.1568,N,01436.7740,W,35.62,0.80,020912,,,A*47
$GPGGA,100207.000,6433.1666,N,01436.7724,W,1,08,1.0,26.2,M,58.7,M,,0000*7C
$GPGSA,A,3,12,29,25,04,31,02,32,20,,,,,2.1,1.0,1.8*31
$GPRMC,100207.000,A,6433.1666,N,01436.7724,W,35.50,4.18,020912,,,A*4D
$GPGGA,100208.000,6433.1763,N,01436.7692,W,1,08,1.0,26.1,M,58.7,M,,0000*78
$GPGSA,A,3,12,29,25,04,31,02,32,20,,,,,2.1,1.0,1.8*31
$GPGSV,3,1,09,25,75,175,29,12,48,086,33,31,45,281,29,14,37,211,*7E
$GPGSV,3,2,09,29,31,169,30,04,21,037,31,02,21,082,35,32,19,301,26*76
$GPGSV,3,3,09,20,16,330,27*40
$GPRMC,100208.000,A,6433.1763,N,01436.7692,W,35.89,7.96,020912,,,A*4B
$GPGGA,100209.000,6433.1860,N,01436.7646,W,1,08,1.0,25.7,M,58.7,M,,0000*79
$GPGSA,A,3,12,29,25,04,31,02,32,20,,,,,2.1,1.0,1.8*31
$GPRMC,100209.000,A,6433.1860,N,01436.7646,W,36.00,11.73,020912,,,A*71
$GPGGA,100210.000,6433.1956,N,01436.7589,W,1,09,0.9,25.3,M,58.7,M,,0000*78
$GPGSA,A,3,12,29,14,25,04,31,02,32,20,,,,2.0,0.9,1.8*3D
$GPRMC,100210.000,A,6433.1956,N,01436.7589,W,35.91,14.64,020912,,,A*75
$GPGGA,100211.000,6433.2051,N,01436.7519,W,1,09,0.9,24.9,M,58.7,M,,0000*76
$GPGSA,A,3,12,29,14,25,04,31,02,32,20,,,,2.0,0.9,1.8*3D
$GPRMC,100211.000,A,6433.2051,N,01436.7519,W,36.52,17.57,020912,,,A*7F
$GPGGA,100212.000,6433.2145,N,01436.7435,W,1,09,0.9,24.4,M,58.7,M,,0000*73
$GPGSA,A,3,12,29,14,25,04,31,02,32,20,,,,2.0,0.9,1.8*3D
$GPRMC,100212.000,A,6433.2145,N,01436.7435,W,36.35,21.30,020912,,,A*72
$GPGGA,100213.000,6433.2237,N,01436.7338,W,1,08,1.2,24.0,M,58.7,M,,0000*71
$GPGSA,A,3,12,14,25,04,31,02,32,20,,,,,2.4,1.2,2.1*32
$GPGSV,3,1,09,25,75,175,35,12,48,086,32,31,45,281,37,14,37,211,33*7D
$GPGSV,3,2,09,29,31,169,,04,21,037,35,02,21,082,35,32,19,301,28*7F
$GPGSV,3,3,09,20,16,330,31*47
$GPRMC,100213.000,A,6433.2237,N,01436.7338,W,36.62,24.59,020912,,,A*77
$GPGGA,100214.000,6433.2327,N,01436.7228,W,1,07,2.2,23.6,M,58.7,M,,0000*7B
$GPGSA,A,3,12,25,04,31,02,32,20,,,,,,3.7,2.2,3.0*36
$GPRMC,100214.000,A,6433.2327,N,01436.7228,W,36.90,27.92,020912,,,A*79
$GPGGA,100215.000,6433.2416,N,01436.7110,W,1,09,0.9,23.3,M,58.7,M,,0000*75
$GPGSA,A,3,12,29,14,25,04,31,02,32,20,,,,2.0,0.9,1.8*3D
$GPRMC,100215.000,A,6433.2416,N,01436.7110,W,37.14,29.62,020912,,,A*79
$GPGGA,100216.000,6433.2505,N,01436.6990,W,1,09,0.9,22.9,M,58.7,M,,0000*7F
$GPGSA,A,3,12,29,14,25,04,31,02,32,20,,,,2.0,0.9,1.8*3D
$GPRMC,100216.000,A,6433.2505,N,01436.6990,W,37.44,30.24,020912,,,A*77
$GPGGA,100217.000,6433.2594,N,01436.6867,W,1,09,0.9,22.4,M,58.7,M,,0000*72
$GPGSA,A,3,12,29,14,25,04,31,02,32,20,,,,2.0,0.9,1.8*3D
$GPRMC,100217.000,A,6433.2594,N,01436.6867,W,37.55,30.54,020912,,,A*70
$GPGGA,100218.000,6433.2684,N,01436.6745,W,1,09,0.9,22.0,M,58.7,M,,0000*74
$GPGSA,A,3,12,29,14,25,04,31,02,32,20,,,,2.0,0.9,1.8*3D
$GPGSV,3,1,09,25,76,173,37,12,48,086,32,31,45,281,38,14,37,211,24*73
$GPGSV,3,2,09,29,31,169,33,04,21,037,35,02,21,081,26,32,19,300,29*7E
$GPGSV,3,3,09,20,16,330,24*43
$GPRMC,100218.000,A,6433.2684,N,01436.6745,W,37.78,30.25,020912,,,A*7B
$GPGGA,100219.000,6433.2775,N,01436.6620,W,1,09,0.9,21.6,M,58.7,M,,0000*7D
$GPGSA,A,3,12,29,14,25,04,31,02,32,20,,,,2.0,0.9,1.8*3D
$GPRMC,100219.000,A,6433.2775,N,01436.6620,W,38.24,30.54,020912,,,A*77
$GPGGA,100220.000,6433.2865,N,01436.6493,W,1,09,0.9,21.2,M,58.7,M,,0000*77
$GPGSA,A,3,12,29,14,25,04,31,02,32,20,,,,2.0,0.9,1.8*3D
$GPRMC,100220.000,A,6433.2865,N,01436.6493,W,38.44,31.00,020912,,,A*7F
$GPGGA,100221.000,6433.2956,N,01436.6366,W,1,09,0.9,20.8,M,58.7,M,,0000*71
$GPGSA,A,3,12,29,14,25,04,31,02,32,20,,,,2.0,0.9,1.8*3D
$GPRMC,100221.000,A,6433.2956,N,01436.6366,W,38.49,30.77,020912,,,A*7E
$GPGGA,100222.000,6433.3048,N,01436.6239,W,1,09,0.9,20.4,M,58.7,M,,0000*72
$GPGSA,A,3,12,29,14,25,04,31,02,32,20,,,,2.0,0.9,1.8*3D
$GPRMC,100222.000,A,6433.3048,N,01436.6239,W,38.67,30.61,020912,,,A*7A
$GPGGA,100223.000,6433.3140,N,01436.6111,W,1,09,0.9,20.1,M,58.7,M,,0000*76
$GPGSA,A,3,12,29,14,25,04,31,02,32,20,,,,2.0,0.9,1.8*3D
$GPGSV,3,1,09,25,76,173,37,12,48,086,33,31,45,281,37,14,37,211,26*7F
$GPGSV,3,2,09,29,31,169,33,04,21,037,35,02,21,081,27,32,19,300,30*77
$GPGSV,3,3,09,20,16,330,24*43
$GPRMC,100223.000,A,6433.3140,N,01436.6111,W,38.91,30.56,020912,,,A*76
$GPGGA,100224.000,6433.3232,N,01436.5982,W,1,09,0.9,19.8,M,58.7,M,,0000*75
$GPGSA,A,3,12,29,14,25,04,31,02,32,20,,,,2.0,0.9,1.8*3D
$GPRMC,100224.000,A,6433.3232,N,01436.5982,W,38.89,30.80,020912,,,A*74
$GPGGA,100225.000,6433.3324,N,01436.5853,W,1,09,0.9,19.6,M,58.7,M,,0000*71
$GPGSA,A,3,12,29,14,25,04,31,02,32,20,,,,2.0,0.9,1.8*3D
$GPRMC,100225.000,A,6433.3324,N,01436.5853,W,39.00,30.79,020912,,,A*78
$GPGGA,100226.000,6433.3417,N,01436.5723,W,1,09,0.9,19.4,M,58.7,M,,0000*7F
$GPGSA,A,3,12,29,14,25,04,31,02,32,20,,,,2.0,0.9,1.8*3D
$GPRMC,100226.000,A,6433.3417,N,01436.5723,W,39.08,30.98,020912,,,A*73
$GPGGA,100227.000,6433.3510,N,01436.5593,W,1,09,0.9,19.2,M,58.7,M,,0000*77
$GPGSA,A,3,12,29,14,25,04,31,02,32,20,,,,2.0,0.9,1.8*3D
$GPRMC,100227.000,A,6433.3510,N,01436.5593,W,39.20,30.79,020912,,,A*78
$GPGGA,100228.000,6433.3603,N,01436.5463,W,1,09,0.9,19.0,M,58.7,M,,0000*75
$GPGSA,A,3,12,29,14,25,04,31,02,32,20,,,,2.0,0.9,1.8*3D
$GPGSV,3,1,09,25,76,173,37,12,48,086,33,31,46,281,38,14,37,211,27*72
$GPGSV,3,2,09,29,31,169,33,04,21,037,35,02,21,081,27,32,19,300,30*77
$GPGSV,3,3,09,20,16,330,25*42
$GPRMC,100228.000,A,6433.3603,N,01436.5463,W,39.32,30.56,020912,,,A*76
$GPGGA,100229.000,6433.3697,N,01436.5334,W,1,09,0.9,18.8,M,58.7,M,,0000*75
$GPGSA,A,3,12,29,14,25,04,31,02,32,20,,,,2.0,0.9,1.8*3D
$GPRMC,100229.000,A,6433.3697,N,01436.5334,W,39.44,30.28,020912,,,A*77
$GPGGA,100230.000,6433.3791,N,01436.5204,W,1,09,0.9,18.7,M,58.7,M,,0000*77
$GPGSA,A,3,12,29,14,25,04,31,02,32,20,,,,2.0,0.9,1.8*3D
$GPRMC,100230.000,A,6433.3791,N,01436.5204,W,39.54,30.32,020912,,,A*70
$GPGGA,100231.000,6433.3885,N,01436.5075,W,1,09,0.9,18.6,M,58.7,M,,0000*79
$GPGSA,A,3,12,29,14,25,04,31,02,32,20,,,,2.0,0.9,1.8*3D
$GPRMC,100231.000,A,6433.3885,N,01436.5075,W,39.56,30.19,020912,,,A*74
$GPGGA,100232.000,6433.3979,N,01436.4945,W,1,09,0.9,18.5,M,58.7,M,,0000*70
$GPGSA,A,3,12,29,14,25,04,31,02,32,20,,,,2.0,0.9,1.8*3D
$GPRMC,100232.000,A,6433.3979,N,01436.4945,W,39.60,30.52,020912,,,A*74
$GPGGA,100233.000,6433.4073,N,01436.4813,W,1,09,0.9,18.5,M,58.7,M,,0000*77
$GPGSA,A,3,12,29,14,25,04,31,02,32,20,,,,2.0,0.9,1.8*3D
$GPGSV,3,1,09,25,76,173,37,12,48,086,33,31,46,281,37,14,37,211,27*7D
$GPGSV,3,2,09,29,31,169,32,04,21,037,35,02,21,081,27,32,19,300,29*7E
$GPGSV,3,3,09,20,16,330,24*43
$GPRMC,100233.000,A,6433.4073,N,01436.4813,W,39.67,30.64,020912,,,A*71
$GPGGA,100234.000,6433.4167,N,01436.4680,W,1,09,0.9,18.4,M,58.7,M,,0000*71
$GPGSA,A,3,12,29,14,25,04,31,02,32,20,,,,2.0,0.9,1.8*3D
$GPRMC,100234.000,A,6433.4167,N,01436.4680,W,39.66,31.18,020912,,,A*7D
$GPGGA,100235.000,6433.4260,N,01436.4549,W,1,09,0.9,18.4,M,58.7,M,,0000*72
$GPGSA,A,3,12,29,14,25,04,31,02,32,20,,,,2.0,0.9,1.8*3D
$GPRMC,100235.000,A,6433.4260,N,01436.4549,W,39.44,30.85,020912,,,A*7B
$GPGGA,100236.000,6433.4354,N,01436.4418,W,1,09,0.9,18.4,M,58.7,M,,0000*72
$GPGSA,A,3,12,29,14,25,04,31,02,32,20,,,,2.0,0.9,1.8*3D
$GPRMC,100236.000,A,6433.4354,N,01436.4418,W,39.45,30.58,020912,,,A*7A
$GPGGA,100237.000,6433.4448,N,01436.4288,W,1,09,0.9,18.3,M,58.7,M,,0000*71
$GPGSA,A,3,12,29,14,25,04,31,02,32,20,,,,2.0,0.9,1.8*3D
$GPRMC,100237.000,A,6433.4448,N,01436.4288,W,39.48,30.63,020912,,,A*7B
$GPGGA,100238.000,6433.4541,N,01436.4156,W,1,09,0.9,18.3,M,58.7,M,,0000*76
$GPGSA,A,3,12,29,14,25,04,31,02,32,20,,,,2.0,0.9,1.8*3D
$GPGSV,3,1,09,25,76,173,37,12,48,086,33,31,46,281,36,14,37,211,28*73
$GPGSV,3,2,09,29,31,169,32,04,21,037,35,02,21,081,28,32,19,300,22*7A
$GPGSV,3,3,09,20,16,330,24*43
$GPRMC,100238.000,A,6433.4541,N,01436.4156,W,39.30,31.27,020912,,,A*72
$GPGGA,100239.000,6433.4633,N,01436.4024,W,1,09,0.9,18.4,M,58.7,M,,0000*72
$GPGSA,A,3,12,29,14,25,04,31,02,32,20,,,,2.0,0.9,1.8*3D
$GPRMC,100239.000,A,6433.4633,N,01436.4024,W,39.23,31.27,020912,,,A*73
$GPGGA,100240.000,6433.4727,N,01436.3892,W,1,09,0.9,18.5,M,58.7,M,,0000*7B
$GPGSA,A,3,12,29,14,25,04,31,02,32,20,,,,2.0,0.9,1.8*3D
$GPRMC,100240.000,A,6433.4727,N,01436.3892,W,39.69,30.81,020912,,,A*78
$GPGGA,100241.000,6433.4823,N,01436.3763,W,1,09,0.9,18.5,M,58.7,M,,0000*70
$GPGSA,A,3,12,29,14,25,04,31,02,32,20,,,,2.0,0.9,1.8*3D
$GPRMC,100241.000,A,6433.4823,N,01436.3763,W,39.73,29.92,020912,,,A*72
$GPGGA,100242.000,6433.4917,N,01436.3632,W,1,09,0.9,18.6,M,58.7,M,,0000*73
$GPGSA,A,3,12,29,14,25,04,31,02,32,20,,,,2.0,0.9,1.8*3D
$GPRMC,100242.000,A,6433.4917,N,01436.3632,W,39.89,30.49,020912,,,A*79
$GPGGA,100243.000,6433.5012,N,01436.3501,W,1,09,0.9,18.6,M,58.7,M,,0000*7C
$GPGSA,A,3,12,29,14,25,04,31,02,32,20,,,,2.0,0.9,1.8*3D
$GPGSV,3,1,09,25,76,173,37,12,48,086,32,31,46,281,34,14,37,211,25*7D
$GPGSV,3,2,09,29,31,169,30,04,21,037,34,02,21,081,29,32,19,300,20*7A
$GPGSV,3,3,09,20,16,330,23*44
$GPRMC,100243.000,A,6433.5012,N,01436.3501,W,39.93,30.53,020912,,,A*76
$GPGGA,100244.000,6433.5108,N,01436.3370,W,1,09,0.9,18.7,M,58.7,M,,0000*70
$GPGSA,A,3,12,29,14,25,04,31,02,32,20,,,,2.0,0.9,1.8*3D
$GPRMC,100244.000,A,6433.5108,N,01436.3370,W,39.97,30.29,020912,,,A*72
$GPGGA,100245.000,6433.5203,N,01436.3241,W,1,09,0.9,18.8,M,58.7,M,,0000*75
$GPGSA,A,3,12,29,14,25,04,31,02,32,20,,,,2.0,0.9,1.8*3D
$GPRMC,100245.000,A,6433.5203,N,01436.3241,W,39.83,30.06,020912,,,A*70
$GPGGA,100246.000,6433.5298,N,01436.3112,W,1,09,0.9,18.9,M,58.7,M,,0000*70
$GPGSA,A,3,12,29,14,25,04,31,02,32,20,,,,2.0,0.9,1.8*3D
$GPRMC,100246.000,A,6433.5298,N,01436.3112,W,39.81,30.21,020912,,,A*73
$GPGGA,100247.000,6433.5393,N,01436.2981,W,1,09,0.9,19.0,M,58.7,M,,0000*70
$GPGSA,A,3,12,29,14,25,04,31,02,32,20,,,,2.0,0.9,1.8*3D
$GPRMC,100247.000,A,6433.5393,N,01436.2981,W,39.90,30.60,020912,,,A*7E
$GPGGA,100248.000,6433.5488,N,01436.2850,W,1,09,0.9,19.2,M,58.7,M,,0000*7D
$GPGSA,A,3,12,29,14,25,04,31,02,32,20,,,,2.0,0.9,1.8*3D
$GPGSV,3,1,09,25,76,173,37,12,48,086,28,31,46,281,34,14,37,211,23*70
$GPGSV,3,2,09,29,31,169,28,04,21,037,34,02,21,081,31,32,19,300,22*78
$GPGSV,3,3,09,20,16,330,15*41
$GPRMC,100248.000,A,6433.5488,N,01436.2850,W,39.92,30.77,020912,,,A*75
$GPGGA,100249.000,6433.5583,N,01436.2718,W,1,09,0.9,19.5,M,58.7,M,,0000*72
$GPGSA,A,3,12,29,14,25,04,31,02,32,20,,,,2.0,0.9,1.8*3D
$GPRMC,100249.000,A,6433.5583,N,01436.2718,W,39.92,30.67,020912,,,A*7C
$GPGGA,100250.000,6433.5677,N,01436.2586,W,1,09,0.9,19.8,M,58.7,M,,0000*7A
$GPGSA,A,3,12,29,14,25,04,31,02,32,20,,,,2.0,0.9,1.8*3D
$GPRMC,100250.000,A,6433.5677,N,01436.2586,W,39.79,30.92,020912,,,A*76
$GPGGA,100251.000,6433.5772,N,01436.2454,W,1,09,0.9,20.1,M,58.7,M,,0000*72
$GPGSA,A,3,12,29,14,25,04,31,02,32,20,,,,2.0,0.9,1.8*3D
$GPRMC,100251.000,A,6433.5772,N,01436.2454,W,39.81,30.96,020912,,,A*7E
$GPGGA,100252.000,6433.5866,N,01436.2323,W,1,09,0.9,20.4,M,58.7,M,,0000*79
$GPGSA,A,3,12,29,14,25,04,31,02,32,20,,,,2.0,0.9,1.8*3D
$GPRMC,100252.000,A,6433.5866,N,01436.2323,W,39.78,30.81,020912,,,A*70
$GPGGA,100253.000,6433.5961,N,01436.2193,W,1,09,0.9,20.6,M,58.7,M,,0000*75
$GPGSA,A,3,12,29,14,25,04,31,02,32,20,,,,2.0,0.9,1.8*3D
$GPGSV,3,1,09,25,76,172,36,12,48,086,30,31,46,281,36,14,37,211,19*72
$GPGSV,3,2,09,29,31,169,33,02,21,081,32,04,21,037,34,32,19,300,17*77
$GPGSV,3,3,09,20,16,329,18*44
$GPRMC,100253.000,A,6433.5961,N,01436.2193,W,39.79,30.50,020912,,,A*73
$GPGGA,100254.000,6433.6057,N,01436.2061,W,1,09,0.9,20.9,M,58.7,M,,0000*7E
$GPGSA,A,3,12,29,14,25,04,31,02,32,20,,,,2.0,0.9,1.8*3D
$GPRMC,100254.000,A,6433.6057,N,01436.2061,W,40.11,30.49,020912,,,A*7F
$GPGGA,100255.000,6433.6153,N,01436.1931,W,1,09,0.9,21.1,M,58.7,M,,0000*7C
$GPGSA,A,3,12,29,14,25,04,31,02,32,20,,,,2.0,0.9,1.8*3D
$GPRMC,100255.000,A,6433.6153,N,01436.1931,W,40.01,30.25,020912,,,A*7F
$GPGGA,100256.000,6433.6248,N,01436.1801,W,1,09,0.9,21.3,M,58.7,M,,0000*76
$GPGSA,A,3,12,29,14,25,04,31,02,32,20,,,,2.0,0.9,1.8*3D
$GPRMC,100256.000,A,6433.6248,N,01436.1801,W,39.98,30.50,020912,,,A*7B
$GPGGA,100257.000,6433.6343,N,01436.1668,W,1,09,0.9,21.4,M,58.7,M,,0000*7B
$GPGSA,A,3,12,29,14,25,04,31,02,32,20,,,,2.0,0.9,1.8*3D
$GPRMC,100257.000,A,6433.6343,N,01436.1668,W,39.99,30.80,020912,,,A*7D
$GPGGA,100258.000,6433.6438,N,01436.1536,W,1,09,0.9,21.5,M,58.7,M,,0000*76
$GPGSA,A,3,12,29,14,25,04,31,02,32,20,,,,2.0,0.9,1.8*3D
$GPGSV,3,1,09,25,76,172,36,12,48,086,31,31,46,281,35,14,37,211,22*78
$GPGSV,3,2,09,29,31,169,33,02,21,081,32,04,21,037,34,32,19,300,17*77
$GPGSV,3,3,09,20,16,329,24*4B
$GPRMC,100258.000,A,6433.6438,N,01436.1536,W,40.10,30.69,020912,,,A*79
$GPGGA,100259.000,6433.6534,N,01436.1404,W,1,09,0.9,21.7,M,58.7,M,,0000*78
$GPGSA,A,3,12,29,14,25,04,31,02,32,20,,,,2.0,0.9,1.8*3D
$GPRMC,100259.000,A,6433.6534,N,01436.1404,W,40.22,30.65,020912,,,A*78
$GPGGA,100300.000,6433.6629,N,01436.1273,W,1,09,0.9,21.7,M,58.7,M,,0000*7C
$GPGSA,A,3,12,29,14,25,04,31,02,32,20,,,,2.0,0.9,1.8*3D
$GPRMC,100300.000,A,6433.6629,N,01436.1273,W,40.09,30.38,020912,,,A*7D
$GPGGA,100301.000,6433.6725,N,01436.1143,W,1,09,0.9,21.8,M,58.7,M,,0000*7F
$GPGSA,A,3,12,29,14,25,04,31,02,32,20,,,,2.0,0.9,1.8*3D
$GPRMC,100301.000,A,6433.6725,N,01436.1143,W,40.03,30.38,020912,,,A*7B
$GPGGA,100302.000,6433.6820,N,01436.1014,W,1,09,0.9,21.8,M,58.7,M,,0000*75
$GPGSA,A,3,12,29,14,25,04,31,02,32,20,,,,2.0,0.9,1.8*3D
$GPRMC,100302.000,A,6433.6820,N,01436.1014,W,39.90,29.97,020912,,,A*78
$GPGGA,100303.000,6433.6915,N,01436.0885,W,1,09,0.9,21.8,M,58.7,M,,0000*72
$GPGSA,A,3,12,29,14,25,04,31,02,32,20,,,,2.0,0.9,1.8*3D
$GPGSV,3,1,09,25,76,172,36,12,48,086,31,31,46,281,35,14,36,211,22*79
$GPGSV,3,2,09,29,31,169,33,02,21,081,32,04,21,036,34,32,19,300,17*76
$GPGSV,3,3,09,20,16,329,21*4E
$GPRMC,100303.000,A,6433.6915,N,01436.0885,W,39.76,30.13,020912,,,A*73
$GPGGA,100304.000,6433.7010,N,01436.0757,W,1,09,0.9,21.8,M,58.7,M,,0000*78
$GPGSA,A,3,12,29,14,25,04,31,02,32,20,,,,2.0,0.9,1.8*3D
$GPRMC,100304.000,A,6433.7010,N,01436.0757,W,39.71,30.00,020912,,,A*7C
$GPGGA,100305.000,6433.7104,N,01436.0627,W,1,09,0.9,21.7,M,58.7,M,,0000*74
$GPGSA,A,3,12,29,14,25,04,31,02,32,20,,,,2.0,0.9,1.8*3D
$GPRMC,100305.000,A,6433.7104,N,01436.0627,W,39.70,30.53,020912,,,A*78
$GPGGA,100306.000,6433.7198,N,01436.0496,W,1,09,0.9,21.7,M,58.7,M,,0000*7A
$GPGSA,A,3,12,29,14,25,04,31,02,32,20,,,,2.0,0.9,1.8*3D
$GPRMC,100306.000,A,6433.7198,N,01436.0496,W,39.46,30.79,020912,,,A*7B
$GPGGA,100307.000,6433.7292,N,01436.0367,W,1,09,0.9,21.6,M,58.7,M,,0000*7A
$GPGSA,A,3,12,29,14,25,04,31,02,32,20,,,,2.0,0.9,1.8*3D
$GPRMC,100307.000,A,6433.7292,N,01436.0367,W,39.57,30.43,020912,,,A*73
$GPGGA,100308.000,6433.7386,N,01436.0238,W,1,09,0.9,21.5,M,58.7,M,,0000*79
$GPGSA,A,3,12,29,14,25,04,31,02,32,20,,,,2.0,0.9,1.8*3D
$GPGSV,3,1,09,25,76,172,36,12,48,086,31,31,46,281,31,14,36,211,23*7C
$GPGSV,3,2,09,29,31,169,33,02,21,081,32,04,21,036,34,32,19,300,22*70
$GPGSV,3,3,09,20,16,329,22*4D
$GPRMC,100308.000,A,6433.7386,N,01436.0238,W,39.50,30.51,020912,,,A*77
$GPGGA,100309.000,6433.7480,N,01436.0109,W,1,09,0.9,21.5,M,58.7,M,,0000*78
$GPGSA,A,3,12,29,14,25,04,31,02,32,20,,,,2.0,0.9,1.8*3D
$GPRMC,100309.000,A,6433.7480,N,01436.0109,W,39.61,30.42,020912,,,A*76
$GPGGA,100310.000,6433.7574,N,01435.9979,W,1,09,0.9,21.5,M,58.7,M,,0000*7F
$GPGSA,A,3,12,29,14,25,04,31,02,32,20,,,,2.0,0.9,1.8*3D
$GPRMC,100310.000,A,6433.7574,N,01435.9979,W,39.64,30.57,020912,,,A*70
$GPGGA,100311.000,6433.7668,N,01435.9849,W,1,09,0.9,21.5,M,58.7,M,,0000*72
$GPGSA,A,3,12,29,14,25,04,31,02,32,20,,,,2.0,0.9,1.8*3D
$GPRMC,100311.000,A,6433.7668,N,01435.9849,W,39.59,30.56,020912,,,A*72
$GPGGA,100312.000,6433.7763,N,01435.9720,W,1,09,0.9,21.6,M,58.7,M,,0000*78
$GPGSA,A,3,12,29,14,25,04,31,02,32,20,,,,2.0,0.9,1.8*3D
$GPRMC,100312.000,A,6433.7763,N,01435.9720,W,39.76,30.40,020912,,,A*71
$GPGGA,100313.000,6433.7858,N,01435.9591,W,1,09,0.9,21.7,M,58.7,M,,0000*77
$GPGSA,A,3,12,29,14,25,04,31,02,32,20,,,,2.0,0.9,1.8*3D
$GPGSV,3,1,09,25,76,171,36,12,48,086,30,31,46,281,31,14,36,210,23*7F
$GPGSV,3,2,09,29,31,169,33,02,21,081,32,04,21,036,34,32,19,300,22*70
$GPGSV,3,3,09,20,16,329,22*4D
$GPRMC,100313.000,A,6433.7858,N,01435.9591,W,39.81,30.13,020912,,,A*71
$GPGGA,100314.000,6433.7953,N,01435.9463,W,1,09,0.9,21.7,M,58.7,M,,0000*76
$GPGSA,A,3,12,29,14,25,04,31,02,32,20,,,,2.0,0.9,1.8*3D
$GPRMC,100314.000,A,6433.7953,N,01435.9463,W,39.67,29.95,020912,,,A*7E
$GPGGA,100315.000,6433.8047,N,01435.9335,W,1,09,0.9,21.8,M,58.7,M,,0000*7F
$GPGSA,A,3,12,29,14,25,04,31,02,32,20,,,,2.0,0.9,1.8*3D
$GPRMC,100315.000,A,6433.8047,N,01435.9335,W,39.59,30.06,020912,,,A*77
$GPGGA,100316.000,6433.8142,N,01435.9207,W,1,09,0.9,21.8,M,58.7,M,,0000*78
$GPGSA,A,3,12,29,14,25,04,31,02,32,20,,,,2.0,0.9,1.8*3D
$GPRMC,100316.000,A,6433.8142,N,01435.9207,W,39.74,30.00,020912,,,A*79
$GPGGA,100317.000,6433.8237,N,01435.9077,W,1,08,1.0,21.8,M,58.7,M,,0000*74
$GPGSA,A,3,12,29,14,25,04,31,02,32,,,,,2.1,1.0,1.8*36
$GPRMC,100317.000,A,6433.8237,N,01435.9077,W,39.68,30.58,020912,,,A*7C
$GPGGA,100318.000,6433.8331,N,01435.8947,W,1,08,1.0,21.9,M,58.7,M,,0000*76
$GPGSA,A,3,12,29,14,25,04,31,02,32,,,,,2.1,1.0,1.8*36
$GPGSV,3,1,09,25,76,171,35,12,47,086,29,31,46,281,30,14,36,210,25*7C
$GPGSV,3,2,09,29,32,169,32,02,21,081,32,04,21,036,34,32,19,300,23*73
$GPGSV,3,3,09,20,16,329,*4D
$GPRMC,100318.000,A,6433.8331,N,01435.8947,W,39.64,30.75,020912,,,A*7C
$GPGGA,100319.000,6433.8424,N,01435.8814,W,1,08,1.0,21.9,M,58.7,M,,0000*73
$GPGSA,A,3,12,29,14,25,04,31,02,32,,,,,2.1,1.0,1.8*36
$GPRMC,100319.000,A,6433.8424,N,01435.8814,W,39.67,31.30,020912,,,A*7A
$GPGGA,100320.000,6433.8517,N,01435.8679,W,1,08,1.0,22.0,M,58.7,M,,0000*77
$GPGSA,A,3,12,29,14,25,04,31,02,32,,,,,2.1,1.0,1.8*36
$GPRMC,100320.000,A,6433.8517,N,01435.8679,W,39.71,31.96,020912,,,A*7F
$GPGGA,100321.000,6433.8610,N,01435.8540,W,1,08,1.0,22.1,M,58.7,M,,0000*7A
$GPGSA,A,3,12,29,14,25,04,31,02,32,,,,,2.1,1.0,1.8*36
$GPRMC,100321.000,A,6433.8610,N,01435.8540,W,39.78,32.77,020912,,,A*76
$GPGGA,100322.000,6433.8701,N,01435.8397,W,1,08,1.0,22.1,M,58.7,M,,0000*74
$GPGSA,A,3,12,29,14,25,04,31,02,32,,,,,2.1,1.0,1.8*36
$GPRMC,100322.000,A,6433.8701,N,01435.8397,W,39.86,33.97,020912,,,A*76
$GPGGA,100323.000,6433.8790,N,01435.8247,W,1,07,1.0,22.2,M,58.7,M,,0000*7D
$GPGSA,A,3,12,29,14,25,04,31,32,,,,,,2.3,1.0,2.0*3D
$GPGSV,3,1,09,25,76,171,35,12,47,086,29,31,46,281,37,14,36,210,25*7B
$GPGSV,3,2,09,29,32,169,37,02,21,081,,04,21,036,34,32,19,300,23*77
$GPGSV,3,3,09,20,16,329,*4D
$GPRMC,100323.000,A,6433.8790,N,01435.8247,W,39.61,35.93,020912,,,A*78
$GPGGA,100324.000,6433.8877,N,01435.8093,W,1,08,1.0,22.2,M,58.7,M,,0000*78
$GPGSA,A,3,12,29,14,25,04,31,02,32,,,,,2.1,1.0,1.8*36
$GPRMC,100324.000,A,6433.8877,N,01435.8093,W,39.57,37.19,020912,,,A*77
$GPGGA,100325.000,6433.8962,N,01435.7935,W,1,08,1.0,22.2,M,58.7,M,,0000*76
$GPGSA,A,3,12,29,14,25,04,31,02,32,,,,,2.1,1.0,1.8*36
$GPRMC,100325.000,A,6433.8962,N,01435.7935,W,39.45,38.58,020912,,,A*70
$GPGGA,100326.000,6433.9045,N,01435.7772,W,1,07,1.0,22.2,M,58.7,M,,0000*7A
$GPGSA,A,3,29,14,25,04,31,02,32,,,,,,2.3,1.0,2.0*3C
$GPRMC,100326.000,A,6433.9045,N,01435.7772,W,39.41,40.20,020912,,,A*77
$GPGGA,100327.000,6433.9126,N,01435.7601,W,1,07,1.0,22.1,M,58.7,M,,0000*79
$GPGSA,A,3,29,14,25,04,31,02,32,,,,,,2.3,1.0,2.0*3C
$GPRMC,100327.000,A,6433.9126,N,01435.7601,W,39.35,42.50,020912,,,A*71
$GPGGA,100328.000,6433.9202,N,01435.7422,W,1,07,1.1,22.1,M,58.7,M,,0000*71
$GPGSA,A,3,12,29,25,04,31,02,32,,,,,,2.2,1.1,1.9*30
$GPGSV,3,1,09,25,76,171,35,12,47,086,35,31,46,281,21,14,36,210,*76
$GPGSV,3,2,09,29,32,169,38,02,21,081,32,04,21,036,20,32,19,300,25*7A
$GPGSV,3,3,09,20,16,329,*4D
$GPRMC,100328.000,A,6433.9202,N,01435.7422,W,39.19,45.37,020912,,,A*70
$GPGGA,100329.000,6433.9275,N,01435.7233,W,1,08,1.0,22.1,M,58.7,M,,0000*78
$GPGSA,A,3,12,29,14,25,04,31,02,32,,,,,2.1,1.0,1.8*36
$GPRMC,100329.000,A,6433.9275,N,01435.7233,W,39.44,48.20,020912,,,A*74
$GPGGA,100330.000,6433.9347,N,01435.7040,W,1,08,1.0,22.2,M,58.7,M,,0000*75
$GPGSA,A,3,12,29,14,25,04,31,02,32,,,,,2.1,1.0,1.8*36
$GPRMC,100330.000,A,6433.9347,N,01435.7040,W,39.58,49.27,020912,,,A*71
$GPGGA,100331.000,6433.9417,N,01435.6842,W,1,08,1.0,22.4,M,58.7,M,,0000*7B
$GPGSA,A,3,12,29,14,25,04,31,02,32,,,,,2.1,1.0,1.8*36
$GPRMC,100331.000,A,6433.9417,N,01435.6842,W,39.67,50.30,020912,,,A*7B
$GPGGA,100332.000,6433.9486,N,01435.6643,W,1,08,1.0,22.5,M,58.7,M,,0000*7E
$GPGSA,A,3,12,29,14,25,04,31,02,32,,,,,2.1,1.0,1.8*36
$GPRMC,100332.000,A,6433.9486,N,01435.6643,W,39.53,51.20,020912,,,A*78
$GPGGA,100333.000,6433.9554,N,01435.6442,W,1,08,1.0,22.6,M,58.7,M,,0000*71
$GPGSA,A,3,12,29,14,25,04,31,02,32,,,,,2.1,1.0,1.8*36
$GPGSV,3,1,09,25,76,171,35,12,47,086,33,31,46,281,28,14,36,210,34*7E
$GPGSV,3,2,09,29,32,169,38,02,21,081,30,04,21,036,27,32,19,300,33*78
$GPGSV,3,3,09,20,16,329,*4D
$GPRMC,100333.000,A,6433.9554,N,01435.6442,W,39.60,51.70,020912,,,A*71
$GPGGA,100334.000,6433.9622,N,01435.6239,W,1,08,1.0,22.8,M,58.7,M,,0000*70
$GPGSA,A,3,12,29,14,25,04,31,02,32,,,,,2.1,1.0,1.8*36
$GPRMC,100334.000,A,6433.9622,N,01435.6239,W,39.63,52.08,020912,,,A*71
$GPGGA,100335.000,6433.9690,N,01435.6034,W,1,08,1.0,22.9,M,58.7,M,,0000*76
$GPGSA,A,3,12,29,14,25,04,31,02,32,,,,,2.1,1.0,1.8*36
$GPRMC,100335.000,A,6433.9690,N,01435.6034,W,39.72,52.35,020912,,,A*78
$GPGGA,100336.000,6433.9757,N,01435.5829,W,1,08,1.0,23.0,M,58.7,M,,0000*70
$GPGSA,A,3,12,29,14,25,04,31,02,32,,,,,2.1,1.0,1.8*36
$GPRMC,100336.000,A,6433.9757,N,01435.5829,W,39.64,52.69,020912,,,A*78
$GPGGA,100337.000,6433.9824,N,01435.5625,W,1,08,1.0,23.1,M,58.7,M,,0000*79
$GPGSA,A,3,12,29,14,25,04,31,02,32,,,,,2.1,1.0,1.8*36
$GPRMC,100337.000,A,6433.9824,N,01435.5625,W,39.51,52.44,020912,,,A*79
$GPGGA,100338.000,6433.9892,N,01435.5423,W,1,08,1.0,23.2,M,58.7,M,,0000*7C
$GPGSA,A,3,12,29,14,25,04,31,02,32,,,,,2.1,1.0,1.8*36
$GPGSV,3,1,09,25,76,171,35,12,47,086,32,31,46,281,26,14,36,210,28*7C
$GPGSV,3,2,09,29,32,169,38,02,21,081,31,04,21,036,29,32,19,300,33*77
$GPGSV,3,3,09,20,16,329,*4D
$GPRMC,100338.000,A,6433.9892,N,01435.5423,W,39.54,51.99,020912,,,A*79
$GPGGA,100339.000,6433.9960,N,01435.5221,W,1,08,1.0,23.3,M,58.7,M,,0000*74
$GPGSA,A,3,12,29,14,25,04,31,02,32,,,,,2.1,1.0,1.8*36
$GPRMC,100339.000,A,6433.9960,N,01435.5221,W,39.54,51.73,020912,,,A*74
$GPGGA,100340.000,6434.0028,N,01435.5019,W,1,09,0.9,23.4,M,58.7,M,,0000*76
$GPGSA,A,3,12,29,14,25,04,31,02,20,32,,,,2.0,0.9,1.8*3D
$GPRMC,100340.000,A,6434.0028,N,01435.5019,W,39.37,52.01,020912,,,A*7B
$GPGGA,100341.000,6434.0094,N,01435.4814,W,1,09,0.9,23.5,M,58.7,M,,0000*75
$GPGSA,A,3,12,29,14,25,04,31,02,20,32,,,,2.0,0.9,1.8*3D
$GPRMC,100341.000,A,6434.0094,N,01435.4814,W,39.37,52.83,020912,,,A*73
$GPGGA,100342.000,6434.0161,N,01435.4610,W,1,09,0.9,23.6,M,58.7,M,,0000*74
$GPGSA,A,3,12,29,14,25,04,31,02,20,32,,,,2.0,0.9,1.8*3D
$GPRMC,100342.000,A,6434.0161,N,01435.4610,W,39.61,52.55,020912,,,A*79
$GPGGA,100343.000,6434.0229,N,01435.4407,W,1,09,0.9,23.7,M,58.7,M,,0000*7F
$GPGSA,A,3,12,29,14,25,04,31,02,20,32,,,,2.0,0.9,1.8*3D
$GPGSV,3,1,09,25,76,171,34,12,47,086,27,31,46,281,28,14,36,210,29*76
$GPGSV,3,2,09,29,32,169,38,02,21,081,28,04,21,036,21,32,19,300,25*70
$GPGSV,3,3,09,20,16,329,30*4E
$GPRMC,100343.000,A,6434.0229,N,01435.4407,W,39.55,51.92,020912,,,A*7C
$GPGGA,100344.000,6434.0298,N,01435.4208,W,1,09,0.9,23.8,M,58.7,M,,0000*74
$GPGSA,A,3,12,29,14,25,04,31,02,20,32,,,,2.0,0.9,1.8*3D
$GPRMC,100344.000,A,6434.0298,N,01435.4208,W,39.43,50.78,020912,,,A*7A
$GPGGA,100345.000,6434.0371,N,01435.4017,W,1,09,0.9,24.0,M,58.7,M,,0000*70
$GPGSA,A,3,12,29,14,25,04,31,02,20,32,,,,2.0,0.9,1.8*3D
$GPRMC,100345.000,A,6434.0371,N,01435.4017,W,39.21,48.39,020912,,,A*79
$GPGGA,100346.000,6434.0446,N,01435.3834,W,1,08,1.0,24.2,M,58.7,M,,0000*75
$GPGSA,A,3,12,29,14,25,31,02,20,32,,,,,2.1,1.0,1.8*30
$GPRMC,100346.000,A,6434.0446,N,01435.3834,W,39.08,45.86,020912,,,A*75
$GPGGA,100347.000,6434.0526,N,01435.3660,W,1,08,1.0,24.4,M,58.7,M,,0000*7A
$GPGSA,A,3,12,29,14,25,04,31,02,20,,,,,2.1,1.0,1.9*34
$GPRMC,100347.000,A,6434.0526,N,01435.3660,W,39.15,42.74,020912,,,A*7A
$GPGGA,100348.000,6434.0609,N,01435.3494,W,1,09,0.9,24.7,M,58.7,M,,0000*78
$GPGSA,A,3,12,29,14,25,04,31,02,20,32,,,,2.0,0.9,1.8*3D
$GPGSV,3,1,09,25,76,170,33,12,47,086,32,31,46,281,36,14,36,210,31*72
$GPGSV,3,2,09,29,32,169,35,02,21,081,33,04,21,036,38,32,19,300,08*70
$GPGSV,3,3,09,20,16,329,28*47
$GPRMC,100348.000,A,6434.0609,N,01435.3494,W,39.23,40.22,020912,,,A*76
$GPGGA,100349.000,6434.0695,N,01435.3339,W,1,09,0.9,25.0,M,58.7,M,,0000*7A
$GPGSA,A,3,12,29,14,25,04,31,02,20,32,,,,2.0,0.9,1.8*3D
$GPRMC,100349.000,A,6434.0695,N,01435.3339,W,39.18,37.04,020912,,,A*7E
$GPGGA,100350.000,6434.0785,N,01435.3195,W,1,09,0.9,25.4,M,58.7,M,,0000*72
$GPGSA,A,3,12,29,14,25,04,31,02,20,32,,,,2.0,0.9,1.8*3D
$GPRMC,100350.000,A,6434.0785,N,01435.3195,W,39.04,34.10,020912,,,A*79
$GPGGA,100351.000,6434.0877,N,01435.3063,W,1,09,0.9,25.9,M,58.7,M,,0000*74
$GPGSA,A,3,12,29,14,25,04,31,02,20,32,,,,2.0,0.9,1.8*3D
$GPRMC,100351.000,A,6434.0877,N,01435.3063,W,39.09,31.02,020912,,,A*79
$GPGGA,100352.000,6434.0973,N,01435.2943,W,1,09,0.9,26.3,M,58.7,M,,0000*71
$GPGSA,A,3,12,29,14,25,04,31,02,20,32,,,,2.0,0.9,1.8*3D
$GPRMC,100352.000,A,6434.0973,N,01435.2943,W,39.18,27.65,020912,,,A*73
$GPGGA,100353.000,6434.1072,N,01435.2837,W,1,09,0.9,26.7,M,58.7,M,,0000*7F
$GPGSA,A,3,12,29,14,25,04,31,02,20,32,,,,2.0,0.9,1.8*3D
$GPGSV,3,1,09,25,76,170,33,12,47,086,34,31,46,281,34,14,36,210,28*7E
$GPGSV,3,2,09,29,32,169,31,02,21,081,26,04,21,036,33,32,19,300,17*75
$GPGSV,3,3,09,20,16,329,31*4F
$GPRMC,100353.000,A,6434.1072,N,01435.2837,W,39.25,24.29,020912,,,A*7C
$GPGGA,100354.000,6434.1172,N,01435.2743,W,1,09,0.9,27.0,M,58.7,M,,0000*73
$GPGSA,A,3,12,29,14,25,04,31,02,20,32,,,,2.0,0.9,1.8*3D
$GPRMC,100354.000,A,6434.1172,N,01435.2743,W,39.30,21.26,020912,,,A*78
$GPGGA,100355.000,6434.1275,N,01435.2662,W,1,09,0.9,27.4,M,58.7,M,,0000*70
$GPGSA,A,3,12,29,14,25,04,31,02,20,32,,,,2.0,0.9,1.8*3D
$GPRMC,100355.000,A,6434.1275,N,01435.2662,W,39.29,18.18,020912,,,A*70
$GPGGA,100356.000,6434.1381,N,01435.2595,W,1,09,0.9,27.8,M,58.7,M,,0000*7E
$GPGSA,A,3,12,29,14,25,04,31,02,20,32,,,,2.0,0.9,1.8*3D
$GPRMC,100356.000,A,6434.1381,N,01435.2595,W,39.77,14.99,020912,,,A*7C
$GPGGA,100357.000,6434.1489,N,01435.2538,W,1,09,0.9,28.1,M,58.7,M,,0000*71
$GPGSA,A,3,12,29,14,25,04,31,02,20,32,,,,2.0,0.9,1.8*3D
$GPRMC,100357.000,A,6434.1489,N,01435.2538,W,40.25,12.30,020912,,,A*79
$GPGGA,100358.000,6434.1598,N,01435.2494,W,1,09,0.9,28.3,M,58.7,M,,0000*7A
$GPGSA,A,3,12,29,14,25,04,31,02,20,32,,,,2.0,0.9,1.8*3D
$GPGSV,3,1,09,25,76,170,34,12,47,086,41,31,46,281,35,14,36,210,27*75
$GPGSV,3,2,09,29,32,169,35,02,21,081,31,04,21,036,27,32,19,300,26*70
$GPGSV,3,3,09,20,16,329,26*49
$GPRMC,100358.000,A,6434.1598,N,01435.2494,W,40.16,9.52,020912,,,A*4E
$GPGGA,100359.000,6434.1707,N,01435.2461,W,1,09,0.9,28.4,M,58.7,M,,0000*72
$GPGSA,A,3,12,29,14,25,04,31,02,20,32,,,,2.0,0.9,1.8*3D
$GPRMC,100359.000,A,6434.1707,N,01435.2461,W,40.01,6.88,020912,,,A*4F
$GPGGA,100400.000,6434.1817,N,01435.2441,W,1,09,0.9,28.3,M,58.7,M,,0000*72
$GPGSA,A,3,12,29,14,25,04,31,02,20,32,,,,2.0,0.9,1.8*3D
$GPRMC,100400.000,A,6434.1817,N,01435.2441,W,40.29,4.00,020912,,,A*40
$GPGGA,100401.000,6434.1930,N,01435.2432,W,1,09,0.9,28.3,M,58.7,M,,0000*73
$GPGSA,A,3,12,29,14,25,04,31,02,20,32,,,,2.0,0.9,1.8*3D
$GPRMC,100401.000,A,6434.1930,N,01435.2432,W,40.78,1.66,020912,,,A*40
$GPGGA,100402.000,6434.2042,N,01435.2429,W,1,09,0.9,28.2,M,58.7,M,,0000*74
$GPGSA,A,3,12,29,14,25,04,31,02,20,32,,,,2.0,0.9,1.8*3D
$GPRMC,100402.000,A,6434.2042,N,01435.2429,W,40.66,0.28,020912,,,A*42
$GPGGA,100403.000,6434.2153,N,01435.2429,W,1,09,0.9,28.1,M,58.7,M,,0000*77
$GPGSA,A,3,12,29,14,25,04,31,02,20,32,,,,2.0,0.9,1.8*3D
$GPGSV,3,1,09,25,76,170,40,12,47,086,42,31,46,281,29,14,36,210,26*79
$GPGSV,3,2,09,29,32,169,29,02,21,081,32,04,21,036,37,32,19,300,26*7F
$GPGSV,3,3,09,20,16,329,28*47
$GPRMC,100403.000,A,6434.2153,N,01435.2429,W,40.54,359.94,020912,,,A*4B
$GPGGA,100404.000,6434.2265,N,01435.2427,W,1,09,0.9,27.9,M,58.7,M,,0000*7F
$GPGSA,A,3,12,29,14,25,04,31,02,20,32,,,,2.0,0.9,1.8*3D
$GPRMC,100404.000,A,6434.2265,N,01435.2427,W,40.43,0.26,020912,,,A*44
$GPGGA,100405.000,6434.2375,N,01435.2427,W,1,09,0.9,27.6,M,58.7,M,,0000*71
$GPGSA,A,3,12,29,14,25,04,31,02,20,32,,,,2.0,0.9,1.8*3D
$GPRMC,100405.000,A,6434.2375,N,01435.2427,W,40.16,0.14,020912,,,A*44
$GPGGA,100406.000,6434.2486,N,01435.2427,W,1,09,0.9,27.2,M,58.7,M,,0000*7D
$GPGSA,A,3,12,29,14,25,04,31,02,20,32,,,,2.0,0.9,1.8*3D
$GPRMC,100406.000,A,6434.2486,N,01435.2427,W,40.15,359.92,020912,,,A*4E
$GPGGA,100407.000,6434.2596,N,01435.2427,W,1,09,0.9,26.9,M,58.7,M,,0000*76
$GPGSA,A,3,12,29,14,25,04,31,02,20,32,,,,2.0,0.9,1.8*3D
$GPRMC,100407.000,A,6434.2596,N,01435.2427,W,39.82,0.13,020912,,,A*49
$GPGGA,100408.000,6434.2705,N,01435.2427,W,1,09,0.9,26.5,M,58.7,M,,0000*7D
$GPGSA,A,3,12,29,14,25,04,31,02,20,32,,,,2.0,0.9,1.8*3D
$GPGSV,3,1,09,25,76,170,39,12,47,086,43,31,46,281,30,14,36,210,17*7C
$GPGSV,3,2,09,29,32,169,32,02,21,081,32,04,21,036,37,32,19,300,18*78
$GPGSV,3,3,09,20,16,329,20*4F
$GPRMC,100408.000,A,6434.2705,N,01435.2427,W,39.57,0.32,020912,,,A*45
$GPGGA,100409.000,6434.2814,N,01435.2428,W,1,09,0.9,26.1,M,58.7,M,,0000*78
$GPGSA,A,3,12,29,14,25,04,31,02,20,32,,,,2.0,0.9,1.8*3D
$GPRMC,100409.000,A,6434.2814,N,01435.2428,W,39.62,0.08,020912,,,A*4B
$GPGGA,100410.000,6434.2923,N,01435.2430,W,1,09,0.9,25.8,M,58.7,M,,0000*76
$GPGSA,A,3,12,29,14,25,04,31,02,20,32,,,,2.0,0.9,1.8*3D
$GPRMC,100410.000,A,6434.2923,N,01435.2430,W,39.74,359.88,020912,,,A*4F
$GPGGA,100411.000,6434.3033,N,01435.2430,W,1,09,0.9,25.4,M,58.7,M,,0000*72
$GPGSA,A,3,12,29,14,25,04,31,02,20,32,,,,2.0,0.9,1.8*3D
$GPRMC,100411.000,A,6434.3033,N,01435.2430,W,39.91,0.36,020912,,,A*46
$GPGGA,100412.000,6434.3144,N,01435.2431,W,1,09,0.9,25.0,M,58.7,M,,0000*75
$GPGSA,A,3,12,29,14,25,04,31,02,20,32,,,,2.0,0.9,1.8*3D
$GPRMC,100412.000,A,6434.3144,N,01435.2431,W,40.15,0.21,020912,,,A*41
$GPGGA,100413.000,6434.3255,N,01435.2434,W,1,09,0.9,24.7,M,58.7,M,,0000*74
$GPGSA,A,3,12,29,14,25,04,31,02,20,32,,,,2.0,0.9,1.8*3D
$GPGSV,3,1,09,25,76,170,38,12,47,086,43,31,46,281,30,14,36,210,21*78
$GPGSV,3,2,09,29,32,169,34,02,21,081,33,04,21,036,37,32,18,300,19*7F
$GPGSV,3,3,09,20,16,329,27*48
$GPRMC,100413.000,A,6434.3255,N,01435.2434,W,40.35,359.77,020912,,,A*48
$GPGGA,100414.000,6434.3367,N,01435.2438,W,1,08,1.0,24.4,M,58.7,M,,0000*75
$GPGSA,A,3,12,29,14,25,04,31,02,20,,,,,2.1,1.0,1.9*34
$GPRMC,100414.000,A,6434.3367,N,01435.2438,W,40.43,359.55,020912,,,A*42
$GPGGA,100415.000,6434.3479,N,01435.2442,W,1,08,1.0,24.2,M,58.7,M,,0000*77
$GPGSA,A,3,12,29,14,25,04,31,02,20,,,,,2.1,1.0,1.9*34
$GPRMC,100415.000,A,6434.3479,N,01435.2442,W,40.61,359.58,020912,,,A*4B
$GPGGA,100416.000,6434.3591,N,01435.2443,W,1,08,1.0,24.0,M,58.7,M,,0000*70
$GPGSA,A,3,12,29,14,25,04,31,02,20,,,,,2.1,1.0,1.9*34
$GPRMC,100416.000,A,6434.3591,N,01435.2443,W,40.70,0.20,020912,,,A*4E
$GPGGA,100417.000,6434.3703,N,01435.2443,W,1,09,0.9,23.9,M,58.7,M,,0000*7F
$GPGSA,A,3,12,29,14,25,04,31,02,20,32,,,,2.0,0.9,1.8*3D
$GPRMC,100417.000,A,6434.3703,N,01435.2443,W,40.56,0.61,020912,,,A*47
$GPGGA,100418.000,6434.3816,N,01435.2444,W,1,09,0.9,23.8,M,58.7,M,,0000*7D
$GPGSA,A,3,12,29,14,25,04,31,02,20,32,,,,2.0,0.9,1.8*3D
$GPGSV,3,1,09,25,76,170,38,12,47,086,43,31,46,281,30,14,36,210,28*71
$GPGSV,3,2,09,29,32,169,35,02,21,081,33,04,21,036,36,32,18,300,26*73
$GPGSV,3,3,09,20,16,329,24*4B
$GPRMC,100418.000,A,6434.3816,N,01435.2444,W,40.56,0.20,020912,,,A*41
$GPGGA,100419.000,6434.3928,N,01435.2446,W,1,09,0.9,23.8,M,58.7,M,,0000*72
$GPGSA,A,3,12,29,14,25,04,31,02,20,32,,,,2.0,0.9,1.8*3D
$GPRMC,100419.000,A,6434.3928,N,01435.2446,W,40.70,0.18,020912,,,A*41
$GPGGA,100420.000,6434.4041,N,01435.2446,W,1,09,0.9,23.8,M,58.7,M,,0000*79
$GPGSA,A,3,12,29,14,25,04,31,02,20,32,,,,2.0,0.9,1.8*3D
$GPRMC,100420.000,A,6434.4041,N,01435.2446,W,40.82,0.45,020912,,,A*4F
$GPGGA,100421.000,6434.4154,N,01435.2446,W,1,09,0.9,23.9,M,58.7,M,,0000*7C
$GPGSA,A,3,12,29,14,25,04,31,02,20,32,,,,2.0,0.9,1.8*3D
$GPRMC,100421.000,A,6434.4154,N,01435.2446,W,40.89,0.46,020912,,,A*43
$GPGGA,100422.000,6434.4267,N,01435.2449,W,1,09,0.9,23.9,M,58.7,M,,0000*73
$GPGSA,A,3,12,29,14,25,04,31,02,20,32,,,,2.0,0.9,1.8*3D
$GPRMC,100422.000,A,6434.4267,N,01435.2449,W,40.99,0.01,020912,,,A*4E
$GPGGA,100423.000,6434.4380,N,01435.2452,W,1,09,0.9,23.9,M,58.7,M,,0000*70
$GPGSA,A,3,12,29,14,25,04,31,02,20,32,,,,2.0,0.9,1.8*3D
$GPGSV,3,1,09,25,76,170,38,12,47,086,43,31,46,281,29,14,36,210,28*79
$GPGSV,3,2,09,29,32,169,36,02,21,081,34,04,21,036,36,32,18,300,25*74
$GPGSV,3,3,09,20,16,329,24*4B
$GPRMC,100423.000,A,6434.4380,N,01435.2452,W,40.83,359.81,020912,,,A*41
$GPGGA,100424.000,6434.4493,N,01435.2457,W,1,09,0.9,24.0,M,58.7,M,,0000*79
$GPGSA,A,3,12,29,14,25,04,31,02,20,32,,,,2.0,0.9,1.8*3D
$GPRMC,100424.000,A,6434.4493,N,01435.2457,W,40.87,359.44,020912,,,A*4B
$GPGGA,100425.000,6434.4607,N,01435.2461,W,1,09,0.9,24.0,M,58.7,M,,0000*72
$GPGSA,A,3,12,29,14,25,04,31,02,20,32,,,,2.0,0.9,1.8*3D
$GPRMC,100425.000,A,6434.4607,N,01435.2461,W,41.08,359.62,020912,,,A*42
$GPGGA,100426.000,6434.4721,N,01435.2465,W,1,09,0.9,24.1,M,58.7,M,,0000*71
$GPGSA,A,3,12,29,14,25,04,31,02,20,32,,,,2.0,0.9,1.8*3D
$GPRMC,100426.000,A,6434.4721,N,01435.2465,W,41.12,359.67,020912,,,A*4E
$GPGGA,100427.000,6434.4835,N,01435.2468,W,1,09,0.9,24.1,M,58.7,M,,0000*77
$GPGSA,A,3,12,29,14,25,04,31,02,20,32,,,,2.0,0.9,1.8*3D
$GPRMC,100427.000,A,6434.4835,N,01435.2468,W,41.25,359.56,020912,,,A*4E
$GPGGA,100428.000,6434.4949,N,01435.2470,W,1,09,0.9,24.1,M,58.7,M,,0000*7B
$GPGSA,A,3,12,29,14,25,04,31,02,20,32,,,,2.0,0.9,1.8*3D
$GPGSV,3,1,09,25,76,170,38,12,47,086,42,31,46,281,25,14,36,210,30*7D
$GPGSV,3,2,09,29,32,169,36,02,21,081,34,04,21,036,36,32,18,300,24*75
$GPGSV,3,3,09,20,16,329,23*4C
$GPRMC,100428.000,A,6434.4949,N,01435.2470,W,41.30,359.99,020912,,,A*45
$GPGGA,100429.000,6434.5063,N,01435.2472,W,1,09,0.9,24.2,M,58.7,M,,0000*7B
$GPGSA,A,3,12,29,14,25,04,31,02,20,32,,,,2.0,0.9,1.8*3D
$GPRMC,100429.000,A,6434.5063,N,01435.2472,W,41.19,0.03,020912,,,A*41
$GPGGA,100430.000,6434.5177,N,01435.2473,W,1,09,0.9,24.2,M,58.7,M,,0000*76
$GPGSA,A,3,12,29,14,25,04,31,02,20,32,,,,2.0,0.9,1.8*3D
$GPRMC,100430.000,A,6434.5177,N,01435.2473,W,41.23,0.00,020912,,,A*46
$GPGGA,100431.000,6434.5291,N,01435.2476,W,1,09,0.9,24.3,M,58.7,M,,0000*78
$GPGSA,A,3,12,29,14,25,04,31,02,20,32,,,,2.0,0.9,1.8*3D
$GPRMC,100431.000,A,6434.5291,N,01435.2476,W,41.27,359.70,020912,,,A*45
$GPGGA,100432.000,6434.5406,N,01435.2478,W,1,09,0.9,24.3,M,58.7,M,,0000*7D
$GPGSA,A,3,12,29,14,25,04,31,02,20,32,,,,2.0,0.9,1.8*3D
$GPRMC,100432.000,A,6434.5406,N,01435.2478,W,41.27,359.60,020912,,,A*41
$GPGGA,100433.000,6434.5519,N,01435.2481,W,1,09,0.9,24.3,M,58.7,M,,0000*75
$GPGSA,A,3,12,29,14,25,04,31,02,20,32,,,,2.0,0.9,1.8*3D
$GPGSV,3,1,09,25,76,170,37,12,47,086,43,31,46,281,27,14,36,210,29*79
$GPGSV,3,2,09,29,32,169,36,02,21,081,34,04,21,036,36,32,18,300,27*76
$GPGSV,3,3,09,20,16,329,24*4B
$GPRMC,100433.000,A,6434.5519,N,01435.2481,W,41.17,359.60,020912,,,A*4A
$GPGGA,100434.000,6434.5633,N,01435.2481,W,1,09,0.9,24.4,M,58.7,M,,0000*7E
$GPGSA,A,3,12,29,14,25,04,31,02,20,32,,,,2.0,0.9,1.8*3D
$GPRMC,100434.000,A,6434.5633,N,01435.2481,W,41.11,0.12,020912,,,A*4A
$GPGGA,100435.000,6434.5747,N,01435.2480,W,1,09,0.9,24.4,M,58.7,M,,0000*7C
$GPGSA,A,3,12,29,14,25,04,31,02,20,32,,,,2.0,0.9,1.8*3D
$GPRMC,100435.000,A,6434.5747,N,01435.2480,W,41.04,0.39,020912,,,A*45
$GPGGA,100436.000,6434.5860,N,01435.2481,W,1,09,0.9,24.4,M,58.7,M,,0000*74
$GPGSA,A,3,12,29,14,25,04,31,02,20,32,,,,2.0,0.9,1.8*3D
$GPRMC,100436.000,A,6434.5860,N,01435.2481,W,41.08,0.04,020912,,,A*4F
$GPGGA,100437.000,6434.5974,N,01435.2482,W,1,09,0.9,24.4,M,58.7,M,,0000*72
$GPGSA,A,3,12,29,14,25,04,31,02,20,32,,,,2.0,0.9,1.8*3D
$GPRMC,100437.000,A,6434.5974,N,01435.2482,W,40.99,359.93,020912,,,A*41
$GPGGA,100438.000,6434.6087,N,01435.2482,W,1,09,0.9,24.5,M,58.7,M,,0000*7A
$GPGSA,A,3,12,29,14,25,04,31,02,20,32,,,,2.0,0.9,1.8*3D
$GPGSV,3,1,09,25,76,170,35,12,47,086,43,31,46,281,28,14,36,210,28*75
$GPGSV,3,2,09,29,32,169,36,02,21,081,34,04,21,036,35,32,18,300,28*7A
$GPGSV,3,3,09,20,16,329,29*46
$GPRMC,100438.000,A,6434.6087,N,01435.2482,W,40.92,0.05,020912,,,A*43
$GPGGA,100439.000,6434.6200,N,01435.2482,W,1,09,0.9,24.5,M,58.7,M,,0000*76
$GPGSA,A,3,12,29,14,25,04,31,02,20,32,,,,2.0,0.9,1.8*3D
$GPRMC,100439.000,A,6434.6200,N,01435.2482,W,40.93,0.22,020912,,,A*4B
$GPGGA,100440.000,6434.6313,N,01435.2481,W,1,09,0.9,24.5,M,58.7,M,,0000*78
$GPGSA,A,3,12,29,14,25,04,31,02,20,32,,,,2.0,0.9,1.8*3D
$GPRMC,100440.000,A,6434.6313,N,01435.2481,W,41.06,0.46,020912,,,A*4A
$GPGGA,100441.000,6434.6427,N,01435.2477,W,1,09,0.9,24.6,M,58.7,M,,0000*73
$GPGSA,A,3,12,29,14,25,04,31,02,20,32,,,,2.0,0.9,1.8*3D
$GPRMC,100441.000,A,6434.6427,N,01435.2477,W,41.09,1.07,020912,,,A*49
$GPGGA,100442.000,6434.6541,N,01435.2470,W,1,09,0.9,24.7,M,58.7,M,,0000*77
$GPGSA,A,3,12,29,14,25,04,31,02,20,32,,,,2.0,0.9,1.8*3D
$GPRMC,100442.000,A,6434.6541,N,01435.2470,W,41.01,1.87,020912,,,A*4C
$GPGGA,100443.000,6434.6654,N,01435.2458,W,1,09,0.9,24.8,M,58.7,M,,0000*74
$GPGSA,A,3,12,29,14,25,04,31,02,20,32,,,,2.0,0.9,1.8*3D
$GPGSV,3,1,09,25,76,170,35,12,47,086,42,31,46,281,28,14,36,210,26*7A
$GPGSV,3,2,09,29,32,169,33,02,21,081,34,04,21,036,25,32,18,300,28*7E
$GPGSV,3,3,09,20,16,329,16*4A
$GPRMC,100443.000,A,6434.6654,N,01435.2458,W,40.84,2.83,020912,,,A*4B
$GPGGA,100444.000,6434.6767,N,01435.2443,W,1,09,0.9,24.9,M,58.7,M,,0000*79
$GPGSA,A,3,12,29,14,25,04,31,02,20,32,,,,2.0,0.9,1.8*3D
$GPRMC,100444.000,A,6434.6767,N,01435.2443,W,40.96,3.72,020912,,,A*4B
$GPGGA,100445.000,6434.6880,N,01435.2423,W,1,09,0.9,25.1,M,58.7,M,,0000*71
$GPGSA,A,3,12,29,14,25,04,31,02,20,32,,,,2.0,0.9,1.8*3D
$GPRMC,100445.000,A,6434.6880,N,01435.2423,W,40.89,4.73,020912,,,A*42
$GPGGA,100446.000,6434.6993,N,01435.2399,W,1,09,0.9,25.2,M,58.7,M,,0000*74
$GPGSA,A,3,12,29,14,25,04,31,02,20,32,,,,2.0,0.9,1.8*3D
$GPRMC,100446.000,A,6434.6993,N,01435.2399,W,40.94,5.69,020912,,,A*42
$GPGGA,100447.000,6434.7107,N,01435.2372,W,1,09,0.9,25.2,M,58.7,M,,0000*74
$GPGSA,A,3,12,29,14,25,04,31,02,20,32,,,,2.0,0.9,1.8*3D
$GPRMC,100447.000,A,6434.7107,N,01435.2372,W,41.18,6.25,020912,,,A*4C
$GPGGA,100448.000,6434.7220,N,01435.2339,W,1,09,0.9,25.2,M,58.7,M,,0000*72
$GPGSA,A,3,12,29,14,25,04,31,02,20,32,,,,2.0,0.9,1.8*3D
$GPGSV,3,1,09,25,76,170,36,12,47,086,41,31,46,281,28,14,36,210,34*79
$GPGSV,3,2,09,29,32,169,33,02,21,081,25,04,21,036,31,32,18,300,22*71
$GPGSV,3,3,09,20,16,329,23*4C
$GPRMC,100448.000,A,6434.7220,N,01435.2339,W,41.08,7.50,020912,,,A*48
$GPGGA,100449.000,6434.7332,N,01435.2304,W,1,09,0.9,25.2,M,58.7,M,,0000*7F
$GPGSA,A,3,12,29,14,25,04,31,02,20,32,,,,2.0,0.9,1.8*3D
$GPRMC,100449.000,A,6434.7332,N,01435.2304,W,40.96,8.17,020912,,,A*4F
$GPGGA,100450.000,6434.7444,N,01435.2264,W,1,09,0.9,25.1,M,58.7,M,,0000*75
$GPGSA,A,3,12,29,14,25,04,31,02,20,32,,,,2.0,0.9,1.8*3D
$GPRMC,100450.000,A,6434.7444,N,01435.2264,W,41.01,8.88,020912,,,A*4F
$GPGGA,100451.000,6434.7557,N,01435.2220,W,1,09,0.9,25.0,M,58.7,M,,0000*76
$GPGSA,A,3,12,29,14,25,04,31,02,20,32,,,,2.0,0.9,1.8*3D
$GPRMC,100451.000,A,6434.7557,N,01435.2220,W,41.27,9.98,020912,,,A*49
$GPGGA,100452.000,6434.7669,N,01435.2173,W,1,09,0.9,24.9,M,58.7,M,,0000*76
$GPGSA,A,3,12,29,14,25,04,31,02,20,32,,,,2.0,0.9,1.8*3D
$GPRMC,100452.000,A,6434.7669,N,01435.2173,W,41.28,10.45,020912,,,A*76
$GPGGA,100453.000,6434.7782,N,01435.2120,W,1,09,0.9,24.8,M,58.7,M,,0000*74
$GPGSA,A,3,12,29,14,25,04,31,02,20,32,,,,2.0,0.9,1.8*3D
$GPGSV,3,1,09,25,76,170,36,12,47,086,35,31,46,281,28,14,36,210,27*78
$GPGSV,3,2,09,29,32,169,34,02,21,081,25,04,21,036,32,32,18,300,26*71
$GPGSV,3,3,09,20,16,329,22*4D
$GPRMC,100453.000,A,6434.7782,N,01435.2120,W,41.42,11.75,020912,,,A*7B
$GPGGA,100454.000,6434.7894,N,01435.2060,W,1,09,0.9,24.6,M,58.7,M,,0000*70
$GPGSA,A,3,12,29,14,25,04,31,02,20,32,,,,2.0,0.9,1.8*3D
$GPRMC,100454.000,A,6434.7894,N,01435.2060,W,41.55,13.52,020912,,,A*70
$GPGGA,100455.000,6434.8005,N,01435.1995,W,1,09,0.9,24.5,M,58.7,M,,0000*7D
$GPGSA,A,3,12,29,14,25,04,31,02,20,32,,,,2.0,0.9,1.8*3D
$GPRMC,100455.000,A,6434.8005,N,01435.1995,W,41.43,14.39,020912,,,A*73
$GPGGA,100456.000,6434.8116,N,01435.1930,W,1,09,0.9,24.5,M,58.7,M,,0000*72
$GPGSA,A,3,12,29,14,25,04,31,02,20,32,,,,2.0,0.9,1.8*3D
$GPRMC,100456.000,A,6434.8116,N,01435.1930,W,41.25,14.50,020912,,,A*73
