$GPGGA,160936.000,5333.3070,N,00958.6594,E,1,08,1.2,18.6,M,46.0,M,,0000*69
$GPGSA,A,3,03,14,22,06,19,18,11,01,,,,,1.8,1.2,1.3*3A
$GPRMC,160936.000,A,5333.3070,N,00958.6594,E,1.29,195.27,170912,,,A*63
$GPGGA,160937.000,5333.3068,N,00958.6590,E,1,09,1.1,18.6,M,46.0,M,,0000*67
$GPGSA,A,3,03,14,22,06,16,19,18,11,01,,,,1.6,1.1,1.3*30
$GPRMC,160937.000,A,5333.3068,N,00958.6590,E,0.81,198.59,170912,,,A*68
$GPGGA,160938.000,5333.3067,N,00958.6586,E,1,09,1.1,18.5,M,46.0,M,,0000*63
$GPGSA,A,3,03,14,22,06,16,19,18,11,01,,,,1.6,1.1,1.3*30
$GPGSV,3,1,12,19,74,272,33,22,63,102,40,03,62,170,32,06,51,150,43*77
$GPGSV,3,2,12,18,32,056,38,11,32,271,39,01,16,262,20,14,14,124,25*76
$GPGSV,3,3,12,16,13,192,35,08,09,307,22,28,06,334,21,15,06,020,27*78
$GPRMC,160939.000,A,5333.3064,N,00958.6581,E,1.00,206.57,170912,,,A*68
$GPGGA,160940.000,5333.3061,N,00958.6576,E,1,09,1.1,18.3,M,46.0,M,,0000*63
$GPGSA,A,3,03,14,22,06,16,19,18,11,01,,,,1.6,1.1,1.3*30
$GPRMC,160940.000,A,5333.3061,N,00958.6576,E,1.43,202.07,170912,,,A*6D
$GPGGA,160941.000,5333.3057,N,00958.6572,E,1,09,1.1,18.1,M,46.0,M,,0000*61
$GPGSA,A,3,03,14,22,06,16,19,18,11,01,,,,1.6,1.1,1.3*30
$GPRMC,160941.000,A,5333.3057,N,00958.6572,E,1.70,197.84,170912,,,A*69
$GPGGA,160942.000,5333.3053,N,00958.6567,E,1,09,1.1,18.0,M,46.0,M,,0000*63
$GPGSA,A,3,03,14,22,06,16,19,18,11,01,,,,1.6,1.1,1.3*30
$GPRMC,160942.000,A,5333.3053,N,00958.6567,E,1.62,194.24,170912,,,A*60
$GPGGA,160943.000,5333.3049,N,00958.6564,E,1,09,1.1,17.9,M,46.0,M,,0000*6C
$GPGSA,A,3,03,14,22,06,16,19,18,11,01,,,,1.6,1.1,1.3*30
$GPGSV,3,1,12,19,74,272,27,22,63,102,41,03,62,170,34,06,51,150,32*73
$GPGSV,3,2,12,18,32,056,38,11,32,271,39,01,16,262,20,14,14,124,24*77
$GPGSV,3,3,12,16,13,192,34,08,09,307,25,28,06,334,21,15,06,020,23*7A
$GPRMC,160943.000,A,5333.3049,N,00958.6564,E,1.46,190.24,170912,,,A*6B
$GPGGA,160944.000,5333.3045,N,00958.6560,E,1,09,1.1,17.7,M,46.0,M,,0000*6D
$GPGSA,A,3,03,14,22,06,16,19,18,11,01,,,,1.6,1.1,1.3*30
$GPRMC,160944.000,A,5333.3045,N,00958.6560,E,1.48,192.41,170912,,,A*6B
$GPGGA,160945.000,5333.3041,N,00958.6558,E,1,09,1.1,17.5,M,46.0,M,,0000*61
$GPGSA,A,3,03,14,22,06,16,19,18,11,01,,,,1.6,1.1,1.3*30
$GPRMC,160945.000,A,5333.3041,N,00958.6558,E,1.50,189.99,170912,,,A*63
$GPGGA,160946.000,5333.3036,N,00958.6555,E,1,09,1.1,17.2,M,46.0,M,,0000*68
$GPGSA,A,3,03,14,22,06,16,19,18,11,01,,,,1.6,1.1,1.3*30
$GPRMC,160946.000,A,5333.3036,N,00958.6555,E,1.64,188.73,170912,,,A*6F
$GPGGA,160947.000,5333.3032,N,00958.6553,E,1,09,1.1,16.9,M,46.0,M,,0000*61
$GPGSA,A,3,03,14,22,06,16,19,18,11,01,,,,1.6,1.1,1.3*30
$GPRMC,160947.000,A,5333.3032,N,00958.6553,E,1.51,186.89,170912,,,A*61
$GPGGA,160948.000,5333.3028,N,00958.6551,E,1,09,1.1,16.5,M,46.0,M,,0000*6B
$GPGSA,A,3,03,14,22,06,16,19,18,11,01,,,,1.6,1.1,1.3*30
$GPGSV,3,1,12,19,74,272,31,22,63,102,41,03,62,170,34,06,51,150,42*73
$GPGSV,3,2,12,18,32,056,42,11,32,271,31,01,16,262,20,14,14,124,23*75
$GPGSV,3,3,12,16,13,192,31,08,09,307,20,28,06,334,24,15,06,020,*7E
$GPRMC,160948.000,A,5333.3028,N,00958.6551,E,1.43,184.49,170912,,,A*6A
$GPGGA,160949.000,5333.3024,N,00958.6548,E,1,09,1.1,16.1,M,46.0,M,,0000*6A
$GPGSA,A,3,03,14,22,06,16,19,18,11,01,,,,1.6,1.1,1.3*30
$GPRMC,160949.000,A,5333.3024,N,00958.6548,E,1.35,196.96,170912,,,A*6F
$GPGGA,160950.000,5333.3021,N,00958.6547,E,1,09,1.1,15.7,M,46.0,M,,0000*6D
$GPGSA,A,3,03,14,22,06,16,19,18,11,01,,,,1.6,1.1,1.3*30
$GPRMC,160950.000,A,5333.3021,N,00958.6547,E,0.93,184.68,170912,,,A*62
$GPGGA,160951.000,5333.3018,N,00958.6546,E,1,09,1.1,15.3,M,46.0,M,,0000*63
$GPGSA,A,3,03,14,22,06,16,19,18,11,01,,,,1.6,1.1,1.3*30
$GPRMC,160952.000,A,5333.3016,N,00958.6546,E,0.81,173.10,170912,,,A*61
$GPGGA,160953.000,5333.3014,N,00958.6545,E,1,08,1.1,14.6,M,46.0,M,,0000*6B
$GPGSA,A,3,03,22,06,16,19,18,11,01,,,,,1.9,1.1,1.5*3C
$GPGSV,3,1,12,19,74,272,30,22,63,102,42,03,62,170,29,06,51,150,40*7F
$GPGSV,3,2,12,18,32,056,43,11,32,271,29,01,16,262,20,14,14,124,20*7E
$GPGSV,3,3,12,16,13,192,24,08,09,307,19,28,06,334,19,15,06,020,*7E
$GPRMC,160956.000,A,5333.3009,N,00958.6545,E,1.02,176.84,170912,,,A*6A
$GPGGA,160957.000,5333.3004,N,00958.6544,E,1,09,1.1,13.6,M,46.0,M,,0000*69
$GPGSA,A,3,03,14,22,06,16,19,18,11,01,,,,1.6,1.1,1.3*30
$GPRMC,160957.000,A,5333.3004,N,00958.6544,E,1.52,183.61,170912,,,A*63
$GPGGA,160958.000,5333.2999,N,00958.6544,E,1,09,1.1,13.4,M,46.0,M,,0000*68
$GPGSA,A,3,03,14,22,06,16,19,18,11,01,,,,1.6,1.1,1.3*30
$GPGSV,3,1,12,19,74,272,30,22,63,102,42,03,62,170,30,06,51,150,40*77
$GPGSV,3,2,12,18,32,056,43,11,32,271,29,01,16,262,19,14,14,124,17*70
$GPGSV,3,3,12,16,13,192,24,08,09,307,19,28,06,334,22,15,06,020,22*76
$GPRMC,160958.000,A,5333.2999,N,00958.6544,E,1.71,183.58,170912,,,A*6B
$GPGGA,160959.000,5333.2994,N,00958.6542,E,1,09,1.1,13.3,M,46.0,M,,0000*65
$GPGSA,A,3,03,14,22,06,16,19,18,11,01,,,,1.6,1.1,1.3*30
$GPRMC,160959.000,A,5333.2994,N,00958.6542,E,1.81,193.68,170912,,,A*6C
$GPGGA,161000.000,5333.2989,N,00958.6539,E,1,09,1.1,13.2,M,46.0,M,,0000*60
$GPGSA,A,3,03,14,22,06,16,19,18,11,01,,,,1.6,1.1,1.3*30
$GPRMC,161000.000,A,5333.2989,N,00958.6539,E,1.73,196.48,170912,,,A*62
$GPGGA,161001.000,5333.2984,N,00958.6535,E,1,09,1.1,13.0,M,46.0,M,,0000*62
$GPGSA,A,3,03,14,22,06,16,19,18,11,01,,,,1.6,1.1,1.3*30
$GPRMC,161001.000,A,5333.2984,N,00958.6535,E,1.74,207.91,170912,,,A*6A
$GPGGA,161002.000,5333.2979,N,00958.6534,E,1,09,1.1,12.8,M,46.0,M,,0000*6B
$GPGSA,A,3,03,14,22,06,16,19,18,11,01,,,,1.6,1.1,1.3*30
$GPRMC,161002.000,A,5333.2979,N,00958.6534,E,1.74,189.56,170912,,,A*64
$GPGGA,161003.000,5333.2974,N,00958.6531,E,1,09,1.1,12.6,M,46.0,M,,0000*6C
$GPGSA,A,3,03,14,22,06,16,19,18,11,01,,,,1.6,1.1,1.3*30
$GPGSV,3,1,12,19,74,272,30,22,63,102,41,03,62,170,33,06,51,150,37*77
$GPGSV,3,2,12,18,32,056,44,11,32,271,38,01,16,262,21,14,14,124,18*73
$GPGSV,3,3,12,16,13,192,24,08,09,307,19,28,06,334,16,15,06,020,22*71
$GPRMC,161003.000,A,5333.2974,N,00958.6531,E,1.69,195.52,170912,,,A*68
$GPGGA,161004.000,5333.2969,N,00958.6530,E,1,09,1.1,12.4,M,46.0,M,,0000*64
$GPGSA,A,3,03,14,22,06,16,19,18,11,01,,,,1.6,1.1,1.3*30
$GPRMC,161004.000,A,5333.2969,N,00958.6530,E,1.84,184.49,170912,,,A*6B
$GPGGA,161005.000,5333.2964,N,00958.6528,E,1,09,1.1,12.2,M,46.0,M,,0000*67
$GPGSA,A,3,03,14,22,06,16,19,18,11,01,,,,1.6,1.1,1.3*30
$GPRMC,161005.000,A,5333.2964,N,00958.6528,E,1.74,188.74,170912,,,A*63
$GPGGA,161006.000,5333.2959,N,00958.6526,E,1,09,1.1,12.1,M,46.0,M,,0000*67
$GPGSA,A,3,03,14,22,06,16,19,18,11,01,,,,1.6,1.1,1.3*30
$GPRMC,161006.000,A,5333.2959,N,00958.6526,E,1.52,191.81,170912,,,A*66
$GPGGA,161007.000,5333.2955,N,00958.6522,E,1,09,1.1,12.0,M,46.0,M,,0000*6F
$GPGSA,A,3,03,14,22,06,16,19,18,11,01,,,,1.6,1.1,1.3*30
$GPRMC,161007.000,A,5333.2955,N,00958.6522,E,1.51,204.75,170912,,,A*68
$GPGGA,161008.000,5333.2951,N,00958.6515,E,1,09,1.1,12.0,M,46.0,M,,0000*60
$GPGSA,A,3,03,14,22,06,16,19,18,11,01,,,,1.6,1.1,1.3*30
$GPGSV,3,1,12,19,74,272,34,22,63,102,42,03,62,170,41,06,51,150,44*71
$GPGSV,3,2,12,18,32,056,39,11,32,271,42,01,16,262,21,14,14,124,18*74
$GPGSV,3,3,12,16,13,192,24,08,09,307,19,28,06,334,24,15,06,020,*70
$GPRMC,161008.000,A,5333.2951,N,00958.6515,E,1.96,224.60,170912,,,A*6A
$GPGGA,161009.000,5333.2949,N,00958.6507,E,1,09,1.1,12.0,M,46.0,M,,0000*6B
$GPGSA,A,3,03,14,22,06,16,19,18,11,01,,,,1.6,1.1,1.3*30
$GPRMC,161009.000,A,5333.2949,N,00958.6507,E,1.73,245.39,170912,,,A*61
$GPGGA,161010.000,5333.2946,N,00958.6498,E,1,09,1.1,12.1,M,46.0,M,,0000*6A
$GPGSA,A,3,03,14,22,06,16,19,18,11,01,,,,1.6,1.1,1.3*30
$GPRMC,161010.000,A,5333.2946,N,00958.6498,E,1.95,246.76,170912,,,A*61
$GPGGA,161011.000,5333.2945,N,00958.6488,E,1,09,1.1,12.2,M,46.0,M,,0000*6A
$GPGSA,A,3,03,14,22,06,16,19,18,11,01,,,,1.6,1.1,1.3*30
$GPRMC,161011.000,A,5333.2945,N,00958.6488,E,1.96,262.30,170912,,,A*65
$GPGGA,161012.000,5333.2945,N,00958.6478,E,1,09,1.1,12.2,M,46.0,M,,0000*66
$GPGSA,A,3,03,14,22,06,16,19,18,11,01,,,,1.6,1.1,1.3*30
$GPRMC,161012.000,A,5333.2945,N,00958.6478,E,1.82,275.44,170912,,,A*69
$GPGGA,161013.000,5333.2946,N,00958.6468,E,1,09,1.1,12.3,M,46.0,M,,0000*64
$GPGSA,A,3,03,14,22,06,16,19,18,11,01,,,,1.6,1.1,1.3*30
$GPGSV,3,1,12,19,74,272,34,22,63,102,37,03,62,170,41,06,51,150,45*72
$GPGSV,3,2,12,18,32,056,37,11,32,271,43,01,16,262,21,14,14,124,20*70
$GPGSV,3,3,12,16,13,192,28,08,09,307,23,28,06,334,19,15,06,020,*7B
$GPRMC,161013.000,A,5333.2946,N,00958.6468,E,1.91,285.68,170912,,,A*69
$GPGGA,161014.000,5333.2947,N,00958.6460,E,1,09,1.1,12.3,M,46.0,M,,0000*6A
$GPGSA,A,3,03,14,22,06,16,19,18,11,01,,,,1.6,1.1,1.3*30
$GPRMC,161014.000,A,5333.2947,N,00958.6460,E,1.68,296.86,170912,,,A*63
$GPGGA,161015.000,5333.2949,N,00958.6452,E,1,09,1.1,12.4,M,46.0,M,,0000*63
$GPGSA,A,3,03,14,22,06,16,19,18,11,01,,,,1.6,1.1,1.3*30
$GPRMC,161015.000,A,5333.2949,N,00958.6452,E,1.76,298.01,170912,,,A*63
$GPGGA,161016.000,5333.2951,N,00958.6445,E,1,09,1.1,12.4,M,46.0,M,,0000*6F
$GPGSA,A,3,03,14,22,06,16,19,18,11,01,,,,1.6,1.1,1.3*30
$GPRMC,161016.000,A,5333.2951,N,00958.6445,E,1.50,308.53,170912,,,A*64
$GPGGA,161017.000,5333.2952,N,00958.6439,E,1,09,1.1,12.5,M,46.0,M,,0000*67
$GPGSA,A,3,03,14,22,06,16,19,18,11,01,,,,1.6,1.1,1.3*30
$GPRMC,161017.000,A,5333.2952,N,00958.6439,E,1.30,300.90,170912,,,A*6C
$GPGGA,161018.000,5333.2954,N,00958.6432,E,1,09,1.1,12.6,M,46.0,M,,0000*66
$GPGSA,A,3,03,14,22,06,16,19,18,11,01,,,,1.6,1.1,1.3*30
$GPGSV,3,1,12,19,74,271,34,22,62,101,30,03,62,170,41,06,50,150,45*75
$GPGSV,3,2,12,11,32,271,37,18,31,055,40,01,17,262,21,14,14,124,20*72
$GPGSV,3,3,12,16,12,192,34,08,08,306,28,28,06,334,18,15,05,020,26*7A
$GPRMC,161018.000,A,5333.2954,N,00958.6432,E,1.27,302.54,170912,,,A*62
$GPGGA,161019.000,5333.2955,N,00958.6426,E,1,09,1.1,12.8,M,46.0,M,,0000*6D
$GPGSA,A,3,03,14,22,06,16,19,18,11,01,,,,1.6,1.1,1.3*30
$GPRMC,161019.000,A,5333.2955,N,00958.6426,E,1.22,301.58,170912,,,A*6D
$GPGGA,161020.000,5333.2956,N,00958.6421,E,1,09,1.1,12.9,M,46.0,M,,0000*62
$GPGSA,A,3,03,14,22,06,16,19,18,11,01,,,,1.6,1.1,1.3*30
$GPRMC,161020.000,A,5333.2956,N,00958.6421,E,1.05,299.79,170912,,,A*65
$GPGGA,161021.000,5333.2958,N,00958.6415,E,1,09,1.0,12.9,M,46.0,M,,0000*6B
$GPGSA,A,3,03,14,22,06,16,19,18,11,01,,,,1.6,1.0,1.3*31
$GPRMC,161021.000,A,5333.2958,N,00958.6415,E,1.27,301.38,170912,,,A*68
$GPGGA,161022.000,5333.2960,N,00958.6408,E,1,09,1.0,13.0,M,46.0,M,,0000*67
$GPGSA,A,3,03,14,22,06,16,19,18,11,01,,,,1.6,1.0,1.3*31
$GPRMC,161022.000,A,5333.2960,N,00958.6408,E,1.46,306.51,170912,,,A*63
$GPGGA,161023.000,5333.2962,N,00958.6401,E,1,09,1.0,13.0,M,46.0,M,,0000*6D
$GPGSA,A,3,03,14,22,06,16,19,18,11,01,,,,1.6,1.0,1.3*31
$GPGSV,3,1,12,19,74,271,35,22,62,101,31,03,62,170,41,06,50,150,45*75
$GPGSV,3,2,12,11,32,271,37,18,31,055,35,01,17,262,21,14,14,124,23*73
$GPGSV,3,3,12,16,12,192,39,08,08,306,25,28,06,334,18,15,05,020,26*7A
$GPRMC,161023.000,A,5333.2962,N,00958.6401,E,1.43,304.39,170912,,,A*60
$GPGGA,161024.000,5333.2964,N,00958.6394,E,1,08,1.1,13.0,M,46.0,M,,0000*67
$GPGSA,A,3,03,14,22,06,16,19,18,11,,,,,1.8,1.1,1.4*38
$GPRMC,161024.000,A,5333.2964,N,00958.6394,E,1.48,309.16,170912,,,A*61
$GPGGA,161025.000,5333.2966,N,00958.6388,E,1,08,1.1,13.0,M,46.0,M,,0000*69
$GPGSA,A,3,03,14,22,06,16,19,18,11,,,,,1.8,1.1,1.4*38
$GPRMC,161025.000,A,5333.2966,N,00958.6388,E,1.44,306.27,170912,,,A*6E
$GPGGA,161026.000,5333.2968,N,00958.6382,E,1,08,1.1,13.1,M,46.0,M,,0000*6F
$GPGSA,A,3,03,14,22,06,16,19,18,11,,,,,1.8,1.1,1.4*38
$GPRMC,161026.000,A,5333.2968,N,00958.6382,E,1.25,306.66,170912,,,A*6B
$GPGGA,161027.000,5333.2970,N,00958.6375,E,1,08,1.1,13.2,M,46.0,M,,0000*6C
$GPGSA,A,3,03,14,22,06,16,19,18,11,,,,,1.8,1.1,1.4*38
$GPRMC,161027.000,A,5333.2970,N,00958.6375,E,1.43,294.02,170912,,,A*63
$GPGGA,161028.000,5333.2970,N,00958.6366,E,1,08,1.1,13.2,M,46.0,M,,0000*61
$GPGSA,A,3,03,14,22,06,16,19,18,11,,,,,1.8,1.1,1.4*38
$GPGSV,3,1,12,19,74,271,35,22,62,101,38,03,62,170,41,06,50,150,45*7C
$GPGSV,3,2,12,11,32,271,26,18,31,055,34,01,17,262,20,14,14,124,24*74
$GPGSV,3,3,12,16,12,192,32,08,08,306,25,28,06,334,24,15,05,020,26*7E
$GPRMC,161028.000,A,5333.2970,N,00958.6366,E,1.45,272.19,170912,,,A*6A
$GPGGA,161029.000,5333.2968,N,00958.6359,E,1,08,1.1,13.3,M,46.0,M,,0000*64
$GPGSA,A,3,03,14,22,06,16,19,18,11,,,,,1.8,1.1,1.4*38
$GPRMC,161029.000,A,5333.2968,N,00958.6359,E,1.35,256.93,170912,,,A*6D
$GPGGA,161030.000,5333.2967,N,00958.6352,E,1,08,1.1,13.4,M,46.0,M,,0000*6F
$GPGSA,A,3,03,14,22,06,16,19,18,11,,,,,1.8,1.1,1.4*38
$GPRMC,161030.000,A,5333.2967,N,00958.6352,E,1.26,254.48,170912,,,A*67
$GPGGA,161031.000,5333.2965,N,00958.6345,E,1,08,1.1,13.5,M,46.0,M,,0000*6B
$GPGSA,A,3,03,14,22,06,16,19,18,11,,,,,1.8,1.1,1.4*38
$GPRMC,161031.000,A,5333.2965,N,00958.6345,E,1.29,245.26,170912,,,A*65
$GPGGA,161032.000,5333.2963,N,00958.6338,E,1,09,1.0,13.8,M,46.0,M,,0000*69
$GPGSA,A,3,03,14,22,06,16,19,18,11,01,,,,1.6,1.0,1.3*31
$GPRMC,161032.000,A,5333.2963,N,00958.6338,E,1.18,247.88,170912,,,A*6E
$GPGGA,161033.000,5333.2962,N,00958.6332,E,1,08,1.1,14.0,M,46.0,M,,0000*6C
$GPGSA,A,3,03,14,06,16,19,18,11,01,,,,,1.7,1.1,1.3*31
$GPGSV,3,1,12,19,74,271,36,22,62,101,,03,62,170,42,06,50,150,45*77
$GPGSV,3,2,12,11,32,271,34,18,31,055,32,01,17,262,19,14,14,124,27*78
$GPGSV,3,3,12,16,12,192,33,08,08,306,20,28,06,334,20,15,05,020,*7A
$GPRMC,161033.000,A,5333.2962,N,00958.6332,E,1.16,251.85,170912,,,A*60
$GPGGA,161034.000,5333.2960,N,00958.6324,E,1,09,1.0,14.2,M,46.0,M,,0000*6C
$GPGSA,A,3,03,14,22,06,16,19,18,11,01,,,,1.6,1.0,1.3*31
$GPRMC,161034.000,A,5333.2960,N,00958.6324,E,1.44,248.08,170912,,,A*68
$GPGGA,161035.000,5333.2958,N,00958.6317,E,1,09,1.0,14.4,M,46.0,M,,0000*60
$GPGSA,A,3,03,14,22,06,16,19,18,11,01,,,,1.6,1.0,1.3*31
$GPRMC,161035.000,A,5333.2958,N,00958.6317,E,1.42,240.76,170912,,,A*65
$GPGGA,161036.000,5333.2956,N,00958.6309,E,1,09,1.0,14.6,M,46.0,M,,0000*60
$GPGSA,A,3,03,14,22,06,16,19,18,11,01,,,,1.6,1.0,1.3*31
$GPRMC,161036.000,A,5333.2956,N,00958.6309,E,1.53,246.74,170912,,,A*63
$GPGGA,161037.000,5333.2953,N,00958.6304,E,1,09,1.0,14.8,M,46.0,M,,0000*67
$GPGSA,A,3,03,14,22,06,16,19,18,11,01,,,,1.6,1.0,1.3*31
$GPRMC,161037.000,A,5333.2953,N,00958.6304,E,1.23,225.85,170912,,,A*66
$GPGGA,161038.000,5333.2950,N,00958.6298,E,1,09,1.0,15.0,M,46.0,M,,0000*66
$GPGSA,A,3,03,14,22,06,16,19,18,11,01,,,,1.6,1.0,1.3*31
$GPGSV,3,1,12,19,74,271,36,22,62,101,33,03,62,170,40,06,50,150,38*7F
$GPGSV,3,2,12,11,32,271,22,18,31,055,32,01,17,262,18,14,14,124,27*7E
$GPGSV,3,3,12,16,12,192,33,08,08,306,20,28,06,334,26,15,05,020,22*7C
$GPRMC,161038.000,A,5333.2950,N,00958.6298,E,1.34,227.73,170912,,,A*63
$GPGGA,161039.000,5333.2946,N,00958.6290,E,1,09,1.0,15.3,M,46.0,M,,0000*6B
$GPGSA,A,3,03,14,22,06,16,19,18,11,01,,,,1.6,1.0,1.3*31
$GPRMC,161039.000,A,5333.2946,N,00958.6290,E,1.69,224.14,170912,,,A*67
$GPGGA,161040.000,5333.2943,N,00958.6285,E,1,09,1.0,15.7,M,46.0,M,,0000*60
$GPGSA,A,3,03,14,22,06,16,19,18,11,01,,,,1.6,1.0,1.3*31
$GPRMC,161040.000,A,5333.2943,N,00958.6285,E,1.20,223.43,170912,,,A*60
$GPGGA,161041.000,5333.2942,N,00958.6280,E,1,09,1.0,16.0,M,46.0,M,,0000*61
$GPGSA,A,3,03,14,22,06,16,19,18,11,01,,,,1.6,1.0,1.3*31
$GPRMC,161043.000,A,5333.2936,N,00958.6273,E,1.39,201.67,170912,,,A*66
$GPGGA,161044.000,5333.2933,N,00958.6268,E,1,09,1.0,17.1,M,46.0,M,,0000*64
$GPGSA,A,3,03,14,22,06,16,19,18,11,01,,,,1.6,1.0,1.3*31
$GPRMC,161044.000,A,5333.2933,N,00958.6268,E,1.28,211.66,170912,,,A*6E
$GPGGA,161045.000,5333.2928,N,00958.6263,E,1,09,1.0,17.3,M,46.0,M,,0000*66
$GPGSA,A,3,03,14,22,06,16,19,18,11,01,,,,1.6,1.0,1.3*31
$GPRMC,161045.000,A,5333.2928,N,00958.6263,E,1.63,204.51,170912,,,A*61
$GPGGA,161046.000,5333.2924,N,00958.6257,E,1,09,1.0,17.4,M,46.0,M,,0000*69
$GPGSA,A,3,03,14,22,06,16,19,18,11,01,,,,1.6,1.0,1.3*31
$GPRMC,161046.000,A,5333.2924,N,00958.6257,E,1.60,217.90,170912,,,A*65
$GPGGA,161047.000,5333.2921,N,00958.6250,E,1,09,1.0,17.4,M,46.0,M,,0000*6A
$GPGSA,A,3,03,14,22,06,16,19,18,11,01,,,,1.6,1.0,1.3*31
$GPRMC,161047.000,A,5333.2921,N,00958.6250,E,1.63,228.53,170912,,,A*66
$GPGGA,161048.000,5333.2917,N,00958.6246,E,1,09,1.0,17.4,M,46.0,M,,0000*67
$GPGSA,A,3,03,14,22,06,16,19,18,11,01,,,,1.6,1.0,1.3*31
$GPGSV,3,1,12,19,75,270,31,22,62,101,43,03,62,170,41,06,50,150,41*70
$GPGSV,3,2,12,11,32,272,23,18,31,055,37,01,17,262,19,14,14,123,28*70
$GPGSV,3,3,12,16,12,192,36,08,08,306,32,28,06,334,29,15,05,020,*75
$GPRMC,161048.000,A,5333.2917,N,00958.6246,E,1.26,213.24,170912,,,A*62
$GPGGA,161049.000,5333.2915,N,00958.6243,E,1,09,1.0,17.4,M,46.0,M,,0000*61
$GPGSA,A,3,03,14,22,06,16,19,18,11,01,,,,1.6,1.0,1.3*31
$GPRMC,161058.000,A,5333.2901,N,00958.6232,E,1.22,209.31,170912,,,A*6C
$GPGGA,161059.000,5333.2898,N,00958.6230,E,1,08,1.1,16.7,M,46.0,M,,0000*62
$GPGSA,A,3,03,14,22,06,16,19,18,11,,,,,1.8,1.1,1.4*38
$GPRMC,161059.000,A,5333.2898,N,00958.6230,E,1.30,208.16,170912,,,A*69
$GPGGA,161100.000,5333.2894,N,00958.6226,E,1,08,1.1,16.6,M,46.0,M,,0000*65
$GPGSA,A,3,03,14,22,06,16,19,18,11,,,,,1.8,1.1,1.4*38
$GPRMC,161100.000,A,5333.2894,N,00958.6226,E,1.39,217.62,170912,,,A*6B
$GPGGA,161101.000,5333.2892,N,00958.6223,E,1,09,1.0,16.7,M,46.0,M,,0000*66
$GPGSA,A,3,03,14,22,06,16,19,18,11,01,,,,1.6,1.0,1.3*31
$GPRMC,161101.000,A,5333.2892,N,00958.6223,E,0.92,219.01,170912,,,A*62
$GPGGA,161102.000,5333.2888,N,00958.6220,E,1,09,1.0,16.8,M,46.0,M,,0000*62
$GPGSA,A,3,03,14,22,06,16,19,18,11,01,,,,1.6,1.0,1.3*31
$GPRMC,161102.000,A,5333.2888,N,00958.6220,E,1.27,208.95,170912,,,A*6B
$GPGGA,161103.000,5333.2884,N,00958.6217,E,1,09,1.0,16.8,M,46.0,M,,0000*6B
$GPGSA,A,3,03,14,22,06,16,19,18,11,01,,,,1.6,1.0,1.3*31
$GPGSV,3,1,12,19,75,270,32,22,62,101,39,03,62,170,39,06,50,150,42*72
$GPGSV,3,2,12,11,32,272,25,18,31,055,34,01,17,262,20,14,14,123,31*77
$GPGSV,3,3,12,16,12,192,28,08,08,306,24,28,06,334,23,15,05,020,*77
$GPRMC,161103.000,A,5333.2884,N,00958.6217,E,1.38,207.49,170912,,,A*62
$GPGGA,161104.000,5333.2881,N,00958.6213,E,1,09,1.0,17.0,M,46.0,M,,0000*64
$GPGSA,A,3,03,14,22,06,16,19,18,11,01,,,,1.6,1.0,1.3*31
$GPRMC,161104.000,A,5333.2881,N,00958.6213,E,1.48,209.19,170912,,,A*68
$GPGGA,161105.000,5333.2877,N,00958.6208,E,1,09,1.0,17.2,M,46.0,M,,0000*64
$GPGSA,A,3,03,14,22,06,16,19,18,11,01,,,,1.6,1.0,1.3*31
$GPRMC,161105.000,A,5333.2877,N,00958.6208,E,1.43,218.13,170912,,,A*6B
$GPGGA,161106.000,5333.2874,N,00958.6203,E,1,09,1.0,17.5,M,46.0,M,,0000*68
$GPGSA,A,3,03,14,22,06,16,19,18,11,01,,,,1.6,1.0,1.3*31
$GPRMC,161106.000,A,5333.2874,N,00958.6203,E,1.62,218.42,170912,,,A*67
$GPGGA,161107.000,5333.2871,N,00958.6197,E,1,09,1.0,17.7,M,46.0,M,,0000*60
$GPGSA,A,3,03,14,22,06,16,19,18,11,01,,,,1.6,1.0,1.3*31
$GPRMC,161107.000,A,5333.2871,N,00958.6197,E,1.58,229.64,170912,,,A*62
$GPGGA,161108.000,5333.2868,N,00958.6190,E,1,09,1.0,17.9,M,46.0,M,,0000*6E
$GPGSA,A,3,03,14,22,06,16,19,18,11,01,,,,1.6,1.0,1.3*31
$GPGSV,3,1,12,19,75,270,31,22,62,101,40,03,62,170,39,06,50,150,42*7F
$GPGSV,3,2,12,11,32,272,28,18,31,055,38,01,17,262,20,14,14,123,33*74
$GPGSV,3,3,12,16,12,192,28,08,08,306,21,28,06,334,24,15,05,020,*75
$GPRMC,161108.000,A,5333.2868,N,00958.6190,E,1.63,230.43,170912,,,A*67
$GPGGA,161109.000,5333.2864,N,00958.6184,E,1,09,1.0,18.1,M,46.0,M,,0000*61
$GPGSA,A,3,03,14,22,06,16,19,18,11,01,,,,1.6,1.0,1.3*31
$GPRMC,161109.000,A,5333.2864,N,00958.6184,E,1.73,225.85,170912,,,A*60
$GPGGA,161110.000,5333.2862,N,00958.6178,E,1,08,1.2,18.4,M,46.0,M,,0000*6A
$GPGSA,A,3,03,14,22,06,19,18,11,01,,,,,1.8,1.2,1.4*3D
$GPRMC,161110.000,A,5333.2862,N,00958.6178,E,1.52,234.01,170912,,,A*62
$GPGGA,161111.000,5333.2859,N,00958.6170,E,1,09,1.0,18.6,M,46.0,M,,0000*6A
$GPGSA,A,3,16,03,14,22,06,19,18,11,01,,,,1.6,1.0,1.3*31
$GPRMC,161111.000,A,5333.2859,N,00958.6170,E,1.70,239.68,170912,,,A*61
$GPGGA,161112.000,5333.2857,N,00958.6164,E,1,09,1.0,18.9,M,46.0,M,,0000*6D
$GPGSA,A,3,16,03,14,22,06,19,18,11,01,,,,1.6,1.0,1.3*31
$GPRMC,161112.000,A,5333.2857,N,00958.6164,E,1.52,237.12,170912,,,A*6A
$GPGGA,161113.000,5333.2855,N,00958.6158,E,1,09,1.0,19.3,M,46.0,M,,0000*6A
$GPGSA,A,3,16,03,14,22,06,19,18,11,01,,,,1.6,1.0,1.3*31
$GPGSV,3,1,12,19,75,270,33,22,62,101,37,03,62,170,39,06,50,150,42*7D
$GPGSV,3,2,12,11,32,272,27,18,31,055,33,01,17,262,20,14,14,123,35*76
$GPGSV,3,3,12,16,12,192,29,08,08,306,21,28,06,334,22,15,05,020,*72
$GPRMC,161113.000,A,5333.2855,N,00958.6158,E,1.22,229.57,170912,,,A*6F
$GPGGA,161114.000,5333.2852,N,00958.6152,E,1,09,1.0,19.6,M,46.0,M,,0000*65
$GPGSA,A,3,16,03,14,22,06,19,18,11,01,,,,1.6,1.0,1.3*31
$GPRMC,161114.000,A,5333.2852,N,00958.6152,E,1.45,228.19,170912,,,A*6F
$GPGGA,161115.000,5333.2848,N,00958.6146,E,1,09,1.0,19.9,M,46.0,M,,0000*65
$GPGSA,A,3,16,03,14,22,06,19,18,11,01,,,,1.6,1.0,1.3*31
$GPRMC,161115.000,A,5333.2848,N,00958.6146,E,1.59,223.04,170912,,,A*6A
$GPGGA,161116.000,5333.2845,N,00958.6140,E,1,09,1.0,20.2,M,46.0,M,,0000*6C
$GPGSA,A,3,16,03,14,22,06,19,18,11,01,,,,1.6,1.0,1.3*31
$GPRMC,161116.000,A,5333.2845,N,00958.6140,E,1.64,220.35,170912,,,A*6D
$GPGGA,161117.000,5333.2842,N,00958.6135,E,1,09,1.0,20.4,M,46.0,M,,0000*6E
$GPGSA,A,3,16,03,14,22,06,19,18,11,01,,,,1.6,1.0,1.3*31
$GPRMC,161117.000,A,5333.2842,N,00958.6135,E,1.24,220.63,170912,,,A*6E
$GPGGA,161118.000,5333.2838,N,00958.6130,E,1,09,1.0,20.6,M,46.0,M,,0000*6B
$GPGSA,A,3,16,03,14,22,06,19,18,11,01,,,,1.6,1.0,1.3*31
$GPGSV,3,1,12,19,75,270,33,22,62,101,38,03,62,170,39,06,50,150,41*71
$GPGSV,3,2,12,11,32,272,24,18,31,055,37,01,17,262,25,14,14,123,35*74
$GPGSV,3,3,12,16,12,192,29,08,08,306,21,28,06,334,20,15,05,020,*70
$GPRMC,161118.000,A,5333.2838,N,00958.6130,E,1.48,214.65,170912,,,A*62
$GPGGA,161119.000,5333.2835,N,00958.6125,E,1,09,1.0,20.7,M,46.0,M,,0000*62
$GPGSA,A,3,16,03,14,22,06,19,18,11,01,,,,1.6,1.0,1.3*31
$GPRMC,161119.000,A,5333.2835,N,00958.6125,E,1.45,219.64,170912,,,A*6B
$GPGGA,161120.000,5333.2832,N,00958.6119,E,1,09,1.0,20.8,M,46.0,M,,0000*6F
$GPGSA,A,3,16,03,14,22,06,19,18,11,01,,,,1.6,1.0,1.3*31
$GPRMC,161120.000,A,5333.2832,N,00958.6119,E,1.57,226.84,170912,,,A*68
$GPGGA,161121.000,5333.2829,N,00958.6113,E,1,09,1.0,20.9,M,46.0,M,,0000*6F
$GPGSA,A,3,16,03,14,22,06,19,18,11,01,,,,1.6,1.0,1.3*31
$GPRMC,161121.000,A,5333.2829,N,00958.6113,E,1.63,217.36,170912,,,A*65
$GPGGA,161122.000,5333.2825,N,00958.6107,E,1,09,1.0,20.9,M,46.0,M,,0000*65
$GPGSA,A,3,16,03,14,22,06,19,18,11,01,,,,1.6,1.0,1.3*31
$GPRMC,161122.000,A,5333.2825,N,00958.6107,E,1.69,218.41,170912,,,A*6A
$GPGGA,161123.000,5333.2823,N,00958.6101,E,1,09,1.0,20.8,M,46.0,M,,0000*65
$GPGSA,A,3,16,03,14,22,06,19,18,11,01,,,,1.6,1.0,1.3*31
$GPGSV,3,1,12,19,75,270,29,22,62,101,41,03,62,170,35,06,50,150,36*78
$GPGSV,3,2,12,11,32,272,25,18,31,055,35,01,17,262,32,14,14,123,34*70
$GPGSV,3,3,12,16,12,192,33,08,08,306,21,28,06,334,23,15,05,020,*78
$GPRMC,161123.000,A,5333.2823,N,00958.6101,E,1.49,230.74,170912,,,A*65
$GPGGA,161124.000,5333.2820,N,00958.6094,E,1,09,1.0,20.7,M,46.0,M,,0000*63
$GPGSA,A,3,16,03,14,22,06,19,18,11,01,,,,1.6,1.0,1.3*31
$GPRMC,161124.000,A,5333.2820,N,00958.6094,E,1.56,228.63,170912,,,A*6D
$GPGGA,161125.000,5333.2819,N,00958.6087,E,1,09,1.0,20.5,M,46.0,M,,0000*68
$GPGSA,A,3,16,03,14,22,06,19,18,11,01,,,,1.6,1.0,1.3*31
$GPRMC,161125.000,A,5333.2819,N,00958.6087,E,1.37,242.21,170912,,,A*69
$GPGGA,161126.000,5333.2817,N,00958.6080,E,1,09,1.0,20.3,M,46.0,M,,0000*64
$GPGSA,A,3,16,03,14,22,06,19,18,11,01,,,,1.6,1.0,1.3*31
$GPRMC,161126.000,A,5333.2817,N,00958.6080,E,1.51,239.62,170912,,,A*68
$GPGGA,161127.000,5333.2816,N,00958.6072,E,1,08,1.1,20.0,M,46.0,M,,0000*6A
$GPGSA,A,3,16,03,22,06,19,18,11,01,,,,,1.9,1.1,1.5*3C
$GPRMC,161127.000,A,5333.2816,N,00958.6072,E,1.37,249.36,170912,,,A*63
$GPGGA,161128.000,5333.2814,N,00958.6065,E,1,09,1.0,19.8,M,46.0,M,,0000*63
$GPGSA,A,3,16,03,14,22,06,19,18,11,01,,,,1.6,1.0,1.3*31
$GPGSV,3,1,12,19,75,270,29,22,62,101,39,03,62,170,35,06,50,150,35*74
$GPGSV,3,2,12,11,32,272,26,18,31,055,34,01,17,262,28,14,14,123,34*79
$GPGSV,3,3,12,16,12,192,30,08,08,306,26,28,06,334,24,15,05,020,19*73
$GPRMC,161128.000,A,5333.2814,N,00958.6065,E,1.40,243.12,170912,,,A*64
$GPGGA,161129.000,5333.2812,N,00958.6057,E,1,09,1.0,19.6,M,46.0,M,,0000*6B
$GPGSA,A,3,16,03,14,22,06,19,18,11,01,,,,1.6,1.0,1.3*31
$GPRMC,161129.000,A,5333.2812,N,00958.6057,E,1.57,237.39,170912,,,A*6E
$GPGGA,161130.000,5333.2810,N,00958.6050,E,1,09,1.0,19.5,M,46.0,M,,0000*65
$GPGSA,A,3,16,03,14,22,06,19,18,11,01,,,,1.6,1.0,1.3*31
$GPRMC,161130.000,A,5333.2810,N,00958.6050,E,1.59,241.49,170912,,,A*6B
$GPGGA,161131.000,5333.2809,N,00958.6043,E,1,09,1.0,19.5,M,46.0,M,,0000*6E
$GPGSA,A,3,16,03,14,22,06,19,18,11,01,,,,1.6,1.0,1.3*31
$GPRMC,161131.000,A,5333.2809,N,00958.6043,E,1.14,247.32,170912,,,A*63
$GPGGA,161132.000,5333.2807,N,00958.6037,E,1,09,1.0,19.2,M,46.0,M,,0000*67
$GPGSA,A,3,16,03,14,22,06,19,18,11,01,,,,1.6,1.0,1.3*31
$GPRMC,161132.000,A,5333.2807,N,00958.6037,E,1.10,223.52,170912,,,A*6D
$GPGGA,161133.000,5333.2804,N,00958.6030,E,1,09,1.0,19.0,M,46.0,M,,0000*60
$GPGSA,A,3,16,03,14,22,06,19,18,11,01,,,,1.6,1.0,1.3*31
$GPGSV,3,1,12,19,75,270,29,22,62,101,36,03,62,170,40,06,50,150,36*7A
$GPGSV,3,2,12,11,32,272,39,18,31,055,29,01,17,262,29,14,14,123,29*76
$GPGSV,3,3,12,16,12,192,32,08,08,306,27,28,06,334,23,15,05,020,19*77
$GPRMC,161133.000,A,5333.2804,N,00958.6030,E,1.34,227.07,170912,,,A*6A
$GPGGA,161134.000,5333.2801,N,00958.6021,E,1,08,1.1,18.8,M,46.0,M,,0000*6B
$GPGSA,A,3,16,03,22,06,19,18,11,01,,,,,1.9,1.1,1.5*3C
$GPRMC,161134.000,A,5333.2801,N,00958.6021,E,1.60,231.26,170912,,,A*6D
$GPGGA,161135.000,5333.2798,N,00958.6011,E,1,09,1.0,18.6,M,46.0,M,,0000*68
$GPGSA,A,3,16,03,14,22,06,19,18,11,01,,,,1.6,1.0,1.3*31
$GPRMC,161135.000,A,5333.2798,N,00958.6011,E,1.67,231.81,170912,,,A*6A
$GPGGA,161136.000,5333.2795,N,00958.6002,E,1,09,1.0,18.4,M,46.0,M,,0000*66
$GPGSA,A,3,16,03,14,22,06,19,18,11,01,,,,1.6,1.0,1.3*31
$GPRMC,161136.000,A,5333.2795,N,00958.6002,E,1.44,231.25,170912,,,A*69
$GPGGA,161137.000,5333.2792,N,00958.5994,E,1,09,1.0,18.1,M,46.0,M,,0000*60
$GPGSA,A,3,16,03,14,22,06,19,18,11,01,,,,1.6,1.0,1.3*31
$GPRMC,161137.000,A,5333.2792,N,00958.5994,E,1.43,232.78,170912,,,A*66
$GPGGA,161138.000,5333.2788,N,00958.5985,E,1,09,1.0,17.9,M,46.0,M,,0000*63
$GPGSA,A,3,16,03,14,22,06,19,18,11,01,,,,1.6,1.0,1.3*31
$GPGSV,3,1,12,19,75,270,34,22,62,101,37,03,62,170,38,06,50,150,41*78
$GPGSV,3,2,12,11,32,272,33,18,31,055,35,01,17,262,29,14,14,123,28*70
$GPGSV,3,3,12,16,12,192,33,08,08,306,27,28,06,334,26,15,05,020,*7B
$GPRMC,161138.000,A,5333.2788,N,00958.5985,E,1.69,223.48,170912,,,A*69
$GPGGA,161139.000,5333.2785,N,00958.5977,E,1,09,1.0,17.7,M,46.0,M,,0000*6C
$GPGSA,A,3,16,03,14,22,06,19,18,11,01,,,,1.6,1.0,1.3*31
$GPRMC,161139.000,A,5333.2785,N,00958.5977,E,1.41,230.12,170912,,,A*6F
$GPGGA,161140.000,5333.2782,N,00958.5968,E,1,09,1.0,17.5,M,46.0,M,,0000*69
$GPGSA,A,3,16,03,14,22,06,19,18,11,01,,,,1.6,1.0,1.3*31
$GPRMC,161140.000,A,5333.2782,N,00958.5968,E,1.64,231.20,170912,,,A*6F
$GPGGA,161141.000,5333.2778,N,00958.5960,E,1,09,1.0,17.2,M,46.0,M,,0000*62
$GPGSA,A,3,16,03,14,22,06,19,18,11,01,,,,1.6,1.0,1.3*31
$GPRMC,161141.000,A,5333.2778,N,00958.5960,E,1.53,230.45,170912,,,A*65
$GPGGA,161142.000,5333.2775,N,00958.5953,E,1,09,1.0,17.0,M,46.0,M,,0000*6E
$GPGSA,A,3,16,03,14,22,06,19,18,11,01,,,,1.6,1.0,1.3*31
$GPRMC,161142.000,A,5333.2775,N,00958.5953,E,1.53,225.11,170912,,,A*6E
$GPGGA,161143.000,5333.2771,N,00958.5946,E,1,09,1.0,16.7,M,46.0,M,,0000*69
$GPGSA,A,3,16,03,14,22,06,19,18,11,01,,,,1.6,1.0,1.3*31
$GPGSV,3,1,12,19,75,270,34,22,62,101,40,03,62,170,35,06,50,150,32*71
$GPGSV,3,2,12,11,32,272,33,18,31,055,36,01,17,262,32,14,14,123,27*76
$GPGSV,3,3,12,16,12,192,32,08,08,306,22,28,06,334,25,15,05,020,*7C
$GPRMC,161143.000,A,5333.2771,N,00958.5946,E,1.66,221.75,170912,,,A*6F
$GPGGA,161144.000,5333.2767,N,00958.5938,E,1,09,1.0,16.5,M,46.0,M,,0000*62
$GPGSA,A,3,16,03,14,22,06,19,18,11,01,,,,1.6,1.0,1.3*31
$GPRMC,161144.000,A,5333.2767,N,00958.5938,E,1.74,219.87,170912,,,A*63
$GPGGA,161145.000,5333.2764,N,00958.5934,E,1,09,1.0,16.3,M,46.0,M,,0000*6A
$GPGSA,A,3,16,03,14,22,06,19,18,11,01,,,,1.6,1.0,1.3*31
$GPRMC,161145.000,A,5333.2764,N,00958.5934,E,1.15,208.38,170912,,,A*6E
$GPGGA,161146.000,5333.2761,N,00958.5928,E,1,08,1.1,16.1,M,46.0,M,,0000*63
$GPGSA,A,3,16,03,14,22,19,18,11,01,,,,,1.7,1.1,1.3*37
$GPRMC,161146.000,A,5333.2761,N,00958.5928,E,1.31,213.16,170912,,,A*65
$GPGGA,161147.000,5333.2757,N,00958.5922,E,1,09,1.0,15.9,M,46.0,M,,0000*66
$GPGSA,A,3,16,03,14,22,06,19,18,11,01,,,,1.6,1.0,1.3*31
$GPRMC,161147.000,A,5333.2757,N,00958.5922,E,1.57,217.32,170912,,,A*69
$GPGGA,161148.000,5333.2754,N,00958.5916,E,1,08,1.1,15.7,M,46.0,M,,0000*63
$GPGSA,A,3,16,03,14,22,06,19,18,11,,,,,1.8,1.1,1.4*38
$GPGSV,3,1,12,19,75,270,31,22,62,101,34,03,62,170,35,06,50,150,36*73
$GPGSV,3,2,12,11,32,272,33,18,31,055,35,01,17,262,,14,14,123,27*74
$GPGSV,3,3,12,16,12,192,36,08,08,306,23,28,06,334,22,15,05,020,20*7C
$GPRMC,161148.000,A,5333.2754,N,00958.5916,E,1.40,224.80,170912,,,A*6D
$GPGGA,161149.000,5333.2750,N,00958.5912,E,1,09,1.0,15.6,M,46.0,M,,0000*63
$GPGSA,A,3,16,03,14,22,06,19,18,11,01,,,,1.6,1.0,1.3*31
$GPRMC,161149.000,A,5333.2750,N,00958.5912,E,1.32,200.66,170912,,,A*67
$GPGGA,161150.000,5333.2747,N,00958.5907,E,1,09,1.0,15.5,M,46.0,M,,0000*6A
$GPGSA,A,3,16,03,14,22,06,19,18,11,01,,,,1.6,1.0,1.3*31
$GPRMC,161150.000,A,5333.2747,N,00958.5907,E,1.20,216.69,170912,,,A*66
$GPGGA,161151.000,5333.2746,N,00958.5901,E,1,09,1.0,15.3,M,46.0,M,,0000*6A
$GPGSA,A,3,16,03,14,22,06,19,18,11,01,,,,1.6,1.0,1.3*31
$GPRMC,161151.000,A,5333.2746,N,00958.5901,E,1.05,240.29,170912,,,A*60
$GPGGA,161152.000,5333.2745,N,00958.5894,E,1,09,1.0,15.2,M,46.0,M,,0000*66
$GPGSA,A,3,16,03,14,22,06,19,18,11,01,,,,1.6,1.0,1.3*31
$GPRMC,161152.000,A,5333.2745,N,00958.5894,E,1.06,242.31,170912,,,A*65
$GPGGA,161153.000,5333.2742,N,00958.5889,E,1,09,1.0,15.3,M,46.0,M,,0000*6D
$GPGSA,A,3,16,03,14,22,06,19,18,11,01,,,,1.6,1.0,1.3*31
$GPGSV,3,1,12,19,75,270,35,22,62,101,35,03,62,170,36,06,50,150,36*75
$GPGSV,3,2,12,11,32,272,33,18,31,055,32,01,17,262,29,14,14,123,33*7D
$GPGSV,3,3,12,16,12,192,35,08,08,306,23,28,06,334,23,15,05,020,13*7E
$GPRMC,161153.000,A,5333.2742,N,00958.5889,E,1.05,216.02,170912,,,A*6D
$GPGGA,161154.000,5333.2739,N,00958.5882,E,1,09,1.0,15.3,M,46.0,M,,0000*6D
$GPGSA,A,3,16,03,14,22,06,19,18,11,01,,,,1.6,1.0,1.3*31
$GPRMC,161154.000,A,5333.2739,N,00958.5882,E,1.69,223.45,170912,,,A*62
$GPGGA,161155.000,5333.2736,N,00958.5876,E,1,09,1.0,15.4,M,46.0,M,,0000*6F
$GPGSA,A,3,16,03,14,22,06,19,18,11,01,,,,1.6,1.0,1.3*31
$GPRMC,161155.000,A,5333.2736,N,00958.5876,E,1.44,216.74,170912,,,A*6C
$GPGGA,161156.000,5333.2732,N,00958.5870,E,1,09,1.0,15.5,M,46.0,M,,0000*6F
$GPGSA,A,3,16,03,14,22,06,19,18,11,01,,,,1.6,1.0,1.3*31
$GPRMC,161156.000,A,5333.2732,N,00958.5870,E,1.69,217.09,170912,,,A*69
$GPGGA,161157.000,5333.2728,N,00958.5863,E,1,09,1.0,15.6,M,46.0,M,,0000*64
$GPGSA,A,3,16,03,14,22,06,19,18,11,01,,,,1.6,1.0,1.3*31
$GPRMC,161157.000,A,5333.2728,N,00958.5863,E,1.89,215.18,170912,,,A*6D
$GPGGA,161158.000,5333.2725,N,00958.5855,E,1,09,1.0,15.7,M,46.0,M,,0000*62
$GPGSA,A,3,16,03,14,22,06,19,18,11,01,,,,1.6,1.0,1.3*31
$GPGSV,3,1,12,19,75,270,36,22,62,101,35,03,62,170,41,06,50,150,34*74
$GPGSV,3,2,12,11,32,272,32,18,31,055,31,01,17,262,29,14,14,123,33*7F
$GPGSV,3,3,12,16,12,192,36,08,08,306,23,28,06,334,22,15,05,020,*7E
$GPRMC,161158.000,A,5333.2725,N,00958.5855,E,1.51,227.99,170912,,,A*67
$GPGGA,161159.000,5333.2721,N,00958.5847,E,1,09,1.0,15.9,M,46.0,M,,0000*6A
$GPGSA,A,3,16,03,14,22,06,19,18,11,01,,,,1.6,1.0,1.3*31
$GPRMC,161159.000,A,5333.2721,N,00958.5847,E,1.89,226.80,170912,,,A*6D
$GPGGA,161200.000,5333.2717,N,00958.5840,E,1,09,1.0,16.2,M,46.0,M,,0000*6F
$GPGSA,A,3,16,03,14,22,06,19,18,11,01,,,,1.6,1.0,1.3*31
$GPRMC,161200.000,A,5333.2717,N,00958.5840,E,1.81,222.95,170912,,,A*68
$GPGGA,161201.000,5333.2714,N,00958.5830,E,1,09,1.0,16.3,M,46.0,M,,0000*6B
$GPGSA,A,3,16,03,14,22,06,19,18,11,01,,,,1.6,1.0,1.3*31
$GPRMC,161201.000,A,5333.2714,N,00958.5830,E,1.96,233.66,170912,,,A*67
$GPGGA,161202.000,5333.2710,N,00958.5821,E,1,09,1.0,16.5,M,46.0,M,,0000*6A
$GPGSA,A,3,16,03,14,22,06,19,18,11,01,,,,1.6,1.0,1.3*31
$GPRMC,161202.000,A,5333.2710,N,00958.5821,E,2.02,231.63,170912,,,A*69
$GPGGA,161203.000,5333.2708,N,00958.5812,E,1,09,1.0,16.7,M,46.0,M,,0000*60
$GPGSA,A,3,16,03,14,22,06,19,18,11,01,,,,1.6,1.0,1.3*31
$GPGSV,3,1,12,19,75,268,36,22,62,099,40,03,61,169,43,06,50,150,41*74
$GPGSV,3,2,12,11,33,272,33,18,31,055,32,01,17,262,38,14,15,123,34*7A
$GPGSV,3,3,12,16,12,191,32,08,08,306,24,28,07,334,23,15,05,020,*7E
$GPRMC,161203.000,A,5333.2708,N,00958.5812,E,1.87,239.07,170912,,,A*65
$GPGGA,161204.000,5333.2704,N,00958.5802,E,1,09,1.0,16.8,M,46.0,M,,0000*65
$GPGSA,A,3,16,03,14,22,06,19,18,11,01,,,,1.6,1.0,1.3*31
$GPRMC,161204.000,A,5333.2704,N,00958.5802,E,2.13,232.88,170912,,,A*6D
$GPGGA,161205.000,5333.2701,N,00958.5793,E,1,09,1.0,16.9,M,46.0,M,,0000*67
$GPGSA,A,3,16,03,14,22,06,19,18,11,01,,,,1.6,1.0,1.3*31
$GPRMC,161205.000,A,5333.2701,N,00958.5793,E,2.03,235.99,170912,,,A*68
$GPGGA,161206.000,5333.2698,N,00958.5782,E,1,09,1.0,17.0,M,46.0,M,,0000*6D
$GPGSA,A,3,16,03,14,22,06,19,18,11,01,,,,1.6,1.0,1.3*31
$GPRMC,161206.000,A,5333.2698,N,00958.5782,E,2.17,240.00,170912,,,A*6D
$GPGGA,161207.000,5333.2696,N,00958.5772,E,1,09,1.0,17.2,M,46.0,M,,0000*6F
$GPGSA,A,3,16,03,14,22,06,19,18,11,01,,,,1.6,1.0,1.3*31
$GPRMC,161207.000,A,5333.2696,N,00958.5772,E,2.00,252.16,170912,,,A*6F
$GPGGA,161208.000,5333.2692,N,00958.5762,E,1,09,1.0,17.3,M,46.0,M,,0000*64
$GPGSA,A,3,16,03,14,22,06,19,18,11,01,,,,1.6,1.0,1.3*31
$GPGSV,3,1,12,19,75,268,34,22,62,099,39,03,61,169,42,06,50,150,35*7A
$GPGSV,3,2,12,11,33,272,34,18,31,055,31,01,17,262,31,14,15,123,35*76
$GPGSV,3,3,12,16,12,191,33,08,08,306,24,28,07,334,18,15,05,020,*77
$GPRMC,161208.000,A,5333.2692,N,00958.5762,E,2.14,237.72,170912,,,A*61
$GPGGA,161209.000,5333.2689,N,00958.5752,E,1,09,1.0,17.5,M,46.0,M,,0000*6A
$GPGSA,A,3,16,03,14,22,06,19,18,11,01,,,,1.6,1.0,1.3*31
$GPRMC,161209.000,A,5333.2689,N,00958.5752,E,2.22,232.20,170912,,,A*6E
$GPGGA,161210.000,5333.2685,N,00958.5743,E,1,09,1.0,17.6,M,46.0,M,,0000*6D
$GPGSA,A,3,16,03,14,22,06,19,18,11,01,,,,1.6,1.0,1.3*31
$GPRMC,161210.000,A,5333.2685,N,00958.5743,E,1.96,228.07,170912,,,A*68
$GPGGA,161211.000,5333.2681,N,00958.5733,E,1,08,1.2,17.7,M,46.0,M,,0000*6D
$GPGSA,A,3,03,14,22,06,19,18,11,01,,,,,1.8,1.2,1.4*3D
$GPRMC,161211.000,A,5333.2681,N,00958.5733,E,2.09,232.46,170912,,,A*61
$GPGGA,161212.000,5333.2678,N,00958.5723,E,1,09,1.0,17.7,M,46.0,M,,0000*6A
$GPGSA,A,3,16,03,14,22,06,19,18,11,01,,,,1.6,1.0,1.3*31
$GPRMC,161212.000,A,5333.2678,N,00958.5723,E,2.21,234.50,170912,,,A*6E
$GPGGA,161213.000,5333.2674,N,00958.5713,E,1,09,1.0,17.8,M,46.0,M,,0000*6B
$GPGSA,A,3,16,03,14,22,06,19,18,11,01,,,,1.6,1.0,1.3*31
$GPGSV,3,1,12,19,75,268,35,22,62,099,40,03,61,169,42,06,50,150,42*75
$GPGSV,3,2,12,11,33,272,40,18,31,055,33,01,17,262,37,14,15,123,35*71
$GPGSV,3,3,12,16,12,191,31,08,08,306,26,28,07,334,,15,05,020,*7E
$GPRMC,161213.000,A,5333.2674,N,00958.5713,E,2.01,233.38,170912,,,A*6B
$GPGGA,161214.000,5333.2672,N,00958.5703,E,1,09,1.0,17.9,M,46.0,M,,0000*6A
$GPGSA,A,3,16,03,14,22,06,19,18,11,01,,,,1.6,1.0,1.3*31
$GPRMC,161214.000,A,5333.2672,N,00958.5703,E,1.94,243.59,170912,,,A*64
$GPGGA,161215.000,5333.2670,N,00958.5691,E,1,09,1.0,18.0,M,46.0,M,,0000*65
$GPGSA,A,3,16,03,14,22,06,19,18,11,01,,,,1.6,1.0,1.3*31
$GPRMC,161215.000,A,5333.2670,N,00958.5691,E,2.10,251.49,170912,,,A*60
$GPGGA,161216.000,5333.2669,N,00958.5680,E,1,09,1.0,18.0,M,46.0,M,,0000*6E
$GPGSA,A,3,16,03,14,22,06,19,18,11,01,,,,1.6,1.0,1.3*31
$GPRMC,161216.000,A,5333.2669,N,00958.5680,E,2.02,258.65,170912,,,A*6F
$GPGGA,161217.000,5333.2668,N,00958.5669,E,1,09,1.0,18.2,M,46.0,M,,0000*6B
$GPGSA,A,3,16,03,14,22,06,19,18,11,01,,,,1.6,1.0,1.3*31
$GPRMC,161217.000,A,5333.2668,N,00958.5669,E,1.82,261.21,170912,,,A*69
$GPGGA,161218.000,5333.2667,N,00958.5659,E,1,09,1.0,18.4,M,46.0,M,,0000*6E
$GPGSA,A,3,16,03,14,22,06,19,18,11,01,,,,1.6,1.0,1.3*31
$GPGSV,3,1,12,19,75,268,36,22,62,099,40,03,61,169,42,06,50,150,43*77
$GPGSV,3,2,12,11,33,272,41,18,31,055,36,01,17,262,31,14,15,123,38*7E
$GPGSV,3,3,12,16,12,191,31,08,08,306,20,28,07,334,,15,05,020,*78
$GPRMC,161218.000,A,5333.2667,N,00958.5659,E,1.77,259.03,170912,,,A*6B
$GPGGA,161219.000,5333.2665,N,00958.5648,E,1,09,1.0,18.5,M,46.0,M,,0000*6C
$GPGSA,A,3,16,03,14,22,06,19,18,11,01,,,,1.6,1.0,1.3*31
$GPRMC,161219.000,A,5333.2665,N,00958.5648,E,1.84,259.99,170912,,,A*67
$GPGGA,161220.000,5333.2664,N,00958.5637,E,1,09,1.0,18.7,M,46.0,M,,0000*6D
$GPGSA,A,3,16,03,14,22,06,19,18,11,01,,,,1.6,1.0,1.3*31
$GPRMC,161220.000,A,5333.2664,N,00958.5637,E,1.93,261.21,170912,,,A*6A
$GPGGA,161221.000,5333.2663,N,00958.5626,E,1,09,1.0,18.8,M,46.0,M,,0000*64
$GPGSA,A,3,16,03,14,22,06,19,18,11,01,,,,1.6,1.0,1.3*31
$GPRMC,161221.000,A,5333.2663,N,00958.5626,E,2.03,262.68,170912,,,A*68
$GPGGA,161222.000,5333.2663,N,00958.5614,E,1,09,1.0,19.0,M,46.0,M,,0000*6F
$GPGSA,A,3,16,03,14,22,06,19,18,11,01,,,,1.6,1.0,1.3*31
$GPRMC,161222.000,A,5333.2663,N,00958.5614,E,2.02,271.35,170912,,,A*61
$GPGGA,161223.000,5333.2662,N,00958.5603,E,1,09,1.0,19.1,M,46.0,M,,0000*68
$GPGSA,A,3,16,03,14,22,06,19,18,11,01,,,,1.6,1.0,1.3*31
$GPGSV,3,1,12,19,75,268,36,22,62,099,39,03,61,169,36,06,50,150,43*7A
$GPGSV,3,2,12,11,33,272,41,18,31,055,29,01,17,262,31,14,15,123,40*7F
$GPGSV,3,3,12,16,12,191,26,08,08,306,21,28,07,334,,15,05,020,*7F
$GPRMC,161223.000,A,5333.2662,N,00958.5603,E,2.03,266.20,170912,,,A*64
$GPGGA,161224.000,5333.2663,N,00958.5592,E,1,09,1.0,19.2,M,46.0,M,,0000*66
$GPGSA,A,3,16,03,14,22,06,19,18,11,01,,,,1.6,1.0,1.3*31
$GPRMC,161224.000,A,5333.2663,N,00958.5592,E,1.97,281.02,170912,,,A*6E
$GPGGA,161225.000,5333.2664,N,00958.5582,E,1,09,1.0,19.3,M,46.0,M,,0000*60
$GPGSA,A,3,16,03,14,22,06,19,18,11,01,,,,1.6,1.0,1.3*31
$GPRMC,161225.000,A,5333.2664,N,00958.5582,E,1.84,283.49,170912,,,A*66
$GPGGA,161226.000,5333.2664,N,00958.5571,E,1,09,1.0,19.3,M,46.0,M,,0000*6F
$GPGSA,A,3,16,03,14,22,06,19,18,11,01,,,,1.6,1.0,1.3*31
$GPRMC,161226.000,A,5333.2664,N,00958.5571,E,1.96,273.76,170912,,,A*69
$GPGGA,161227.000,5333.2664,N,00958.5560,E,1,09,1.0,19.3,M,46.0,M,,0000*6E
$GPGSA,A,3,16,03,14,22,06,19,18,11,01,,,,1.6,1.0,1.3*31
$GPRMC,161227.000,A,5333.2664,N,00958.5560,E,2.03,271.31,170912,,,A*66
$GPGGA,161228.000,5333.2663,N,00958.5548,E,1,09,1.0,19.3,M,46.0,M,,0000*6C
$GPGSA,A,3,16,03,14,22,06,19,18,11,01,,,,1.6,1.0,1.3*31
$GPGSV,3,1,12,19,75,268,36,22,62,099,39,03,61,169,38,06,50,150,39*79
$GPGSV,3,2,12,11,33,272,41,18,31,055,36,01,17,262,31,14,15,123,34*72
$GPGSV,3,3,12,16,12,191,32,08,08,306,22,28,07,334,,15,05,020,*79
$GPRMC,161228.000,A,5333.2663,N,00958.5548,E,2.14,264.22,170912,,,A*64
$GPGGA,161229.000,5333.2662,N,00958.5537,E,1,09,1.0,19.4,M,46.0,M,,0000*63
$GPGSA,A,3,16,03,14,22,06,19,18,11,01,,,,1.6,1.0,1.3*31
$GPRMC,161229.000,A,5333.2662,N,00958.5537,E,2.04,262.12,170912,,,A*68
$GPGGA,161230.000,5333.2662,N,00958.5526,E,1,09,1.0,19.4,M,46.0,M,,0000*6B
$GPGSA,A,3,16,03,14,22,06,19,18,11,01,,,,1.6,1.0,1.3*31
$GPRMC,161230.000,A,5333.2662,N,00958.5526,E,2.03,268.80,170912,,,A*66
$GPGGA,161231.000,5333.2662,N,00958.5514,E,1,09,1.0,19.5,M,46.0,M,,0000*6A
$GPGSA,A,3,16,03,14,22,06,19,18,11,01,,,,1.6,1.0,1.3*31
$GPRMC,161231.000,A,5333.2662,N,00958.5514,E,2.17,276.77,170912,,,A*64
$GPGGA,161232.000,5333.2662,N,00958.5503,E,1,09,1.0,19.6,M,46.0,M,,0000*6C
$GPGSA,A,3,16,03,14,22,06,19,18,11,01,,,,1.6,1.0,1.3*31
$GPRMC,161232.000,A,5333.2662,N,00958.5503,E,2.02,277.12,170912,,,A*67
$GPGGA,161233.000,5333.2663,N,00958.5492,E,1,09,1.0,19.7,M,46.0,M,,0000*64
$GPGSA,A,3,16,03,14,22,06,19,18,11,01,,,,1.6,1.0,1.3*31
$GPGSV,3,1,12,19,75,268,37,22,62,099,38,03,61,169,41,06,50,150,46*7F
$GPGSV,3,2,12,11,33,272,42,18,31,055,37,01,17,262,31,14,15,123,36*72
$GPGSV,3,3,12,16,12,191,33,08,08,306,34,28,07,334,,15,05,020,*7F
$GPRMC,161233.000,A,5333.2663,N,00958.5492,E,1.98,279.20,170912,,,A*61
$GPGGA,161234.000,5333.2664,N,00958.5483,E,1,09,1.0,19.8,M,46.0,M,,0000*6B
$GPGSA,A,3,16,03,14,22,06,19,18,11,01,,,,1.6,1.0,1.3*31
$GPRMC,161234.000,A,5333.2664,N,00958.5483,E,1.72,285.92,170912,,,A*6F
$GPGGA,161235.000,5333.2665,N,00958.5473,E,1,09,1.0,19.9,M,46.0,M,,0000*65
$GPGSA,A,3,16,03,14,22,06,19,18,11,01,,,,1.6,1.0,1.3*31
$GPRMC,161235.000,A,5333.2665,N,00958.5473,E,1.71,286.29,170912,,,A*60
$GPGGA,161236.000,5333.2665,N,00958.5465,E,1,09,1.0,20.0,M,46.0,M,,0000*62
$GPGSA,A,3,16,03,14,22,06,19,18,11,01,,,,1.6,1.0,1.3*31
$GPRMC,161236.000,A,5333.2665,N,00958.5465,E,1.38,273.14,170912,,,A*6D
$GPGGA,161237.000,5333.2665,N,00958.5458,E,1,09,1.0,20.1,M,46.0,M,,0000*6C
$GPGSA,A,3,16,03,14,22,06,19,18,11,01,,,,1.6,1.0,1.3*31
$GPRMC,161237.000,A,5333.2665,N,00958.5458,E,1.38,284.56,170912,,,A*6C
$GPGGA,161238.000,5333.2667,N,00958.5450,E,1,09,1.0,20.3,M,46.0,M,,0000*6B
$GPGSA,A,3,16,03,14,22,06,19,18,11,01,,,,1.6,1.0,1.3*31
$GPGSV,3,1,12,19,75,268,37,22,62,099,34,03,61,169,41,06,50,150,46*73
$GPGSV,3,2,12,11,33,272,34,18,31,055,30,01,17,262,28,14,15,123,22*79
$GPGSV,3,3,12,16,12,191,30,08,08,306,36,28,07,334,,15,05,020,*7E
$GPRMC,161238.000,A,5333.2667,N,00958.5450,E,1.35,292.56,170912,,,A*63
$GPGGA,161239.000,5333.2669,N,00958.5444,E,1,09,1.0,20.4,M,46.0,M,,0000*66
$GPGSA,A,3,16,03,14,22,06,19,18,11,01,,,,1.6,1.0,1.3*31
$GPRMC,161239.000,A,5333.2669,N,00958.5444,E,1.30,309.45,170912,,,A*6D
$GPGGA,161240.000,5333.2670,N,00958.5439,E,1,09,1.0,20.5,M,46.0,M,,0000*6B
$GPGSA,A,3,16,03,14,22,06,19,18,11,01,,,,1.6,1.0,1.3*31
$GPRMC,161240.000,A,5333.2670,N,00958.5439,E,1.05,289.77,170912,,,A*6F
$GPGGA,161241.000,5333.2672,N,00958.5433,E,1,08,1.1,20.6,M,46.0,M,,0000*61
$GPGSA,A,3,16,03,14,22,06,19,18,11,,,,,1.8,1.1,1.4*38
$GPRMC,161241.000,A,5333.2672,N,00958.5433,E,1.10,302.44,170912,,,A*60
$GPGGA,161242.000,5333.2673,N,00958.5426,E,1,08,1.1,20.6,M,46.0,M,,0000*67
$GPGSA,A,3,16,03,14,22,06,19,18,11,,,,,1.8,1.1,1.4*38
$GPRMC,161242.000,A,5333.2673,N,00958.5426,E,1.47,296.56,170912,,,A*6B
$GPGGA,161243.000,5333.2676,N,00958.5418,E,1,08,1.2,20.6,M,46.0,M,,0000*6D
$GPGSA,A,3,03,14,22,01,06,19,18,11,,,,,1.8,1.2,1.4*3D
$GPGSV,3,1,12,19,75,268,38,22,62,099,34,03,61,169,39,06,50,150,43*76
$GPGSV,3,2,12,11,33,272,39,18,31,055,28,01,17,262,26,14,15,123,31*71
$GPGSV,3,3,12,16,12,191,,08,08,306,38,28,07,334,22,15,05,020,*73
$GPRMC,161243.000,A,5333.2676,N,00958.5418,E,1.56,299.64,170912,,,A*6C
$GPGGA,161244.000,5333.2678,N,00958.5410,E,1,09,1.0,20.7,M,46.0,M,,0000*6E
$GPGSA,A,3,16,03,14,22,01,06,19,18,11,,,,1.6,1.0,1.3*31
$GPRMC,161244.000,A,5333.2678,N,00958.5410,E,1.60,300.91,170912,,,A*63
$GPGGA,161245.000,5333.2680,N,00958.5402,E,1,09,1.0,20.7,M,46.0,M,,0000*6B
$GPGSA,A,3,16,03,14,22,01,06,19,18,11,,,,1.6,1.0,1.3*31
$GPRMC,161245.000,A,5333.2680,N,00958.5402,E,1.66,299.07,170912,,,A*6E
$GPGGA,161246.000,5333.2681,N,00958.5393,E,1,09,1.0,20.7,M,46.0,M,,0000*66
$GPGSA,A,3,16,03,14,22,01,06,19,18,11,,,,1.6,1.0,1.3*31
$GPRMC,161246.000,A,5333.2681,N,00958.5393,E,1.69,279.11,170912,,,A*65
$GPGGA,161247.000,5333.2681,N,00958.5384,E,1,09,1.0,20.7,M,46.0,M,,0000*61
$GPGSA,A,3,16,03,14,22,01,06,19,18,11,,,,1.6,1.0,1.3*31
$GPRMC,161247.000,A,5333.2681,N,00958.5384,E,1.68,274.99,170912,,,A*6E
$GPGGA,161248.000,5333.2681,N,00958.5375,E,1,09,1.0,20.7,M,46.0,M,,0000*60
$GPGSA,A,3,16,03,14,22,01,06,19,18,11,,,,1.6,1.0,1.3*31
$GPGSV,3,1,12,19,75,267,37,22,62,099,39,03,61,169,41,06,49,150,47*78
$GPGSV,3,2,12,11,33,272,34,18,31,055,27,01,18,263,27,14,15,123,38*75
$GPGSV,3,3,12,16,11,191,32,08,08,305,41,28,07,334,38,15,05,019,*7D
$GPRMC,161248.000,A,5333.2681,N,00958.5375,E,1.70,270.68,170912,,,A*6C
$GPGGA,161249.000,5333.2682,N,00958.5367,E,1,09,1.0,20.7,M,46.0,M,,0000*61
$GPGSA,A,3,16,03,14,22,01,06,19,18,11,,,,1.6,1.0,1.3*31
$GPRMC,161249.000,A,5333.2682,N,00958.5367,E,1.44,289.27,170912,,,A*67
$GPGGA,161250.000,5333.2681,N,00958.5360,E,1,09,1.0,20.8,M,46.0,M,,0000*62
$GPGSA,A,3,16,03,14,22,01,06,19,18,11,,,,1.6,1.0,1.3*31
$GPRMC,161250.000,A,5333.2681,N,00958.5360,E,1.18,270.23,170912,,,A*60
$GPGGA,161251.000,5333.2682,N,00958.5353,E,1,09,1.0,20.9,M,46.0,M,,0000*61
$GPGSA,A,3,16,03,14,22,01,06,19,18,11,,,,1.6,1.0,1.3*31
$GPRMC,161251.000,A,5333.2682,N,00958.5353,E,1.35,281.84,170912,,,A*6E
$GPGGA,161252.000,5333.2682,N,00958.5346,E,1,09,1.0,21.0,M,46.0,M,,0000*6E
$GPGSA,A,3,16,03,14,22,01,06,19,18,11,,,,1.6,1.0,1.3*31
$GPRMC,161252.000,A,5333.2682,N,00958.5346,E,1.29,282.48,170912,,,A*67
$GPGGA,161253.000,5333.2681,N,00958.5338,E,1,09,1.0,21.2,M,46.0,M,,0000*67
$GPGSA,A,3,16,03,14,22,01,06,19,18,11,,,,1.6,1.0,1.3*31
$GPGSV,3,1,12,19,75,267,37,22,62,099,37,03,61,169,41,06,49,150,46*77
$GPGSV,3,2,12,11,33,272,32,18,31,055,27,01,18,263,27,14,15,123,39*72
$GPGSV,3,3,12,16,11,191,30,08,08,305,42,28,07,334,38,15,05,019,*7C
$GPRMC,161253.000,A,5333.2681,N,00958.5338,E,1.53,256.58,170912,,,A*69
$GPGGA,161254.000,5333.2682,N,00958.5330,E,1,09,1.0,21.3,M,46.0,M,,0000*6A
$GPGSA,A,3,16,03,14,22,01,06,19,18,11,,,,1.6,1.0,1.3*31
$GPRMC,161254.000,A,5333.2682,N,00958.5330,E,1.53,282.47,170912,,,A*62
$GPGGA,161255.000,5333.2681,N,00958.5322,E,1,09,1.0,21.5,M,46.0,M,,0000*6D
$GPGSA,A,3,16,03,14,22,01,06,19,18,11,,,,1.6,1.0,1.3*31
$GPRMC,161255.000,A,5333.2681,N,00958.5322,E,1.54,274.63,170912,,,A*6B
$GPGGA,161256.000,5333.2683,N,00958.5313,E,1,07,1.3,21.6,M,46.0,M,,0000*60
$GPGSA,A,3,03,14,22,06,19,18,11,,,,,,2.1,1.3,1.7*34
$GPRMC,161256.000,A,5333.2683,N,00958.5313,E,1.67,288.47,170912,,,A*6D
$GPGGA,161257.000,5333.2682,N,00958.5305,E,1,08,1.1,21.7,M,46.0,M,,0000*6B
$GPGSA,A,3,16,03,14,22,06,19,18,11,,,,,1.8,1.1,1.4*38
$GPRMC,161257.000,A,5333.2682,N,00958.5305,E,1.55,267.68,170912,,,A*67
$GPGGA,161258.000,5333.2681,N,00958.5297,E,1,09,1.0,21.7,M,46.0,M,,0000*6D
$GPGSA,A,3,16,03,14,22,01,06,19,18,11,,,,1.6,1.0,1.3*31
$GPGSV,3,1,12,19,75,267,36,22,62,099,38,03,61,169,34,06,49,150,45*78
$GPGSV,3,2,12,11,33,272,32,18,31,055,34,01,18,263,29,14,15,123,39*7E
$GPGSV,3,3,12,16,11,191,33,08,08,305,35,28,07,334,,15,05,019,*74
$GPRMC,161258.000,A,5333.2681,N,00958.5297,E,1.46,260.35,170912,,,A*6C
$GPGGA,161259.000,5333.2681,N,00958.5290,E,1,08,1.1,21.7,M,46.0,M,,0000*6B
$GPGSA,A,3,16,14,22,01,06,19,18,11,,,,,1.8,1.1,1.4*3A
$GPRMC,161259.000,A,5333.2681,N,00958.5290,E,1.28,264.62,170912,,,A*64
$GPGGA,161300.000,5333.2680,N,00958.5283,E,1,09,1.0,21.7,M,46.0,M,,0000*65
$GPGSA,A,3,16,14,22,01,06,19,18,11,03,,,,1.6,1.0,1.3*31
$GPRMC,161300.000,A,5333.2680,N,00958.5283,E,1.39,265.24,170912,,,A*69
$GPGGA,161301.000,5333.2680,N,00958.5276,E,1,09,1.0,21.7,M,46.0,M,,0000*6E
$GPGSA,A,3,16,14,22,01,06,19,18,11,03,,,,1.6,1.0,1.3*31
$GPRMC,161301.000,A,5333.2680,N,00958.5276,E,1.28,259.71,170912,,,A*6D
$GPGGA,161302.000,5333.2680,N,00958.5271,E,1,09,1.0,21.8,M,46.0,M,,0000*65
$GPGSA,A,3,16,14,22,01,06,19,18,11,03,,,,1.6,1.0,1.3*31
$GPRMC,161302.000,A,5333.2680,N,00958.5271,E,0.91,260.98,170912,,,A*67
$GPGGA,161303.000,5333.2680,N,00958.5266,E,1,09,1.0,21.9,M,46.0,M,,0000*63
$GPGSA,A,3,16,14,22,01,06,19,18,11,03,,,,1.6,1.0,1.3*31
$GPGSV,3,1,12,19,75,267,33,22,62,099,29,03,61,169,29,06,49,150,40*74
$GPGSV,3,2,12,11,33,272,34,18,31,055,37,01,18,263,28,14,15,123,39*7A
$GPGSV,3,3,12,16,11,191,30,08,08,305,27,28,07,334,31,15,05,019,*76
$GPRMC,161303.000,A,5333.2680,N,00958.5266,E,1.10,270.09,170912,,,A*61
$GPGGA,161304.000,5333.2680,N,00958.5260,E,1,09,1.0,22.0,M,46.0,M,,0000*68
$GPGSA,A,3,16,14,22,01,06,19,18,11,03,,,,1.6,1.0,1.3*31
$GPRMC,161304.000,A,5333.2680,N,00958.5260,E,1.21,266.60,170912,,,A*6A
$GPGGA,161305.000,5333.2680,N,00958.5255,E,1,09,1.0,22.1,M,46.0,M,,0000*6E
$GPGSA,A,3,16,14,22,01,06,19,18,11,03,,,,1.6,1.0,1.3*31
$GPRMC,161305.000,A,5333.2680,N,00958.5255,E,1.17,259.02,170912,,,A*60
$GPGGA,161306.000,5333.2680,N,00958.5249,E,1,09,1.0,22.1,M,46.0,M,,0000*60
$GPGSA,A,3,16,14,22,01,06,19,18,11,03,,,,1.6,1.0,1.3*31
$GPRMC,161306.000,A,5333.2680,N,00958.5249,E,1.16,263.51,170912,,,A*60
$GPGGA,161307.000,5333.2679,N,00958.5243,E,1,08,1.1,22.1,M,46.0,M,,0000*6D
$GPGSA,A,3,16,22,01,06,19,18,11,03,,,,,1.9,1.1,1.5*3C
$GPRMC,161307.000,A,5333.2679,N,00958.5243,E,1.35,247.12,170912,,,A*6D
$GPGGA,161308.000,5333.2678,N,00958.5237,E,1,09,1.0,22.0,M,46.0,M,,0000*61
$GPGSA,A,3,16,14,22,01,06,03,19,18,11,,,,1.6,1.0,1.3*31
$GPGSV,3,1,12,19,75,267,33,22,62,099,33,03,61,169,35,06,49,150,34*71
$GPGSV,3,2,12,11,33,272,35,18,31,055,37,01,18,263,29,14,15,123,35*76
$GPGSV,3,3,12,16,11,191,32,08,08,305,37,28,07,334,28,15,05,019,*7D
$GPRMC,161308.000,A,5333.2678,N,00958.5237,E,1.27,245.61,170912,,,A*65
$GPGGA,161309.000,5333.2677,N,00958.5232,E,1,09,1.0,22.0,M,46.0,M,,0000*6A
$GPGSA,A,3,16,14,22,01,06,03,19,18,11,,,,1.6,1.0,1.3*31
$GPRMC,161309.000,A,5333.2677,N,00958.5232,E,1.24,236.01,170912,,,A*6F
$GPGGA,161310.000,5333.2675,N,00958.5227,E,1,09,1.0,21.8,M,46.0,M,,0000*6F
$GPGSA,A,3,16,14,22,01,06,03,19,18,11,,,,1.6,1.0,1.3*31
$GPRMC,161310.000,A,5333.2675,N,00958.5227,E,1.25,227.00,170912,,,A*61
$GPGGA,161311.000,5333.2673,N,00958.5222,E,1,09,1.0,21.7,M,46.0,M,,0000*62
$GPGSA,A,3,16,14,22,01,06,03,19,18,11,,,,1.6,1.0,1.3*31
$GPRMC,161311.000,A,5333.2673,N,00958.5222,E,1.12,227.44,170912,,,A*67
$GPGGA,161312.000,5333.2671,N,00958.5218,E,1,09,1.0,21.7,M,46.0,M,,0000*6A
$GPGSA,A,3,16,14,22,01,06,03,19,18,11,,,,1.6,1.0,1.3*31
$GPRMC,161312.000,A,5333.2671,N,00958.5218,E,1.37,212.35,170912,,,A*68
$GPGGA,161313.000,5333.2669,N,00958.5212,E,1,09,1.0,21.7,M,46.0,M,,0000*68
$GPGSA,A,3,16,14,22,01,06,03,19,18,11,,,,1.6,1.0,1.3*31
$GPGSV,3,1,12,19,75,267,29,22,62,099,32,03,61,169,38,06,49,150,34*76
$GPGSV,3,2,12,11,33,272,35,18,31,055,34,01,18,263,38,14,15,123,29*78
$GPGSV,3,3,12,16,11,191,32,08,08,305,,28,07,334,28,15,05,019,*79
$GPRMC,161313.000,A,5333.2669,N,00958.5212,E,1.27,238.49,170912,,,A*68
$GPGGA,161314.000,5333.2668,N,00958.5205,E,1,09,1.0,21.7,M,46.0,M,,0000*68
$GPGSA,A,3,16,14,22,01,06,03,19,18,11,,,,1.6,1.0,1.3*31
$GPRMC,161314.000,A,5333.2668,N,00958.5205,E,1.30,247.37,170912,,,A*6F
$GPGGA,161315.000,5333.2665,N,00958.5198,E,1,09,1.0,21.7,M,46.0,M,,0000*63
$GPGSA,A,3,16,14,22,01,06,03,19,18,11,,,,1.6,1.0,1.3*31
$GPRMC,161315.000,A,5333.2665,N,00958.5198,E,1.59,234.66,170912,,,A*6B
$GPGGA,161316.000,5333.2662,N,00958.5191,E,1,09,1.0,21.7,M,46.0,M,,0000*6E
$GPGSA,A,3,16,14,22,01,06,03,19,18,11,,,,1.6,1.0,1.3*31
$GPRMC,161316.000,A,5333.2662,N,00958.5191,E,1.71,232.12,170912,,,A*69
$GPGGA,161317.000,5333.2659,N,00958.5184,E,1,09,1.0,21.5,M,46.0,M,,0000*61
$GPGSA,A,3,16,14,22,01,06,03,19,18,11,,,,1.6,1.0,1.3*31
$GPRMC,161317.000,A,5333.2659,N,00958.5184,E,1.68,230.09,170912,,,A*64
$GPGGA,161318.000,5333.2657,N,00958.5176,E,1,09,1.0,21.5,M,46.0,M,,0000*6D
$GPGSA,A,3,16,14,22,01,06,03,19,18,11,,,,1.6,1.0,1.3*31
$GPGSV,3,1,12,19,75,267,30,22,62,099,40,03,61,169,39,06,49,150,41*78
$GPGSV,3,2,12,11,33,272,36,18,31,055,34,01,18,263,39,14,15,123,30*72
$GPGSV,3,3,12,16,11,191,32,08,08,305,41,28,07,334,27,15,05,019,*73
$GPRMC,161318.000,A,5333.2657,N,00958.5176,E,1.59,236.56,170912,,,A*66
$GPGGA,161319.000,5333.2655,N,00958.5170,E,1,09,1.0,21.3,M,46.0,M,,0000*6E
$GPGSA,A,3,16,14,22,01,06,03,19,18,11,,,,1.6,1.0,1.3*31
$GPRMC,161319.000,A,5333.2655,N,00958.5170,E,1.25,234.00,170912,,,A*69
$GPGGA,161320.000,5333.2651,N,00958.5165,E,1,09,1.0,21.2,M,46.0,M,,0000*65
$GPGSA,A,3,16,14,22,01,06,03,19,18,11,,,,1.6,1.0,1.3*31
$GPRMC,161320.000,A,5333.2651,N,00958.5165,E,1.43,219.28,170912,,,A*66
$GPGGA,161321.000,5333.2648,N,00958.5159,E,1,09,1.0,21.1,M,46.0,M,,0000*60
$GPGSA,A,3,16,14,22,01,06,03,19,18,11,,,,1.6,1.0,1.3*31
$GPRMC,161321.000,A,5333.2648,N,00958.5159,E,1.40,219.22,170912,,,A*69
$GPGGA,161322.000,5333.2645,N,00958.5154,E,1,09,1.0,21.0,M,46.0,M,,0000*62
$GPGSA,A,3,16,14,22,01,06,03,19,18,11,,,,1.6,1.0,1.3*31
$GPRMC,161322.000,A,5333.2645,N,00958.5154,E,1.26,220.96,170912,,,A*6F
$GPGGA,161323.000,5333.2643,N,00958.5150,E,1,09,1.0,20.9,M,46.0,M,,0000*69
$GPGSA,A,3,16,14,22,01,06,03,19,18,11,,,,1.6,1.0,1.3*31
$GPGSV,3,1,12,19,75,267,34,22,62,099,32,03,61,169,40,06,49,150,42*74
$GPGSV,3,2,12,11,33,272,40,18,31,055,30,01,18,263,40,14,15,123,37*7E
$GPGSV,3,3,12,16,11,191,35,08,08,305,35,28,07,334,26,15,05,019,*76
$GPRMC,161323.000,A,5333.2643,N,00958.5150,E,1.01,228.55,170912,,,A*6E
$GPGGA,161324.000,5333.2640,N,00958.5145,E,1,09,1.0,20.8,M,46.0,M,,0000*68
$GPGSA,A,3,16,14,22,01,06,03,19,18,11,,,,1.6,1.0,1.3*31
$GPRMC,161324.000,A,5333.2640,N,00958.5145,E,1.23,215.10,170912,,,A*61
$GPGGA,161325.000,5333.2637,N,00958.5141,E,1,09,1.0,20.7,M,46.0,M,,0000*62
$GPGSA,A,3,16,14,22,01,06,03,19,18,11,,,,1.6,1.0,1.3*31
$GPRMC,161325.000,A,5333.2637,N,00958.5141,E,1.07,208.58,170912,,,A*62
$GPGGA,161326.000,5333.2634,N,00958.5138,E,1,09,1.0,20.5,M,46.0,M,,0000*6E
$GPGSA,A,3,16,14,22,01,06,03,19,18,11,,,,1.6,1.0,1.3*31
$GPRMC,161326.000,A,5333.2634,N,00958.5138,E,1.33,196.21,170912,,,A*61
$GPGGA,161327.000,5333.2630,N,00958.5136,E,1,09,1.0,20.4,M,46.0,M,,0000*64
$GPGSA,A,3,16,14,22,01,06,03,19,18,11,,,,1.6,1.0,1.3*31
$GPRMC,161327.000,A,5333.2630,N,00958.5136,E,1.19,191.61,170912,,,A*61
$GPGGA,161328.000,5333.2628,N,00958.5133,E,1,09,1.0,20.2,M,46.0,M,,0000*61
$GPGSA,A,3,16,14,22,01,06,03,19,18,11,,,,1.6,1.0,1.3*31
$GPGSV,3,1,12,19,75,267,31,22,62,099,36,03,61,169,35,06,49,150,42*77
$GPGSV,3,2,12,11,33,272,41,18,31,055,29,01,18,263,40,14,15,123,35*75
$GPGSV,3,3,12,16,11,191,35,08,08,305,27,28,07,334,33,15,05,019,*71
$GPRMC,161340.000,A,5333.2618,N,00958.5117,E,0.83,216.11,170912,,,A*60
$GPGGA,161341.000,5333.2615,N,00958.5114,E,1,09,1.0,20.5,M,46.0,M,,0000*62
$GPGSA,A,3,16,14,22,01,06,03,19,18,11,,,,1.6,1.0,1.3*31
$GPRMC,161341.000,A,5333.2615,N,00958.5114,E,1.02,205.89,170912,,,A*64
$GPGGA,161342.000,5333.2612,N,00958.5112,E,1,09,1.0,20.5,M,46.0,M,,0000*60
$GPGSA,A,3,16,14,22,01,06,03,19,18,11,,,,1.6,1.0,1.3*31
$GPRMC,161342.000,A,5333.2612,N,00958.5112,E,0.83,193.03,170912,,,A*60
$GPGGA,161343.000,5333.2609,N,00958.5111,E,1,09,1.0,20.5,M,46.0,M,,0000*68
$GPGSA,A,3,16,14,22,01,06,03,19,18,11,,,,1.6,1.0,1.3*31
$GPGSV,3,1,12,19,75,267,29,22,62,099,38,03,61,169,37,06,49,150,38*7F
$GPGSV,3,2,12,11,33,272,42,18,31,055,26,01,18,263,27,14,15,123,35*78
$GPGSV,3,3,12,16,11,191,33,08,08,305,33,28,07,334,35,15,05,019,*74
$GPRMC,161343.000,A,5333.2609,N,00958.5111,E,0.84,169.03,170912,,,A*6A
$GPGGA,161344.000,5333.2607,N,00958.5111,E,1,09,1.0,20.5,M,46.0,M,,0000*61
$GPGSA,A,3,16,14,22,01,06,03,19,18,11,,,,1.6,1.0,1.3*31
$GPRMC,161346.000,A,5333.2601,N,00958.5111,E,1.07,163.04,170912,,,A*60
$GPGGA,161347.000,5333.2597,N,00958.5110,E,1,09,1.0,20.7,M,46.0,M,,0000*6B
$GPGSA,A,3,16,14,22,01,06,03,19,18,11,,,,1.6,1.0,1.3*31
$GPRMC,161347.000,A,5333.2597,N,00958.5110,E,1.19,176.20,170912,,,A*61
$GPGGA,161348.000,5333.2594,N,00958.5109,E,1,09,1.0,20.8,M,46.0,M,,0000*60
$GPGSA,A,3,16,14,22,01,06,03,19,18,11,,,,1.6,1.0,1.3*31
$GPGSV,3,1,12,19,75,267,29,22,62,099,39,03,61,169,35,06,49,150,36*72
$GPGSV,3,2,12,11,33,272,36,18,31,055,36,01,18,263,35,14,15,123,33*7F
$GPGSV,3,3,12,16,11,191,33,08,08,305,34,28,07,334,24,15,05,019,*73
$GPRMC,161348.000,A,5333.2594,N,00958.5109,E,0.85,177.45,170912,,,A*63
$GPGGA,161349.000,5333.2592,N,00958.5109,E,1,09,1.0,20.8,M,46.0,M,,0000*67
$GPGSA,A,3,16,14,22,01,06,03,19,18,11,,,,1.6,1.0,1.3*31
$GPRMC,161403.000,A,5333.2595,N,00958.5131,E,1.11,174.23,170912,,,A*6E
$GPGGA,161404.000,5333.2592,N,00958.5134,E,1,09,1.0,14.4,M,46.0,M,,0000*6C
$GPGSA,A,3,16,14,22,01,06,03,19,18,11,,,,1.6,1.0,1.3*31
$GPRMC,161404.000,A,5333.2592,N,00958.5134,E,1.43,162.18,170912,,,A*63
$GPGGA,161405.000,5333.2590,N,00958.5138,E,1,09,1.0,14.1,M,46.0,M,,0000*66
$GPGSA,A,3,16,14,22,01,06,03,19,18,11,,,,1.6,1.0,1.3*31
$GPRMC,161405.000,A,5333.2590,N,00958.5138,E,1.22,158.74,170912,,,A*68
$GPGGA,161406.000,5333.2587,N,00958.5139,E,1,09,1.0,13.8,M,46.0,M,,0000*6C
$GPGSA,A,3,16,14,22,01,06,03,19,18,11,,,,1.6,1.0,1.3*31
$GPRMC,161406.000,A,5333.2587,N,00958.5139,E,1.10,176.94,170912,,,A*6F
$GPGGA,161407.000,5333.2585,N,00958.5139,E,1,09,1.0,13.6,M,46.0,M,,0000*61
$GPGSA,A,3,16,14,22,01,06,03,19,18,11,,,,1.6,1.0,1.3*31
$GPRMC,161407.000,A,5333.2585,N,00958.5139,E,1.19,186.66,170912,,,A*67
$GPGGA,161408.000,5333.2581,N,00958.5139,E,1,09,1.0,13.5,M,46.0,M,,0000*69
$GPGSA,A,3,16,14,22,01,06,03,19,18,11,,,,1.6,1.0,1.3*31
$GPGSV,3,1,12,19,75,267,32,22,62,099,40,03,61,169,34,06,49,150,35*74
$GPGSV,3,2,12,11,33,272,36,18,31,055,39,01,18,263,31,14,15,123,36*71
$GPGSV,3,3,12,16,11,191,29,08,08,305,21,28,07,334,28,15,05,019,*70
$GPRMC,161408.000,A,5333.2581,N,00958.5139,E,1.58,188.46,170912,,,A*65
$GPGGA,161409.000,5333.2577,N,00958.5138,E,1,09,1.0,13.3,M,46.0,M,,0000*66
$GPGSA,A,3,16,14,22,01,06,03,19,18,11,,,,1.6,1.0,1.3*31
$GPRMC,161409.000,A,5333.2577,N,00958.5138,E,1.62,187.38,170912,,,A*63
$GPGGA,161410.000,5333.2573,N,00958.5138,E,1,09,1.0,13.3,M,46.0,M,,0000*6A
$GPGSA,A,3,16,14,22,01,06,03,19,18,11,,,,1.6,1.0,1.3*31
$GPRMC,161410.000,A,5333.2573,N,00958.5138,E,1.66,188.11,170912,,,A*6F
$GPGGA,161411.000,5333.2569,N,00958.5137,E,1,09,1.0,13.3,M,46.0,M,,0000*6F
$GPGSA,A,3,16,14,22,01,06,03,19,18,11,,,,1.6,1.0,1.3*31
$GPRMC,161411.000,A,5333.2569,N,00958.5137,E,1.75,191.83,170912,,,A*6B
$GPGGA,161412.000,5333.2564,N,00958.5138,E,1,09,1.0,13.3,M,46.0,M,,0000*6E
$GPGSA,A,3,16,14,22,01,06,03,19,18,11,,,,1.6,1.0,1.3*31
$GPRMC,161412.000,A,5333.2564,N,00958.5138,E,1.98,179.13,170912,,,A*66
$GPGGA,161413.000,5333.2558,N,00958.5137,E,1,09,1.0,13.3,M,46.0,M,,0000*6F
$GPGSA,A,3,16,14,22,01,06,03,19,18,11,,,,1.6,1.0,1.3*31
$GPGSV,3,1,12,19,76,265,29,22,62,097,40,03,60,169,34,06,49,150,36*73
$GPGSV,3,2,12,11,34,272,32,18,30,055,42,01,18,263,31,14,16,122,35*7E
$GPGSV,3,3,12,16,11,191,28,08,08,305,21,28,07,333,27,15,04,019,*78
$GPRMC,161413.000,A,5333.2558,N,00958.5137,E,1.90,187.64,170912,,,A*6E
$GPGGA,161414.000,5333.2553,N,00958.5136,E,1,08,1.1,13.2,M,46.0,M,,0000*63
$GPGSA,A,3,16,14,22,01,06,03,19,18,,,,,1.7,1.1,1.3*31
$GPRMC,161414.000,A,5333.2553,N,00958.5136,E,1.90,192.82,170912,,,A*6F
$GPGGA,161415.000,5333.2548,N,00958.5134,E,1,09,1.0,13.2,M,46.0,M,,0000*6A
$GPGSA,A,3,16,14,11,22,01,06,03,19,18,,,,1.6,1.0,1.3*31
$GPRMC,161415.000,A,5333.2548,N,00958.5134,E,2.03,195.64,170912,,,A*60
$GPGGA,161416.000,5333.2543,N,00958.5130,E,1,09,1.0,13.2,M,46.0,M,,0000*66
$GPGSA,A,3,16,14,11,22,01,06,03,19,18,,,,1.6,1.0,1.3*31
$GPRMC,161416.000,A,5333.2543,N,00958.5130,E,2.10,201.68,170912,,,A*6C
$GPGGA,161417.000,5333.2537,N,00958.5126,E,1,09,1.0,13.1,M,46.0,M,,0000*60
$GPGSA,A,3,16,14,11,22,01,06,03,19,18,,,,1.6,1.0,1.3*31
$GPRMC,161417.000,A,5333.2537,N,00958.5126,E,2.22,207.36,170912,,,A*65
$GPGGA,161418.000,5333.2533,N,00958.5118,E,1,09,1.0,13.1,M,46.0,M,,0000*66
$GPGSA,A,3,16,14,11,22,01,06,03,19,18,,,,1.6,1.0,1.3*31
$GPGSV,3,1,12,19,76,265,34,22,62,097,40,03,60,169,40,06,48,150,43*7F
$GPGSV,3,2,12,11,34,272,39,18,30,055,31,01,18,263,32,14,16,122,41*71
$GPGSV,3,3,12,16,11,191,26,08,08,305,21,28,08,333,24,15,04,019,*7A
$GPRMC,161418.000,A,5333.2533,N,00958.5118,E,2.28,228.20,170912,,,A*63
$GPGGA,161419.000,5333.2530,N,00958.5108,E,1,09,1.0,13.2,M,46.0,M,,0000*66
$GPGSA,A,3,16,14,11,22,01,06,03,19,18,,,,1.6,1.0,1.3*31
$GPRMC,161419.000,A,5333.2530,N,00958.5108,E,2.38,239.71,170912,,,A*65
$GPGGA,161420.000,5333.2528,N,00958.5099,E,1,09,1.0,13.3,M,46.0,M,,0000*6D
$GPGSA,A,3,16,14,11,22,01,06,03,19,18,,,,1.6,1.0,1.3*31
$GPRMC,161420.000,A,5333.2528,N,00958.5099,E,2.10,251.93,170912,,,A*67
$GPGGA,161421.000,5333.2526,N,00958.5089,E,1,09,1.0,13.4,M,46.0,M,,0000*64
$GPGSA,A,3,16,14,11,22,01,06,03,19,18,,,,1.6,1.0,1.3*31
$GPRMC,161421.000,A,5333.2526,N,00958.5089,E,1.98,259.57,170912,,,A*6A
$GPGGA,161422.000,5333.2526,N,00958.5080,E,1,09,1.0,13.6,M,46.0,M,,0000*6C
$GPGSA,A,3,16,14,11,22,01,06,03,19,18,,,,1.6,1.0,1.3*31
$GPRMC,161422.000,A,5333.2526,N,00958.5080,E,1.82,276.84,170912,,,A*68
