$GPRMC,074509.000,A,5333.2440,N,01000.7788,E,2.31,202.47,180912,,,A*64
$GPGGA,074510.000,5333.2392,N,01000.7714,E,1,04,7.7,74.4,M,46.0,M,,0000*62
$GPGSA,A,3,02,27,09,12,,,,,,,,,7.8,7.7,1.0*31
$GPRMC,074510.000,A,5333.2392,N,01000.7714,E,3.08,210.36,180912,,,A*6F
$GPGGA,074511.000,5333.2349,N,01000.7647,E,1,04,7.7,70.1,M,46.0,M,,0000*63
$GPGSA,A,3,02,27,09,12,,,,,,,,,7.8,7.7,1.0*31
$GPGSV,3,1,10,12,82,270,22,09,48,134,30,27,40,134,23,02,15,120,21*76
$GPGSV,3,2,10,14,41,290,16,25,40,258,18,04,22,079,21,17,12,041,19*71
$GPGSV,3,3,10,29,08,201,18,32,05,347,14*70
$GPRMC,074511.000,A,5333.2349,N,01000.7647,E,3.64,220.26,180912,,,A*67
$GPGGA,074512.000,5333.2301,N,01000.7577,E,1,04,7.7,65.5,M,46.0,M,,0000*6C
$GPGSA,A,3,02,27,09,12,,,,,,,,,7.7,7.7,1.0*3E
$GPRMC,074512.000,A,5333.2301,N,01000.7577,E,3.53,209.24,180912,,,A*65
$GPGGA,074513.000,5333.2256,N,01000.7518,E,1,04,7.7,61.9,M,46.0,M,,0000*6F
$GPGSA,A,3,02,27,09,12,,,,,,,,,7.7,7.7,1.0*3E
$GPRMC,074513.000,A,5333.2256,N,01000.7518,E,4.02,201.94,180912,,,A*6E
$GPGGA,074514.000,5333.2212,N,01000.7464,E,1,04,7.7,58.7,M,46.0,M,,0000*66
$GPGSA,A,3,02,27,09,12,,,,,,,,,7.7,7.7,1.0*3E
$GPRMC,074514.000,A,5333.2212,N,01000.7464,E,4.05,202.64,180912,,,A*68
$GPGGA,074515.000,5333.2165,N,01000.7406,E,1,04,7.7,55.5,M,46.0,M,,0000*6F
$GPGSA,A,3,02,27,09,12,,,,,,,,,7.7,7.7,1.0*3E
$GPRMC,074515.000,A,5333.2165,N,01000.7406,E,4.20,206.29,180912,,,A*64
$GPGGA,074516.000,5333.2117,N,01000.7347,E,1,04,7.6,52.3,M,46.0,M,,0000*6B
$GPGSA,A,3,02,27,09,12,,,,,,,,,7.7,7.6,1.0*3F
$GPGSV,3,1,10,12,82,270,26,09,48,134,27,27,40,134,22,02,15,120,30*75
$GPGSV,3,2,10,14,41,290,23,25,40,258,18,04,22,079,20,17,12,041,19*76
$GPGSV,3,3,10,29,08,201,,32,05,347,15*78
$GPRMC,074516.000,A,5333.2117,N,01000.7347,E,4.92,206.34,180912,,,A*65
$GPGGA,074517.000,5333.2070,N,01000.7289,E,1,04,7.6,49.4,M,46.0,M,,0000*64
$GPGSA,A,3,02,27,09,12,,,,,,,,,7.7,7.6,1.0*3F
$GPRMC,074517.000,A,5333.2070,N,01000.7289,E,4.74,208.77,180912,,,A*66
$GPGGA,074518.000,5333.2026,N,01000.7237,E,1,04,7.6,46.7,M,46.0,M,,0000*61
$GPGSA,A,3,02,27,09,12,,,,,,,,,7.7,7.6,1.0*3F
$GPRMC,074518.000,A,5333.2026,N,01000.7237,E,4.11,209.42,180912,,,A*6B
$GPGGA,074519.000,5333.1984,N,01000.7189,E,1,04,7.6,44.4,M,46.0,M,,0000*65
$GPGSA,A,3,02,27,09,12,,,,,,,,,7.7,7.6,1.0*3F
$GPRMC,074519.000,A,5333.1984,N,01000.7189,E,4.28,208.34,180912,,,A*64
$GPGGA,074520.000,5333.1940,N,01000.7147,E,1,04,7.6,42.7,M,46.0,M,,0000*60
$GPGSA,A,3,02,27,09,12,,,,,,,,,7.7,7.6,1.0*3F
$GPRMC,074520.000,A,5333.1940,N,01000.7147,E,5.79,205.50,180912,,,A*6E
$GPGGA,074521.000,5333.1893,N,01000.7107,E,1,04,7.6,41.3,M,46.0,M,,0000*6D
$GPGSA,A,3,02,27,09,12,,,,,,,,,7.7,7.6,1.0*3F
$GPGSV,3,1,10,12,82,270,25,09,48,134,27,27,40,134,23,02,15,120,31*76
$GPGSV,3,2,10,14,41,290,24,25,40,258,20,04,22,079,21,17,12,041,20*71
$GPGSV,3,3,10,29,08,201,,32,05,347,21*7F
$GPRMC,074521.000,A,5333.1893,N,01000.7107,E,6.75,205.05,180912,,,A*6B
$GPGGA,074522.000,5333.1849,N,01000.7071,E,1,04,7.6,40.2,M,46.0,M,,0000*69
$GPGSA,A,3,02,27,09,12,,,,,,,,,7.7,7.6,1.0*3F
$GPRMC,074522.000,A,5333.1849,N,01000.7071,E,6.54,205.29,180912,,,A*62
$GPGGA,074523.000,5333.1807,N,01000.7038,E,1,04,7.6,39.2,M,46.0,M,,0000*61
$GPGSA,A,3,02,27,09,12,,,,,,,,,7.7,7.6,1.0*3F
$GPRMC,074523.000,A,5333.1807,N,01000.7038,E,6.38,205.59,180912,,,A*69
$GPGGA,074524.000,5333.1769,N,01000.7009,E,1,04,7.6,38.6,M,46.0,M,,0000*66
$GPGSA,A,3,02,27,09,12,,,,,,,,,7.7,7.6,1.0*3F
$GPRMC,074524.000,A,5333.1769,N,01000.7009,E,6.07,205.96,180912,,,A*64
$GPGGA,074525.000,5333.1730,N,01000.6982,E,1,04,7.6,38.0,M,46.0,M,,0000*66
$GPGSA,A,3,02,27,09,12,,,,,,,,,7.6,7.6,1.0*3E
$GPRMC,074525.000,A,5333.1730,N,01000.6982,E,6.14,205.90,180912,,,A*66
$GPGGA,074526.000,5333.1694,N,01000.6954,E,1,04,7.6,37.4,M,46.0,M,,0000*6A
$GPGSA,A,3,02,27,09,12,,,,,,,,,7.6,7.6,1.0*3E
$GPGSV,3,1,10,12,82,270,25,09,48,134,24,27,40,134,25,02,15,120,32*70
$GPGSV,3,2,10,14,41,290,24,25,40,258,20,04,22,079,22,17,12,041,21*73
$GPGSV,3,3,10,29,08,201,,32,05,347,20*7E
$GPRMC,074526.000,A,5333.1694,N,01000.6954,E,5.63,207.05,180912,,,A*6C
$GPGGA,074527.000,5333.1660,N,01000.6928,E,1,04,7.6,36.6,M,46.0,M,,0000*68
$GPGSA,A,3,02,27,09,12,,,,,,,,,7.6,7.6,1.0*3E
$GPRMC,074527.000,A,5333.1660,N,01000.6928,E,5.03,207.51,180912,,,A*6A
$GPGGA,074528.000,5333.1629,N,01000.6901,E,1,04,7.6,35.8,M,46.0,M,,0000*6C
$GPGSA,A,3,02,27,09,12,,,,,,,,,7.6,7.6,1.0*3E
$GPRMC,074528.000,A,5333.1629,N,01000.6901,E,4.35,208.59,180912,,,A*60
$GPGGA,074529.000,5333.1598,N,01000.6875,E,1,04,7.6,34.9,M,46.0,M,,0000*66
$GPGSA,A,3,02,27,09,12,,,,,,,,,7.6,7.6,1.0*3E
$GPRMC,074529.000,A,5333.1598,N,01000.6875,E,4.09,208.83,180912,,,A*62
$GPGGA,074530.000,5333.1569,N,01000.6849,E,1,04,7.5,33.9,M,46.0,M,,0000*6B
$GPGSA,A,3,02,27,09,12,,,,,,,,,7.6,7.5,1.0*3D
$GPRMC,074530.000,A,5333.1569,N,01000.6849,E,3.70,209.06,180912,,,A*6E
$GPGGA,074531.000,5333.1544,N,01000.6825,E,1,04,7.5,33.0,M,46.0,M,,0000*66
$GPGSA,A,3,02,27,09,12,,,,,,,,,7.6,7.5,1.0*3D
$GPGSV,3,1,10,12,82,270,25,09,48,134,25,27,40,134,25,02,15,120,31*72
$GPGSV,3,2,10,14,41,290,23,25,40,258,21,04,22,079,23,17,12,041,22*77
$GPGSV,3,3,10,29,08,201,,32,05,347,19*74
$GPRMC,074531.000,A,5333.1544,N,01000.6825,E,2.81,213.41,180912,,,A*6D
$GPGGA,074532.000,5333.1522,N,01000.6803,E,1,04,7.5,32.0,M,46.0,M,,0000*60
$GPGSA,A,3,02,27,09,12,,,,,,,,,7.6,7.5,1.0*3D
$GPRMC,074532.000,A,5333.1522,N,01000.6803,E,2.24,213.29,180912,,,A*6B
$GPGGA,074533.000,5333.1502,N,01000.6782,E,1,04,7.5,31.0,M,46.0,M,,0000*66
$GPGSA,A,3,02,27,09,12,,,,,,,,,7.6,7.5,1.0*3D
$GPRMC,074533.000,A,5333.1502,N,01000.6782,E,1.66,216.58,180912,,,A*68
$GPGGA,074534.000,5333.1484,N,01000.6763,E,1,04,7.5,30.0,M,46.0,M,,0000*60
$GPGSA,A,3,02,27,09,12,,,,,,,,,7.6,7.5,1.0*3D
$GPRMC,074534.000,A,5333.1484,N,01000.6763,E,1.46,215.34,180912,,,A*64
$GPGGA,074535.000,5333.1468,N,01000.6747,E,1,04,7.5,29.3,M,46.0,M,,0000*6E
$GPGSA,A,3,02,27,09,12,,,,,,,,,7.6,7.5,1.0*3D
$GPRMC,074535.000,A,5333.1468,N,01000.6747,E,1.29,214.51,180912,,,A*6A
$GPGGA,074536.000,5333.1454,N,01000.6732,E,1,04,7.5,28.5,M,46.0,M,,0000*67
$GPGSA,A,3,02,27,09,12,,,,,,,,,7.6,7.5,1.0*3D
$GPGSV,3,1,10,12,82,270,25,09,48,134,25,27,40,134,25,02,15,120,31*72
$GPGSV,3,2,10,14,41,290,23,25,40,258,21,04,22,079,24,17,12,041,23*71
$GPGSV,3,3,10,29,08,201,,32,05,347,19*74
$GPRMC,074536.000,A,5333.1454,N,01000.6732,E,0.93,218.61,180912,,,A*6B
$GPGGA,074537.000,5333.1443,N,01000.6720,E,1,04,7.5,27.7,M,46.0,M,,0000*6E
$GPGSA,A,3,02,27,09,12,,,,,,,,,7.6,7.5,1.0*3D
$GPRMC,074542.000,A,5333.1399,N,01000.6664,E,0.87,221.96,180912,,,A*6B
$GPGGA,074543.000,5333.1392,N,01000.6652,E,1,04,7.4,23.1,M,46.0,M,,0000*61
$GPGSA,A,3,02,27,09,12,,,,,,,,,7.5,7.4,1.0*3F
$GPRMC,074546.000,A,5333.1378,N,01000.6617,E,0.98,1.12,180912,,,A*66
$GPGGA,074547.000,5333.1378,N,01000.6610,E,1,04,7.4,19.2,M,46.0,M,,0000*6D
$GPGSA,A,3,02,27,09,12,,,,,,,,,7.5,7.4,1.0*3F
$GPRMC,074547.000,A,5333.1378,N,01000.6610,E,1.35,12.05,180912,,,A*52
$GPGGA,074548.000,5333.1383,N,01000.6607,E,1,04,7.4,18.4,M,46.0,M,,0000*67
$GPGSA,A,3,02,27,09,12,,,,,,,,,7.5,7.4,1.0*3F
$GPRMC,074548.000,A,5333.1383,N,01000.6607,E,2.08,16.81,180912,,,A*5A
$GPGGA,074549.000,5333.1390,N,01000.6606,E,1,04,7.4,17.7,M,46.0,M,,0000*69
$GPGSA,A,3,02,27,09,12,,,,,,,,,7.5,7.4,1.0*3F
$GPRMC,074549.000,A,5333.1390,N,01000.6606,E,2.26,17.65,180912,,,A*5F
$GPGGA,074550.000,5333.1397,N,01000.6607,E,1,04,7.4,17.0,M,46.0,M,,0000*60
$GPGSA,A,3,02,27,09,12,,,,,,,,,7.5,7.4,1.0*3F
$GPRMC,074550.000,A,5333.1397,N,01000.6607,E,2.04,19.05,180912,,,A*59
$GPGGA,074551.000,5333.1405,N,01000.6608,E,1,04,7.4,16.4,M,46.0,M,,0000*67
$GPGSA,A,3,02,27,09,12,,,,,,,,,7.5,7.4,1.0*3F
$GPGSV,3,1,10,12,82,271,26,09,48,134,27,14,41,290,21,25,41,259,19*79
$GPGSV,3,2,10,27,40,134,30,04,22,079,25,02,15,120,31,17,12,041,25*70
$GPGSV,3,3,10,29,09,201,,32,05,347,19*75
$GPRMC,074551.000,A,5333.1405,N,01000.6608,E,1.68,17.11,180912,,,A*59
$GPGGA,074552.000,5333.1412,N,01000.6609,E,0,00,,15.8,M,46.0,M,,0000*44
$GPGSA,A,1,,,,,,,,,,,,,,,*1E
$GPRMC,074554.000,A,5333.1425,N,01000.6612,E,1.40,22.87,180912,,,A*56
$GPGGA,074555.000,5333.1431,N,01000.6615,E,1,04,7.4,14.7,M,46.0,M,,0000*69
$GPGSA,A,3,02,27,09,12,,,,,,,,,7.4,7.4,1.0*3E
$GPRMC,074556.000,A,5333.1433,N,01000.6617,E,0.92,221.90,180912,,,A*6F
$GPGGA,074557.000,5333.1431,N,01000.6618,E,1,04,7.3,15.2,M,46.0,M,,0000*65
$GPGSA,A,3,02,27,09,12,,,,,,,,,7.4,7.3,1.0*39
$GPRMC,074557.000,A,5333.1431,N,01000.6618,E,2.56,208.94,180912,,,A*66
$GPGGA,074558.000,5333.1432,N,01000.6620,E,1,04,7.3,15.7,M,46.0,M,,0000*67
$GPGSA,A,3,02,27,09,12,,,,,,,,,7.4,7.3,1.0*39
$GPRMC,074558.000,A,5333.1432,N,01000.6620,E,2.18,218.77,180912,,,A*67
$GPGGA,074559.000,5333.1442,N,01000.6627,E,1,04,7.3,16.3,M,46.0,M,,0000*61
$GPGSA,A,3,02,27,09,12,,,,,,,,,7.4,7.3,1.0*39
$GPRMC,074559.000,A,5333.1442,N,01000.6627,E,0.99,291.63,180912,,,A*69
$GPGGA,074600.000,5333.1454,N,01000.6636,E,1,04,7.3,16.8,M,46.0,M,,0000*62
$GPGSA,A,3,02,27,09,12,,,,,,,,,7.4,7.3,1.0*39
$GPRMC,074600.000,A,5333.1454,N,01000.6636,E,0.93,338.64,180912,,,A*6E
$GPGGA,074601.000,5333.1465,N,01000.6647,E,1,04,7.3,17.5,M,46.0,M,,0000*6B
$GPGSA,A,3,02,27,09,12,,,,,,,,,7.4,7.3,1.0*39
$GPGSV,3,1,10,12,82,271,18,09,48,134,22,14,41,290,,25,41,259,17*7C
$GPGSV,3,2,10,27,40,134,21,04,22,079,14,02,15,120,29,17,12,041,14*79
$GPGSV,3,3,10,29,09,201,,32,05,347,20*7F
$GPRMC,074601.000,A,5333.1465,N,01000.6647,E,0.95,357.78,180912,,,A*69
$GPGGA,074602.000,5333.1477,N,01000.6656,E,1,04,7.3,18.2,M,46.0,M,,0000*63
$GPGSA,A,3,02,27,09,12,,,,,,,,,7.4,7.3,1.0*39
$GPRMC,074602.000,A,5333.1477,N,01000.6656,E,1.28,334.83,180912,,,A*6F
$GPGGA,074603.000,5333.1491,N,01000.6664,E,0,03,,19.0,M,46.0,M,,0000*44
$GPGSA,A,1,02,27,09,,,,,,,,,,,,*10
$GPRMC,074604.000,A,5333.1505,N,01000.6673,E,1.57,338.40,180912,,,A*61
$GPGGA,074605.000,5333.1518,N,01000.6682,E,1,03,9.6,20.2,M,46.0,M,,0000*62
$GPGSA,A,2,02,09,12,,,,,,,,,,9.6,9.6,1.0*3A
$GPRMC,074605.000,A,5333.1518,N,01000.6682,E,1.51,353.63,180912,,,A*68
$GPGGA,074606.000,5333.1529,N,01000.6693,E,1,03,9.5,20.7,M,46.0,M,,0000*65
$GPGSA,A,2,02,09,12,,,,,,,,,,9.6,9.5,1.0*39
$GPGSV,3,1,10,12,82,271,19,09,48,134,28,14,41,290,,25,41,259,18*78
$GPGSV,3,2,10,27,40,134,10,04,22,079,14,02,15,120,30,17,12,041,23*77
$GPGSV,3,3,10,29,09,201,,32,05,347,21*7E
$GPRMC,074606.000,A,5333.1529,N,01000.6693,E,0.83,21.45,180912,,,A*55
$GPGGA,074607.000,5333.1539,N,01000.6704,E,1,03,9.5,21.1,M,46.0,M,,0000*6D
$GPGSA,A,2,02,09,12,,,,,,,,,,9.6,9.5,1.0*39
$GPRMC,074607.000,A,5333.1539,N,01000.6704,E,0.82,34.30,180912,,,A*5D
$GPGGA,074608.000,5333.1547,N,01000.6713,E,1,03,9.5,21.5,M,46.0,M,,0000*69
$GPGSA,A,2,02,09,12,,,,,,,,,,9.6,9.5,1.0*39
$GPRMC,074609.000,A,5333.1558,N,01000.6721,E,1.22,355.63,180912,,,A*6A
$GPGGA,074610.000,5333.1568,N,01000.6731,E,1,04,7.3,22.3,M,46.0,M,,0000*67
$GPGSA,A,3,02,27,09,12,,,,,,,,,7.3,7.3,1.0*3E
$GPRMC,074610.000,A,5333.1568,N,01000.6731,E,1.37,15.83,180912,,,A*5D
$GPGGA,074611.000,5333.1586,N,01000.6748,E,1,04,7.3,23.0,M,46.0,M,,0000*6A
$GPGSA,A,3,02,27,09,12,,,,,,,,,7.3,7.3,1.0*3E
$GPGSV,3,1,10,12,82,271,20,09,48,134,28,14,41,290,,25,41,259,17*7D
$GPGSV,3,2,10,27,40,134,23,04,22,079,16,02,15,120,20,17,12,041,16*72
$GPGSV,3,3,10,29,09,201,,32,05,347,15*79
$GPRMC,074611.000,A,5333.1586,N,01000.6748,E,2.27,19.53,180912,,,A*51
$GPGGA,074612.000,5333.1605,N,01000.6767,E,1,04,7.2,23.9,M,46.0,M,,0000*64
$GPGSA,A,3,02,27,09,12,,,,,,,,,7.3,7.2,1.0*3F
$GPRMC,074612.000,A,5333.1605,N,01000.6767,E,2.23,17.83,180912,,,A*50
$GPGGA,074613.000,5333.1620,N,01000.6785,E,1,04,7.2,24.8,M,46.0,M,,0000*68
$GPGSA,A,3,02,27,09,12,,,,,,,,,7.3,7.2,1.0*3F
$GPRMC,074613.000,A,5333.1620,N,01000.6785,E,1.63,20.70,180912,,,A*55
$GPGGA,074614.000,5333.1630,N,01000.6799,E,1,04,7.2,25.6,M,46.0,M,,0000*6C
$GPGSA,A,3,02,27,09,12,,,,,,,,,7.3,7.2,1.0*3F
$GPRMC,074615.000,A,5333.1633,N,01000.6810,E,1.24,178.37,180912,,,A*6E
$GPGGA,074616.000,5333.1634,N,01000.6820,E,0,03,,27.1,M,46.0,M,,0000*4F
$GPGSA,A,1,02,27,09,,,,,,,,,,,,*10
$GPGSV,3,1,10,12,82,271,10,09,48,134,30,14,41,290,22,25,41,259,17*77
$GPGSV,3,2,10,27,40,134,23,04,22,079,22,02,15,120,29,17,12,041,16*7C
$GPGSV,3,3,10,29,09,201,20,32,05,347,16*78
$GPRMC,074621.000,A,5333.1636,N,01000.6890,E,3.55,174.39,180912,,,A*62
$GPGGA,074622.000,5333.1632,N,01000.6902,E,1,04,7.2,32.7,M,46.0,M,,0000*60
$GPGSA,A,3,02,27,09,12,,,,,,,,,7.2,7.2,1.0*3E
$GPRMC,074622.000,A,5333.1632,N,01000.6902,E,3.82,177.36,180912,,,A*69
$GPGGA,074623.000,5333.1625,N,01000.6906,E,1,04,7.2,33.3,M,46.0,M,,0000*66
$GPGSA,A,3,02,27,09,12,,,,,,,,,7.2,7.2,1.0*3E
$GPRMC,074623.000,A,5333.1625,N,01000.6906,E,3.89,187.19,180912,,,A*63
$GPGGA,074624.000,5333.1617,N,01000.6909,E,1,04,7.2,33.9,M,46.0,M,,0000*65
$GPGSA,A,3,02,27,09,12,,,,,,,,,7.2,7.2,1.0*3E
$GPRMC,074624.000,A,5333.1617,N,01000.6909,E,3.87,187.75,180912,,,A*6E
$GPGGA,074625.000,5333.1610,N,01000.6908,E,1,04,7.2,34.3,M,46.0,M,,0000*6F
$GPGSA,A,3,02,27,09,12,,,,,,,,,7.2,7.2,1.0*3E
$GPRMC,074625.000,A,5333.1610,N,01000.6908,E,3.23,194.84,180912,,,A*6B
$GPGGA,074626.000,5333.1603,N,01000.6909,E,1,04,7.1,34.7,M,46.0,M,,0000*68
$GPGSA,A,3,02,27,09,12,,,,,,,,,7.2,7.1,1.0*3D
$GPGSV,3,1,10,12,82,271,20,09,48,134,33,14,41,290,21,25,41,259,18*7B
$GPGSV,3,2,10,27,40,134,23,04,22,079,21,02,15,120,25,17,12,041,14*71
$GPGSV,3,3,10,29,09,201,21,32,05,347,16*79
$GPRMC,074626.000,A,5333.1603,N,01000.6909,E,3.04,192.54,180912,,,A*65
$GPGGA,074627.000,5333.1597,N,01000.6906,E,1,04,7.1,34.8,M,46.0,M,,0000*67
$GPGSA,A,3,02,27,09,12,,,,,,,,,7.2,7.1,1.0*3D
$GPRMC,074627.000,A,5333.1597,N,01000.6906,E,2.47,199.17,180912,,,A*6F
$GPGGA,074628.000,5333.1596,N,01000.6907,E,1,04,7.1,35.1,M,46.0,M,,0000*60
$GPGSA,A,3,02,27,09,12,,,,,,,,,7.2,7.1,1.0*3D
$GPRMC,074628.000,A,5333.1596,N,01000.6907,E,1.63,185.71,180912,,,A*68
$GPGGA,074629.000,5333.1596,N,01000.6906,E,1,03,9.3,35.2,M,46.0,M,,0000*68
$GPGSA,A,2,02,09,12,,,,,,,,,,9.4,9.3,1.0*3D
$GPRMC,074629.000,A,5333.1596,N,01000.6906,E,1.10,216.65,180912,,,A*60
$GPGGA,074630.000,5333.1601,N,01000.6903,E,1,04,7.1,35.6,M,46.0,M,,0000*67
$GPGSA,A,3,02,27,09,12,,,,,,,,,7.2,7.1,1.0*3D
$GPRMC,074630.000,A,5333.1601,N,01000.6903,E,1.60,273.27,180912,,,A*62
$GPGGA,074631.000,5333.1604,N,01000.6894,E,1,04,7.1,35.9,M,46.0,M,,0000*63
$GPGSA,A,3,02,27,09,12,,,,,,,,,7.2,7.1,1.0*3D
$GPGSV,3,1,10,12,82,271,19,09,48,134,28,14,41,290,22,25,41,259,18*78
$GPGSV,3,2,10,27,40,134,13,04,22,079,21,02,15,120,18,17,12,041,15*7D
$GPGSV,3,3,10,29,09,201,21,32,05,347,16*79
$GPRMC,074631.000,A,5333.1604,N,01000.6894,E,2.80,264.78,180912,,,A*68
$GPGGA,074632.000,5333.1608,N,01000.6885,E,0,03,,36.2,M,46.0,M,,0000*4A
$GPGSA,A,1,27,09,12,,,,,,,,,,,,*11
$GPRMC,074639.000,A,5333.1639,N,01000.6924,E,2.16,17.52,180912,,,A*55
$GPGGA,074640.000,5333.1656,N,01000.6940,E,1,04,7.1,39.3,M,46.0,M,,0000*6C
$GPGSA,A,3,02,27,09,12,,,,,,,,,7.1,7.1,1.0*3E
$GPRMC,074640.000,A,5333.1656,N,01000.6940,E,2.63,17.48,180912,,,A*59
$GPGGA,074641.000,5333.1675,N,01000.6957,E,1,04,7.1,39.6,M,46.0,M,,0000*6F
$GPGSA,A,3,02,27,09,12,,,,,,,,,7.1,7.1,1.0*3E
$GPGSV,3,1,10,12,82,271,20,09,48,134,29,14,41,290,21,25,41,259,18*70
$GPGSV,3,2,10,27,40,134,27,04,22,079,18,02,15,120,27,17,12,041,15*7C
$GPGSV,3,3,10,29,09,201,20,32,05,347,*7F
$GPRMC,074641.000,A,5333.1675,N,01000.6957,E,2.85,20.54,180912,,,A*5E
$GPGGA,074642.000,5333.1700,N,01000.6980,E,1,04,7.0,39.9,M,46.0,M,,0000*6B
$GPGSA,A,3,02,27,09,12,,,,,,,,,7.1,7.0,1.0*3F
$GPRMC,074642.000,A,5333.1700,N,01000.6980,E,3.95,22.27,180912,,,A*52
$GPGGA,074643.000,5333.1726,N,01000.7003,E,1,04,7.0,40.3,M,46.0,M,,0000*69
$GPGSA,A,3,02,27,09,12,,,,,,,,,7.1,7.0,1.0*3F
$GPRMC,074643.000,A,5333.1726,N,01000.7003,E,4.01,14.53,180912,,,A*58
$GPGGA,074644.000,5333.1755,N,01000.7025,E,1,04,7.0,40.8,M,46.0,M,,0000*65
$GPGSA,A,3,02,27,09,12,,,,,,,,,7.1,7.0,1.0*3F
$GPRMC,074644.000,A,5333.1755,N,01000.7025,E,4.37,7.06,180912,,,A*68
$GPGGA,074645.000,5333.1785,N,01000.7048,E,1,04,7.0,41.3,M,46.0,M,,0000*68
$GPGSA,A,3,02,27,09,12,,,,,,,,,7.1,7.0,1.0*3F
$GPRMC,074645.000,A,5333.1785,N,01000.7048,E,4.62,10.28,180912,,,A*55
$GPGGA,074646.000,5333.1810,N,01000.7072,E,1,04,7.0,41.9,M,46.0,M,,0000*6B
$GPGSA,A,3,02,27,09,12,,,,,,,,,7.1,7.0,1.0*3F
$GPGSV,3,1,10,12,82,271,19,09,48,134,29,14,41,290,21,25,41,259,17*75
$GPGSV,3,2,10,27,40,134,26,04,22,079,20,02,15,120,21,17,12,041,15*70
$GPGSV,3,3,10,29,09,201,20,32,05,347,*7F
$GPRMC,074646.000,A,5333.1810,N,01000.7072,E,3.21,15.33,180912,,,A*53
$GPGGA,074647.000,5333.1836,N,01000.7100,E,1,04,7.0,42.6,M,46.0,M,,0000*66
$GPGSA,A,3,02,27,09,12,,,,,,,,,7.1,7.0,1.0*3F
$GPRMC,074647.000,A,5333.1836,N,01000.7100,E,3.18,22.58,180912,,,A*51
$GPGGA,074648.000,5333.1860,N,01000.7128,E,1,04,7.0,43.2,M,46.0,M,,0000*65
$GPGSA,A,3,02,27,09,12,,,,,,,,,7.1,7.0,1.0*3F
$GPRMC,074648.000,A,5333.1860,N,01000.7128,E,2.74,27.27,180912,,,A*51
$GPGGA,074649.000,5333.1884,N,01000.7155,E,1,04,7.0,43.9,M,46.0,M,,0000*6F
$GPGSA,A,3,02,27,09,12,,,,,,,,,7.1,7.0,1.0*3F
$GPRMC,074649.000,A,5333.1884,N,01000.7155,E,2.39,30.08,180912,,,A*52
$GPGGA,074650.000,5333.1905,N,01000.7175,E,1,04,7.0,44.6,M,46.0,M,,0000*65
$GPGSA,A,3,02,27,09,12,,,,,,,,,7.1,7.0,1.0*3F
$GPRMC,074650.000,A,5333.1905,N,01000.7175,E,1.72,358.50,180912,,,A*6C
$GPGGA,074651.000,5333.1929,N,01000.7194,E,1,04,7.0,45.3,M,46.0,M,,0000*61
$GPGSA,A,3,02,27,09,12,,,,,,,,,7.1,7.0,1.0*3F
$GPGSV,3,1,10,12,82,271,16,09,48,134,29,14,41,290,21,25,41,259,18*75
$GPGSV,3,2,10,27,40,134,27,04,22,079,21,02,15,120,21,17,12,041,14*71
$GPGSV,3,3,10,29,09,201,21,32,05,347,*7E
$GPRMC,074651.000,A,5333.1929,N,01000.7194,E,2.86,358.95,180912,,,A*6D
$GPGGA,074652.000,5333.1955,N,01000.7211,E,0,03,,46.0,M,46.0,M,,0000*48
$GPGSA,A,1,02,27,09,,,,,,,,,,,,*10
$GPRMC,074653.000,A,5333.1982,N,01000.7227,E,4.17,345.86,180912,,,A*65
$GPGGA,074654.000,5333.2008,N,01000.7243,E,1,04,7.0,47.8,M,46.0,M,,0000*6D
$GPGSA,A,3,02,27,09,12,,,,,,,,,7.0,7.0,1.0*3E
$GPRMC,074654.000,A,5333.2008,N,01000.7243,E,4.32,348.99,180912,,,A*6C
$GPGGA,074655.000,5333.2029,N,01000.7253,E,1,03,9.1,48.7,M,46.0,M,,0000*66
$GPGSA,A,2,02,09,12,,,,,,,,,,9.1,9.1,1.0*3A
$GPRMC,074655.000,A,5333.2029,N,01000.7253,E,3.48,333.65,180912,,,A*6A
$GPGGA,074656.000,5333.2048,N,01000.7258,E,0,03,,49.5,M,46.0,M,,0000*4D
$GPGSA,A,1,02,27,09,,,,,,,,,,,,*10
$GPGSV,3,1,10,12,82,271,14,09,48,134,29,14,41,290,20,25,41,259,19*77
$GPGSV,3,2,10,27,40,134,18,04,22,079,22,02,15,120,21,17,12,041,13*79
$GPGSV,3,3,10,29,09,201,20,32,05,347,*7F
$GPRMC,074657.000,A,5333.2057,N,01000.7253,E,4.05,283.32,180912,,,A*67
$GPGGA,074658.000,5333.2062,N,01000.7252,E,1,03,9.0,50.7,M,46.0,M,,0000*6D
$GPGSA,A,2,02,09,12,,,,,,,,,,9.1,9.0,1.0*3B
$GPRMC,074658.000,A,5333.2062,N,01000.7252,E,2.83,267.03,180912,,,A*6F
$GPGGA,074659.000,5333.2066,N,01000.7252,E,1,04,6.9,51.1,M,46.0,M,,0000*6E
$GPGSA,A,3,02,27,09,12,,,,,,,,,7.0,6.9,1.0*36
$GPRMC,074659.000,A,5333.2066,N,01000.7252,E,2.67,259.89,180912,,,A*6F
$GPGGA,074700.000,5333.2066,N,01000.7259,E,1,04,6.9,51.5,M,46.0,M,,0000*6C
$GPGSA,A,3,02,27,09,12,,,,,,,,,7.0,6.9,1.0*36
$GPRMC,074700.000,A,5333.2066,N,01000.7259,E,2.15,218.22,180912,,,A*68
$GPGGA,074701.000,5333.2062,N,01000.7268,E,1,03,9.0,52.0,M,46.0,M,,0000*6C
$GPGSA,A,2,02,09,12,,,,,,,,,,9.1,9.0,1.0*3B
$GPGSV,3,1,10,12,82,271,20,09,48,134,23,14,41,290,20,25,41,259,19*7A
$GPGSV,3,2,10,27,40,134,16,04,22,079,22,02,15,120,21,17,12,041,12*76
$GPGSV,3,3,10,29,09,201,21,32,05,347,*7E
$GPRMC,074701.000,A,5333.2062,N,01000.7268,E,3.18,199.00,180912,,,A*69
$GPGGA,074702.000,5333.2063,N,01000.7279,E,1,03,9.0,52.4,M,46.0,M,,0000*6A
$GPGSA,A,2,02,09,12,,,,,,,,,,9.0,9.0,1.0*3A
$GPRMC,074702.000,A,5333.2063,N,01000.7279,E,1.95,205.53,180912,,,A*6C
$GPGGA,074703.000,5333.2062,N,01000.7291,E,1,04,6.9,52.8,M,46.0,M,,0000*61
$GPGSA,A,3,02,27,09,12,,,,,,,,,7.0,6.9,1.0*36
$GPRMC,074703.000,A,5333.2062,N,01000.7291,E,1.57,192.18,180912,,,A*66
$GPGGA,074704.000,5333.2059,N,01000.7300,E,1,04,6.9,53.1,M,46.0,M,,0000*6F
$GPGSA,A,3,02,27,09,12,,,,,,,,,7.0,6.9,1.0*36
$GPRMC,074704.000,A,5333.2059,N,01000.7300,E,1.85,191.57,180912,,,A*67
$GPGGA,074705.000,5333.2053,N,01000.7307,E,1,04,6.9,53.4,M,46.0,M,,0000*66
$GPGSA,A,3,02,27,09,12,,,,,,,,,7.0,6.9,1.0*36
$GPRMC,074705.000,A,5333.2053,N,01000.7307,E,1.78,190.17,180912,,,A*6C
$GPGGA,074706.000,5333.2047,N,01000.7312,E,1,04,6.9,53.7,M,46.0,M,,0000*67
$GPGSA,A,3,02,27,09,12,,,,,,,,,7.0,6.9,1.0*36
$GPGSV,3,1,10,12,82,271,20,09,48,134,24,14,41,290,19,25,41,259,18*76
$GPGSV,3,2,10,27,40,134,15,04,22,079,22,02,15,120,21,17,12,041,13*74
$GPGSV,3,3,10,29,09,201,22,32,05,347,*7D
$GPRMC,074706.000,A,5333.2047,N,01000.7312,E,1.84,204.04,180912,,,A*61
$GPGGA,074707.000,5333.2039,N,01000.7309,E,1,04,6.9,53.9,M,46.0,M,,0000*6B
$GPGSA,A,3,02,27,09,12,,,,,,,,,7.0,6.9,1.0*36
$GPRMC,074707.000,A,5333.2039,N,01000.7309,E,2.85,219.98,180912,,,A*68
$GPGGA,074708.000,5333.2025,N,01000.7298,E,1,04,6.9,54.1,M,46.0,M,,0000*6F
$GPGSA,A,3,02,27,09,12,,,,,,,,,7.0,6.9,1.0*36
$GPRMC,074708.000,A,5333.2025,N,01000.7298,E,4.64,222.25,180912,,,A*64
$GPGGA,074709.000,5333.2006,N,01000.7282,E,1,03,8.9,54.3,M,46.0,M,,0000*6F
$GPGSA,A,2,02,09,12,,,,,,,,,,9.0,8.9,1.0*32
$GPRMC,074709.000,A,5333.2006,N,01000.7282,E,5.57,219.20,180912,,,A*63
$GPGGA,074710.000,5333.1986,N,01000.7262,E,1,03,8.9,54.5,M,46.0,M,,0000*6D
$GPGSA,A,2,02,09,12,,,,,,,,,,9.0,8.9,1.0*32
$GPRMC,074710.000,A,5333.1986,N,01000.7262,E,6.01,224.28,180912,,,A*61
$GPGGA,074711.000,5333.1967,N,01000.7242,E,0,00,,54.6,M,46.0,M,,0000*4F
$GPGSA,A,1,,,,,,,,,,,,,,,*1E
$GPGSV,3,1,10,12,82,271,19,09,48,134,24,14,41,290,19,25,41,259,19*7D
$GPGSV,3,2,10,27,40,134,16,04,22,079,22,02,15,120,18,17,12,041,15*7B
$GPGSV,3,3,10,29,09,201,22,32,05,347,*7D
$GPRMC,074712.000,A,5333.1944,N,01000.7221,E,6.68,217.70,180912,,,A*68
$GPGGA,074713.000,5333.1929,N,01000.7220,E,1,04,6.9,54.6,M,46.0,M,,0000*67
$GPGSA,A,3,02,27,09,12,,,,,,,,,6.9,6.9,1.0*3E
$GPRMC,074713.000,A,5333.1929,N,01000.7220,E,3.57,195.26,180912,,,A*60
$GPGGA,074714.000,5333.1923,N,01000.7232,E,1,04,6.8,54.5,M,46.0,M,,0000*6B
$GPGSA,A,3,02,27,09,12,,,,,,,,,6.9,6.8,1.0*3F
$GPRMC,074714.000,A,5333.1923,N,01000.7232,E,1.57,129.68,180912,,,A*61
$GPGGA,074715.000,5333.1921,N,01000.7246,E,1,04,6.8,54.4,M,46.0,M,,0000*6A
$GPGSA,A,3,02,27,09,12,,,,,,,,,6.9,6.8,1.0*3F
$GPRMC,074715.000,A,5333.1921,N,01000.7246,E,1.19,101.64,180912,,,A*6D
$GPGGA,074716.000,5333.1923,N,01000.7261,E,1,04,6.8,54.4,M,46.0,M,,0000*6E
$GPGSA,A,3,02,27,09,12,,,,,,,,,6.9,6.8,1.0*3F
$GPGSV,3,1,10,12,82,271,20,09,48,134,29,14,41,290,18,25,41,259,21*70
$GPGSV,3,2,10,27,40,134,25,04,22,079,28,02,15,120,17,17,12,041,16*7D
$GPGSV,3,3,10,29,09,201,22,32,05,347,*7D
$GPRMC,074716.000,A,5333.1923,N,01000.7261,E,1.09,56.08,180912,,,A*51
$GPGGA,074717.000,5333.1923,N,01000.7277,E,1,04,6.8,54.4,M,46.0,M,,0000*68
$GPGSA,A,3,02,27,09,12,,,,,,,,,6.9,6.8,1.0*3F
$GPRMC,074717.000,A,5333.1923,N,01000.7277,E,0.91,77.68,180912,,,A*52
$GPGGA,074718.000,5333.1928,N,01000.7297,E,1,04,6.8,54.5,M,46.0,M,,0000*63
$GPGSA,A,3,02,27,09,12,,,,,,,,,6.9,6.8,1.0*3F
$GPRMC,074718.000,A,5333.1928,N,01000.7297,E,1.69,46.86,180912,,,A*5C
$GPGGA,074719.000,5333.1937,N,01000.7323,E,1,04,6.8,54.7,M,46.0,M,,0000*60
$GPGSA,A,3,02,27,09,12,,,,,,,,,6.9,6.8,1.0*3F
$GPRMC,074719.000,A,5333.1937,N,01000.7323,E,2.96,36.73,180912,,,A*53
$GPGGA,074720.000,5333.1948,N,01000.7354,E,1,04,6.8,54.9,M,46.0,M,,0000*6C
$GPGSA,A,3,02,27,09,12,,,,,,,,,6.9,6.8,1.0*3F
$GPRMC,074720.000,A,5333.1948,N,01000.7354,E,4.10,40.94,180912,,,A*51
$GPGGA,074721.000,5333.1955,N,01000.7388,E,1,04,6.8,55.2,M,46.0,M,,0000*6A
$GPGSA,A,3,02,27,09,12,,,,,,,,,6.9,6.8,1.0*3F
$GPGSV,3,1,10,12,82,271,22,09,48,134,28,14,41,290,18,25,41,259,22*70
$GPGSV,3,2,10,27,40,134,26,04,22,079,28,02,15,120,17,17,12,041,18*70
$GPGSV,3,3,10,29,09,201,22,32,05,347,*7D
$GPRMC,074721.000,A,5333.1955,N,01000.7388,E,4.32,50.90,180912,,,A*58
$GPGGA,074722.000,5333.1960,N,01000.7419,E,0,03,,55.5,M,46.0,M,,0000*41
$GPGSA,A,1,27,09,12,,,,,,,,,,,,*11
$GPRMC,074723.000,A,5333.1964,N,01000.7445,E,3.46,47.69,180912,,,A*5A
$GPGGA,074724.000,5333.1965,N,01000.7465,E,1,04,6.8,56.7,M,46.0,M,,0000*6E
$GPGSA,A,3,02,27,09,12,,,,,,,,,6.9,6.8,1.0*3F
$GPRMC,074724.000,A,5333.1965,N,01000.7465,E,2.21,47.16,180912,,,A*56
$GPGGA,074725.000,5333.1964,N,01000.7482,E,0,03,,57.4,M,46.0,M,,0000*43
$GPGSA,A,1,27,09,12,,,,,,,,,,,,*11
$GPRMC,074727.000,A,5333.1945,N,01000.7498,E,1.47,185.97,180912,,,A*60
$GPGGA,074728.000,5333.1925,N,01000.7497,E,1,04,6.8,59.5,M,46.0,M,,0000*66
$GPGSA,A,3,02,27,09,12,,,,,,,,,6.8,6.8,1.0*3E
$GPRMC,074728.000,A,5333.1925,N,01000.7497,E,3.30,197.61,180912,,,A*6E
$GPGGA,074729.000,5333.1904,N,01000.7490,E,1,04,6.8,60.3,M,46.0,M,,0000*6F
$GPGSA,A,3,02,27,09,12,,,,,,,,,6.8,6.8,1.0*3E
$GPRMC,074729.000,A,5333.1904,N,01000.7490,E,3.92,208.22,180912,,,A*61
$GPGGA,074730.000,5333.1887,N,01000.7480,E,1,04,6.8,61.1,M,46.0,M,,0000*6F
$GPGSA,A,3,02,27,09,12,,,,,,,,,6.8,6.8,1.0*3E
$GPRMC,074730.000,A,5333.1887,N,01000.7480,E,3.21,222.23,180912,,,A*63
$GPGGA,074731.000,5333.1872,N,01000.7470,E,1,04,6.7,61.9,M,46.0,M,,0000*6C
$GPGSA,A,3,02,27,09,12,,,,,,,,,6.8,6.7,1.0*31
$GPGSV,3,1,10,12,82,271,22,09,48,134,28,14,41,290,24,25,41,259,22*7F
$GPGSV,3,2,10,27,40,134,27,04,22,079,28,02,15,120,24,17,12,041,18*71
$GPGSV,3,3,10,29,09,201,22,32,05,347,14*78
$GPRMC,074731.000,A,5333.1872,N,01000.7470,E,2.71,228.18,180912,,,A*61
$GPGGA,074732.000,5333.1862,N,01000.7461,E,1,04,6.7,62.6,M,46.0,M,,0000*62
$GPGSA,A,3,02,27,09,12,,,,,,,,,6.8,6.7,1.0*31
$GPRMC,074732.000,A,5333.1862,N,01000.7461,E,1.93,256.32,180912,,,A*6D
$GPGGA,074733.000,5333.1860,N,01000.7452,E,1,04,6.7,63.4,M,46.0,M,,0000*62
$GPGSA,A,3,02,27,09,12,,,,,,,,,6.8,6.7,1.0*31
$GPRMC,074733.000,A,5333.1860,N,01000.7452,E,2.47,309.13,180912,,,A*6C
$GPGGA,074734.000,5333.1858,N,01000.7444,E,1,04,6.7,64.1,M,46.0,M,,0000*6B
$GPGSA,A,3,02,27,09,12,,,,,,,,,6.8,6.7,1.0*31
$GPRMC,074734.000,A,5333.1858,N,01000.7444,E,2.30,320.04,180912,,,A*6A
$GPGGA,074735.000,5333.1860,N,01000.7438,E,1,04,6.7,64.9,M,46.0,M,,0000*62
$GPGSA,A,3,02,27,09,12,,,,,,,,,6.8,6.7,1.0*31
$GPRMC,074735.000,A,5333.1860,N,01000.7438,E,2.55,335.06,180912,,,A*6E
$GPGGA,074736.000,5333.1862,N,01000.7433,E,1,04,6.7,65.6,M,46.0,M,,0000*66
$GPGSA,A,3,02,27,09,12,,,,,,,,,6.8,6.7,1.0*31
$GPGSV,3,1,10,12,83,274,18,09,47,135,28,14,42,289,25,25,42,259,22*75
$GPGSV,3,2,10,27,39,135,28,04,22,078,24,02,15,120,26,17,11,041,19*7C
$GPGSV,3,3,10,29,09,201,23,32,05,346,14*78
$GPRMC,074736.000,A,5333.1862,N,01000.7433,E,2.51,343.46,180912,,,A*65
$GPGGA,074737.000,5333.1862,N,01000.7431,E,0,03,,66.5,M,46.0,M,,0000*4C
$GPGSA,A,1,02,27,09,,,,,,,,,,,,*10
$GPRMC,074739.000,A,5333.1861,N,01000.7430,E,1.21,1.49,180912,,,A*64
$GPGGA,074740.000,5333.1863,N,01000.7429,E,1,04,6.7,69.2,M,46.0,M,,0000*65
$GPGSA,A,3,02,27,09,12,,,,,,,,,6.8,6.7,1.0*31
$GPRMC,074740.000,A,5333.1863,N,01000.7429,E,1.23,357.58,180912,,,A*62
$GPGGA,074741.000,5333.1862,N,01000.7429,E,1,04,6.7,70.0,M,46.0,M,,0000*6F
$GPGSA,A,3,02,27,09,12,,,,,,,,,6.8,6.7,1.0*31
$GPGSV,3,1,10,12,83,274,18,09,47,135,20,14,42,289,25,25,42,259,22*7D
$GPGSV,3,2,10,27,39,135,27,04,22,078,22,02,15,120,27,17,11,041,19*74
$GPGSV,3,3,10,29,09,201,23,32,05,346,13*7F
$GPRMC,074742.000,A,5333.1863,N,01000.7429,E,0.82,12.22,180912,,,A*55
$GPGGA,074743.000,5333.1862,N,01000.7427,E,1,04,6.7,71.6,M,46.0,M,,0000*64
$GPGSA,A,3,02,27,09,12,,,,,,,,,6.7,6.7,1.0*3E
$GPRMC,074746.000,A,5333.1862,N,01000.7424,E,1.12,57.40,180912,,,A*50
$GPGGA,074747.000,5333.1867,N,01000.7438,E,1,03,8.6,74.0,M,46.0,M,,0000*60
$GPGSA,A,2,02,09,12,,,,,,,,,,8.6,8.6,1.0*3A
$GPRMC,074747.000,A,5333.1867,N,01000.7438,E,3.32,66.64,180912,,,A*5D
$GPGGA,074748.000,5333.1872,N,01000.7453,E,0,00,,74.2,M,46.0,M,,0000*46
$GPGSA,A,1,,,,,,,,,,,,,,,*1E
$GPRMC,074749.000,A,5333.1885,N,01000.7462,E,4.16,29.55,180912,,,A*58
$GPGGA,074750.000,5333.1897,N,01000.7472,E,1,04,6.6,74.6,M,46.0,M,,0000*68
$GPGSA,A,3,02,27,09,12,,,,,,,,,6.7,6.6,1.0*3F
$GPRMC,074750.000,A,5333.1897,N,01000.7472,E,4.35,34.45,180912,,,A*5E
$GPGGA,074751.000,5333.1908,N,01000.7480,E,1,03,7.4,74.7,M,46.0,M,,0000*66
$GPGSA,A,2,02,27,12,,,,,,,,,,7.4,7.4,1.0*36
$GPGSV,3,1,10,12,83,274,21,09,47,135,17,14,42,289,26,25,42,259,22*70
$GPGSV,3,2,10,27,39,135,21,04,22,078,24,02,15,120,25,17,11,041,19*76
$GPGSV,3,3,10,29,09,201,23,32,05,346,13*7F
$GPRMC,074751.000,A,5333.1908,N,01000.7480,E,3.57,32.03,180912,,,A*52
$GPGGA,074752.000,5333.1916,N,01000.7482,E,1,03,7.4,74.9,M,46.0,M,,0000*66
$GPGSA,A,2,02,27,12,,,,,,,,,,7.4,7.4,1.0*36
$GPRMC,074752.000,A,5333.1916,N,01000.7482,E,2.36,25.66,180912,,,A*5F
$GPGGA,074753.000,5333.1923,N,01000.7476,E,1,03,7.4,75.1,M,46.0,M,,0000*63
$GPGSA,A,2,02,27,12,,,,,,,,,,7.4,7.4,1.0*36
$GPRMC,074753.000,A,5333.1923,N,01000.7476,E,1.83,347.78,180912,,,A*66
$GPGGA,074754.000,5333.1927,N,01000.7469,E,1,04,6.6,75.3,M,46.0,M,,0000*68
$GPGSA,A,3,02,27,09,12,,,,,,,,,6.7,6.6,1.0*3F
$GPRMC,074754.000,A,5333.1927,N,01000.7469,E,1.31,331.57,180912,,,A*6E
$GPGGA,074755.000,5333.1927,N,01000.7461,E,1,04,6.6,75.7,M,46.0,M,,0000*65
$GPGSA,A,3,02,27,09,12,,,,,,,,,6.7,6.6,1.0*3F
$GPRMC,074756.000,A,5333.1920,N,01000.7449,E,1.94,224.30,180912,,,A*62
$GPGGA,074757.000,5333.1910,N,01000.7439,E,1,04,6.6,76.8,M,46.0,M,,0000*62
$GPGSA,A,3,02,27,09,12,,,,,,,,,6.7,6.6,1.0*3F
$GPRMC,074757.000,A,5333.1910,N,01000.7439,E,2.43,201.27,180912,,,A*6F
$GPGGA,074758.000,5333.1897,N,01000.7431,E,1,04,6.6,77.5,M,46.0,M,,0000*67
$GPGSA,A,3,02,27,09,12,,,,,,,,,6.7,6.6,1.0*3F
$GPRMC,074758.000,A,5333.1897,N,01000.7431,E,3.17,197.30,180912,,,A*6C
$GPGGA,074759.000,5333.1887,N,01000.7424,E,0,03,,78.3,M,46.0,M,,0000*42
$GPGSA,A,1,02,27,09,,,,,,,,,,,,*10
$GPRMC,074801.000,A,5333.1866,N,01000.7405,E,3.72,221.68,180912,,,A*66
$GPGGA,074802.000,5333.1848,N,01000.7384,E,1,03,7.3,81.5,M,46.0,M,,0000*66
$GPGSA,A,2,02,27,12,,,,,,,,,,7.4,7.3,1.0*31
$GPRMC,074802.000,A,5333.1848,N,01000.7384,E,5.68,217.30,180912,,,A*62
$GPGGA,074803.000,5333.1824,N,01000.7358,E,1,03,7.3,82.3,M,46.0,M,,0000*69
$GPGSA,A,2,02,27,12,,,,,,,,,,7.4,7.3,1.0*31
$GPRMC,074803.000,A,5333.1824,N,01000.7358,E,7.32,214.76,180912,,,A*64
$GPGGA,074804.000,5333.1799,N,01000.7336,E,1,04,6.6,83.1,M,46.0,M,,0000*6F
$GPGSA,A,3,02,27,09,12,,,,,,,,,6.6,6.6,1.0*3E
$GPRMC,074804.000,A,5333.1799,N,01000.7336,E,7.32,207.85,180912,,,A*6C
$GPGGA,074805.000,5333.1775,N,01000.7315,E,0,00,,83.9,M,46.0,M,,0000*4E
$GPGSA,A,1,,,,,,,,,,,,,,,*1E
$GPRMC,074809.000,A,5333.1704,N,01000.7251,E,1.64,225.06,180912,,,A*6B
$GPGGA,074810.000,5333.1710,N,01000.7254,E,0,03,,87.0,M,46.0,M,,0000*43
$GPGSA,A,1,02,27,09,,,,,,,,,,,,*10
$GPRMC,074811.000,A,5333.1724,N,01000.7260,E,1.71,356.14,180912,,,A*60
$GPGGA,074812.000,5333.1742,N,01000.7270,E,1,04,6.5,87.7,M,46.0,M,,0000*6C
$GPGSA,A,3,02,27,09,12,,,,,,,,,6.6,6.5,1.0*3D
$GPRMC,074812.000,A,5333.1742,N,01000.7270,E,2.40,1.19,180912,,,A*6F
$GPGGA,074813.000,5333.1758,N,01000.7279,E,1,04,6.5,87.9,M,46.0,M,,0000*61
$GPGSA,A,3,02,27,09,12,,,,,,,,,6.6,6.5,1.0*3D
$GPRMC,074813.000,A,5333.1758,N,01000.7279,E,2.05,11.69,180912,,,A*5B
$GPGGA,074814.000,5333.1777,N,01000.7292,E,1,03,7.2,88.2,M,46.0,M,,0000*6B
$GPGSA,A,2,02,27,12,,,,,,,,,,7.3,7.2,1.0*37
$GPRMC,074814.000,A,5333.1777,N,01000.7292,E,2.89,12.69,180912,,,A*53
$GPGGA,074815.000,5333.1797,N,01000.7308,E,1,03,7.2,88.4,M,46.0,M,,0000*60
$GPGSA,A,2,02,27,12,,,,,,,,,,7.3,7.2,1.0*37
$GPRMC,074815.000,A,5333.1797,N,01000.7308,E,2.56,19.72,180912,,,A*5D
$GPGGA,074816.000,5333.1819,N,01000.7329,E,1,04,6.5,88.8,M,46.0,M,,0000*64
$GPGSA,A,3,02,27,09,12,,,,,,,,,6.6,6.5,1.0*3D
$GPGSV,3,1,10,12,83,274,23,09,47,135,18,14,42,289,23,25,42,259,21*7B
$GPGSV,3,2,10,27,39,135,25,04,22,078,24,02,15,120,21,17,11,041,22*7E
$GPGSV,3,3,10,29,09,201,19,32,05,346,20*76
$GPRMC,074816.000,A,5333.1819,N,01000.7329,E,3.30,31.34,180912,,,A*5D
$GPGGA,074817.000,5333.1838,N,01000.7350,E,1,03,7.2,89.1,M,46.0,M,,0000*61
$GPGSA,A,2,02,27,12,,,,,,,,,,7.3,7.2,1.0*37
$GPRMC,074817.000,A,5333.1838,N,01000.7350,E,2.95,33.36,180912,,,A*5F
$GPGGA,074818.000,5333.1854,N,01000.7370,E,1,03,7.2,89.3,M,46.0,M,,0000*64
$GPGSA,A,2,02,27,12,,,,,,,,,,7.3,7.2,1.0*37
$GPRMC,074818.000,A,5333.1854,N,01000.7370,E,2.25,47.54,180912,,,A*54
$GPGGA,074819.000,5333.1864,N,01000.7385,E,1,03,7.2,89.5,M,46.0,M,,0000*6A
$GPGSA,A,2,02,27,12,,,,,,,,,,7.3,7.2,1.0*37
$GPRMC,074819.000,A,5333.1864,N,01000.7385,E,1.04,77.88,180912,,,A*5E
$GPGGA,074820.000,5333.1873,N,01000.7396,E,1,04,6.5,89.5,M,46.0,M,,0000*65
$GPGSA,A,3,02,27,09,12,,,,,,,,,6.5,6.5,1.0*3E
$GPRMC,074821.000,A,5333.1880,N,01000.7406,E,0.83,206.66,180912,,,A*69
$GPGGA,074822.000,5333.1882,N,01000.7416,E,1,04,6.5,90.2,M,46.0,M,,0000*69
$GPGSA,A,3,02,27,09,12,,,,,,,,,6.5,6.5,1.0*3E
$GPRMC,074822.000,A,5333.1882,N,01000.7416,E,2.48,196.90,180912,,,A*6F
$GPGGA,074823.000,5333.1883,N,01000.7428,E,1,04,6.5,90.6,M,46.0,M,,0000*60
$GPGSA,A,3,02,27,09,12,,,,,,,,,6.5,6.5,1.0*3E
$GPRMC,074823.000,A,5333.1883,N,01000.7428,E,2.63,189.95,180912,,,A*60
$GPGGA,074824.000,5333.1881,N,01000.7441,E,1,04,6.5,91.2,M,46.0,M,,0000*6F
$GPGSA,A,3,02,27,09,12,,,,,,,,,6.5,6.5,1.0*3E
$GPRMC,074824.000,A,5333.1881,N,01000.7441,E,3.38,186.36,180912,,,A*63
$GPGGA,074825.000,5333.1876,N,01000.7453,E,1,04,6.4,91.7,M,46.0,M,,0000*61
$GPGSA,A,3,02,27,09,12,,,,,,,,,6.5,6.4,1.0*3F
$GPRMC,074825.000,A,5333.1876,N,01000.7453,E,3.65,183.92,180912,,,A*6A
$GPGGA,074826.000,5333.1871,N,01000.7464,E,1,04,6.4,92.1,M,46.0,M,,0000*64
$GPGSA,A,3,02,27,09,12,,,,,,,,,6.5,6.4,1.0*3F
$GPGSV,3,1,10,12,83,274,21,09,47,135,27,14,42,289,22,25,42,259,22*77
$GPGSV,3,2,10,27,39,135,25,04,22,078,19,02,15,120,28,17,11,041,22*79
$GPGSV,3,3,10,29,09,201,20,32,05,346,15*7A
$GPRMC,074826.000,A,5333.1871,N,01000.7464,E,3.72,185.76,180912,,,A*60
$GPGGA,074827.000,5333.1865,N,01000.7474,E,1,04,6.4,92.5,M,46.0,M,,0000*65
$GPGSA,A,3,02,27,09,12,,,,,,,,,6.5,6.4,1.0*3F
$GPRMC,074827.000,A,5333.1865,N,01000.7474,E,3.63,189.74,180912,,,A*6B
$GPGGA,074828.000,5333.1859,N,01000.7482,E,1,04,6.4,92.8,M,46.0,M,,0000*61
$GPGSA,A,3,02,27,09,12,,,,,,,,,6.5,6.4,1.0*3F
$GPRMC,074828.000,A,5333.1859,N,01000.7482,E,3.44,192.53,180912,,,A*68
$GPGGA,074829.000,5333.1856,N,01000.7489,E,1,04,6.4,93.1,M,46.0,M,,0000*6C
$GPGSA,A,3,02,27,09,12,,,,,,,,,6.5,6.4,1.0*3F
$GPRMC,074829.000,A,5333.1856,N,01000.7489,E,2.61,196.47,180912,,,A*6A
$GPGGA,074830.000,5333.1857,N,01000.7496,E,1,04,6.4,93.2,M,46.0,M,,0000*68
$GPGSA,A,3,02,27,09,12,,,,,,,,,6.5,6.4,1.0*3F
$GPRMC,074830.000,A,5333.1857,N,01000.7496,E,1.58,204.06,180912,,,A*69
$GPGGA,074831.000,5333.1862,N,01000.7502,E,1,04,6.4,93.3,M,46.0,M,,0000*62
$GPGSA,A,3,02,27,09,12,,,,,,,,,6.5,6.4,1.0*3F
$GPGSV,3,1,10,12,83,274,22,09,47,135,27,14,42,289,22,25,42,259,22*74
$GPGSV,3,2,10,27,39,135,26,04,22,078,21,02,15,120,28,17,11,041,19*79
$GPGSV,3,3,10,29,09,201,20,32,05,346,17*78
$GPRMC,074835.000,A,5333.1884,N,01000.7519,E,0.94,252.25,180912,,,A*67
$GPGGA,074836.000,5333.1884,N,01000.7517,E,1,04,6.4,92.4,M,46.0,M,,0000*6F
$GPGSA,A,3,02,27,09,12,,,,,,,,,6.5,6.4,1.0*3F
$GPGSV,3,1,10,12,83,274,22,09,47,135,27,14,42,289,20,25,42,259,22*76
$GPGSV,3,2,10,27,39,135,26,04,22,078,22,02,15,120,28,17,11,041,19*7A
$GPGSV,3,3,10,29,09,201,19,32,05,346,18*7D
$GPRMC,074836.000,A,5333.1884,N,01000.7517,E,1.06,220.33,180912,,,A*62
$GPGGA,074837.000,5333.1883,N,01000.7517,E,1,04,6.4,91.8,M,46.0,M,,0000*66
$GPGSA,A,3,02,27,09,12,,,,,,,,,6.5,6.4,1.0*3F
$GPRMC,074837.000,A,5333.1883,N,01000.7517,E,0.89,194.19,180912,,,A*66
$GPGGA,074838.000,5333.1883,N,01000.7514,E,1,04,6.4,91.3,M,46.0,M,,0000*61
$GPGSA,A,3,02,27,09,12,,,,,,,,,6.5,6.4,1.0*3F
$GPRMC,074838.000,A,5333.1883,N,01000.7514,E,0.97,215.64,180912,,,A*65
$GPGGA,074839.000,5333.1882,N,01000.7512,E,1,04,6.4,90.8,M,46.0,M,,0000*6D
$GPGSA,A,3,02,27,09,12,,,,,,,,,6.4,6.4,1.0*3E
$GPRMC,074839.000,A,5333.1882,N,01000.7512,E,1.20,206.71,180912,,,A*68
$GPGGA,074840.000,5333.1883,N,01000.7516,E,1,04,6.4,90.5,M,46.0,M,,0000*6B
$GPGSA,A,3,02,27,09,12,,,,,,,,,6.4,6.4,1.0*3E
$GPRMC,074840.000,A,5333.1883,N,01000.7516,E,0.87,171.09,180912,,,A*63
$GPGGA,074841.000,5333.1886,N,01000.7521,E,1,04,6.4,90.2,M,46.0,M,,0000*6C
$GPGSA,A,3,02,27,09,12,,,,,,,,,6.4,6.4,1.0*3E
$GPGSV,3,1,10,12,83,274,23,09,47,135,27,14,42,289,22,25,42,259,22*75
$GPGSV,3,2,10,27,39,135,26,04,22,078,22,02,15,120,24,17,11,041,21*7D
$GPGSV,3,3,10,29,09,201,21,32,05,346,18*76
$GPRMC,074845.000,A,5333.1891,N,01000.7522,E,0.84,229.35,180912,,,A*60
$GPGGA,074846.000,5333.1890,N,01000.7518,E,1,04,6.3,88.9,M,46.0,M,,0000*63
$GPGSA,A,3,02,27,09,12,,,,,,,,,6.4,6.3,1.0*39
$GPGSV,3,1,10,12,83,274,22,09,47,135,27,14,42,289,23,25,42,259,22*75
$GPGSV,3,2,10,27,39,135,26,04,22,078,23,02,15,120,28,17,11,041,*73
$GPGSV,3,3,10,29,09,201,20,32,05,346,18*77
$GPRMC,074846.000,A,5333.1890,N,01000.7518,E,1.04,223.71,180912,,,A*68
$GPGGA,074847.000,5333.1890,N,01000.7514,E,0,03,,88.6,M,46.0,M,,0000*4C
$GPGSA,A,1,02,27,09,,,,,,,,,,,,*10
$GPRMC,074859.000,A,5333.1768,N,01000.7516,E,8.24,174.72,180912,,,A*69
$GPGGA,074900.000,5333.1747,N,01000.7519,E,1,04,6.3,85.5,M,46.0,M,,0000*65
$GPGSA,A,3,02,27,09,12,,,,,,,,,6.3,6.3,1.0*3E
$GPRMC,074900.000,A,5333.1747,N,01000.7519,E,7.15,176.79,180912,,,A*62
$GPGGA,074901.000,5333.1732,N,01000.7520,E,1,04,6.3,85.7,M,46.0,M,,0000*6E
$GPGSA,A,3,02,27,09,12,,,,,,,,,6.3,6.3,1.0*3E
$GPGSV,3,1,10,12,83,274,16,09,47,135,27,14,42,289,23,25,42,259,21*71
$GPGSV,3,2,10,27,39,135,27,04,22,078,22,02,15,120,31,17,11,041,*7B
$GPGSV,3,3,10,29,09,201,21,32,05,346,16*78
$GPRMC,074901.000,A,5333.1732,N,01000.7520,E,5.93,179.79,180912,,,A*68
$GPGGA,074902.000,5333.1722,N,01000.7520,E,1,04,6.3,85.9,M,46.0,M,,0000*62
$GPGSA,A,3,02,27,09,12,,,,,,,,,6.3,6.3,1.0*3E
$GPRMC,074902.000,A,5333.1722,N,01000.7520,E,4.49,183.42,180912,,,A*61
$GPGGA,074903.000,5333.1717,N,01000.7520,E,1,04,6.3,86.2,M,46.0,M,,0000*6D
$GPGSA,A,3,02,27,09,12,,,,,,,,,6.3,6.3,1.0*3E
$GPRMC,074903.000,A,5333.1717,N,01000.7520,E,3.32,187.68,180912,,,A*61
$GPGGA,074904.000,5333.1717,N,01000.7520,E,1,04,6.2,86.7,M,46.0,M,,0000*6E
$GPGSA,A,3,02,27,09,12,,,,,,,,,6.3,6.2,1.0*3F
$GPRMC,074904.000,A,5333.1717,N,01000.7520,E,1.73,205.62,180912,,,A*62
$GPGGA,074905.000,5333.1720,N,01000.7519,E,0,03,,87.4,M,46.0,M,,0000*4F
$GPGSA,A,1,02,27,09,,,,,,,,,,,,*10
$GPRMC,074924.000,A,5333.1746,N,01000.7489,E,0.90,230.28,180912,,,A*62
$GPGGA,074925.000,5333.1749,N,01000.7479,E,1,04,6.1,88.1,M,46.0,M,,0000*60
$GPGSA,A,3,02,27,09,12,,,,,,,,,6.2,6.1,1.0*3D
$GPRMC,074931.000,A,5333.1776,N,01000.7406,E,1.00,244.42,180912,,,A*65
$GPGGA,074932.000,5333.1779,N,01000.7390,E,1,04,6.1,82.1,M,46.0,M,,0000*6F
$GPGSA,A,3,02,27,09,12,,,,,,,,,6.2,6.1,1.0*3D
$GPRMC,074932.000,A,5333.1779,N,01000.7390,E,1.28,252.33,180912,,,A*6A
$GPGGA,074933.000,5333.1778,N,01000.7376,E,1,04,6.1,81.1,M,46.0,M,,0000*64
$GPGSA,A,3,02,27,09,12,,,,,,,,,6.2,6.1,1.0*3D
$GPRMC,074933.000,A,5333.1778,N,01000.7376,E,1.00,212.59,180912,,,A*60
$GPGGA,074934.000,5333.1775,N,01000.7362,E,1,04,6.1,80.0,M,46.0,M,,0000*6B
$GPGSA,A,3,02,27,09,12,,,,,,,,,6.2,6.1,1.0*3D
$GPRMC,074934.000,A,5333.1775,N,01000.7362,E,1.56,201.79,180912,,,A*6C
$GPGGA,074935.000,5333.1772,N,01000.7349,E,1,04,6.1,78.9,M,46.0,M,,0000*6A
$GPGSA,A,3,02,27,09,12,,,,,,,,,6.2,6.1,1.0*3D
$GPRMC,074935.000,A,5333.1772,N,01000.7349,E,1.36,202.50,180912,,,A*6D
$GPGGA,074936.000,5333.1770,N,01000.7334,E,1,04,6.1,77.7,M,46.0,M,,0000*60
$GPGSA,A,3,02,27,09,12,,,,,,,,,6.2,6.1,1.0*3D
$GPGSV,3,1,10,12,83,274,20,09,47,135,21,14,42,289,15,25,42,259,*74
$GPGSV,3,2,10,27,39,135,30,04,22,078,24,02,15,120,26,17,11,041,20*7F
$GPGSV,3,3,10,29,09,201,14,32,05,346,18*70
$GPRMC,074936.000,A,5333.1770,N,01000.7334,E,0.99,223.66,180912,,,A*64
$GPGGA,074937.000,5333.1770,N,01000.7319,E,1,04,6.1,76.5,M,46.0,M,,0000*6D
$GPGSA,A,3,02,27,09,12,,,,,,,,,6.2,6.1,1.0*3D
$GPRMC,074937.000,A,5333.1770,N,01000.7319,E,0.81,253.35,180912,,,A*62
$GPGGA,074938.000,5333.1770,N,01000.7304,E,1,04,6.1,75.4,M,46.0,M,,0000*6C
$GPGSA,A,3,02,27,09,12,,,,,,,,,6.2,6.1,1.0*3D
$GPRMC,074938.000,A,5333.1770,N,01000.7304,E,1.04,269.51,180912,,,A*66
$GPGGA,074939.000,5333.1769,N,01000.7293,E,1,04,6.1,74.1,M,46.0,M,,0000*6E
$GPGSA,A,3,02,27,09,12,,,,,,,,,6.2,6.1,1.0*3D
$GPRMC,074940.000,A,5333.1766,N,01000.7281,E,0.87,207.32,180912,,,A*65
$GPGGA,074941.000,5333.1763,N,01000.7269,E,1,04,6.1,71.5,M,46.0,M,,0000*6F
$GPGSA,A,3,02,27,09,12,,,,,,,,,6.2,6.1,1.0*3D
$GPGSV,3,1,10,12,83,274,21,09,47,135,22,14,42,289,15,25,42,259,*76
$GPGSV,3,2,10,27,39,135,29,04,22,078,25,02,15,120,26,17,11,041,20*76
$GPGSV,3,3,10,29,09,201,22,32,05,346,19*74
$GPRMC,074943.000,A,5333.1759,N,01000.7245,E,0.93,215.99,180912,,,A*65
$GPGGA,074944.000,5333.1757,N,01000.7233,E,1,04,6.1,67.0,M,46.0,M,,0000*60
$GPGSA,A,3,02,27,09,12,,,,,,,,,6.1,6.1,1.0*3E
$GPRMC,074946.000,A,5333.1752,N,01000.7209,E,1.25,209.71,180912,,,A*64
$GPGGA,074947.000,5333.1749,N,01000.7196,E,1,03,6.8,62.2,M,46.0,M,,0000*69
$GPGSA,A,2,02,27,12,,,,,,,,,,6.8,6.8,1.0*36
$GPRMC,074947.000,A,5333.1749,N,01000.7196,E,1.18,218.29,180912,,,A*69
$GPGGA,074948.000,5333.1744,N,01000.7183,E,1,04,6.0,60.9,M,46.0,M,,0000*69
$GPGSA,A,3,02,27,12,09,,,,,,,,,6.1,6.0,1.0*3F
$GPRMC,074948.000,A,5333.1744,N,01000.7183,E,1.44,205.11,180912,,,A*61
$GPGGA,074949.000,5333.1734,N,01000.7156,E,1,04,6.0,59.5,M,46.0,M,,0000*61
$GPGSA,A,3,02,27,12,09,,,,,,,,,6.1,6.0,1.0*3F
$GPRMC,074949.000,A,5333.1734,N,01000.7156,E,4.83,226.20,180912,,,A*62
$GPGGA,074950.000,5333.1725,N,01000.7136,E,1,04,6.0,58.2,M,46.0,M,,0000*69
$GPGSA,A,3,02,27,12,09,,,,,,,,,6.1,6.0,1.0*3F
$GPRMC,074950.000,A,5333.1725,N,01000.7136,E,3.72,217.23,180912,,,A*64
$GPGGA,074951.000,5333.1718,N,01000.7119,E,1,04,6.0,56.9,M,46.0,M,,0000*6E
$GPGSA,A,3,02,27,12,09,,,,,,,,,6.1,6.0,1.0*3F
$GPGSV,3,1,10,12,83,274,28,09,47,135,29,14,42,289,23,25,42,259,24*77
$GPGSV,3,2,10,27,39,135,32,04,22,078,28,02,15,120,26,17,11,041,26*77
$GPGSV,3,3,10,29,09,201,28,32,05,346,25*71
$GPRMC,074951.000,A,5333.1718,N,01000.7119,E,2.97,218.73,180912,,,A*66
$GPGGA,074952.000,5333.1711,N,01000.7102,E,1,04,6.0,55.8,M,46.0,M,,0000*6C
$GPGSA,A,3,02,27,12,09,,,,,,,,,6.1,6.0,1.0*3F
$GPRMC,074952.000,A,5333.1711,N,01000.7102,E,3.00,219.58,180912,,,A*61
$GPGGA,074953.000,5333.1705,N,01000.7089,E,1,03,6.7,54.8,M,46.0,M,,0000*6B
$GPGSA,A,2,02,27,12,,,,,,,,,,6.8,6.7,1.0*39
$GPRMC,074953.000,A,5333.1705,N,01000.7089,E,2.48,218.75,180912,,,A*64
$GPGGA,074954.000,5333.1702,N,01000.7079,E,1,04,6.0,53.9,M,46.0,M,,0000*62
$GPGSA,A,3,02,27,12,09,,,,,,,,,6.1,6.0,1.0*3F
$GPRMC,074954.000,A,5333.1702,N,01000.7079,E,1.42,219.73,180912,,,A*65
$GPGGA,074955.000,5333.1701,N,01000.7071,E,1,04,6.0,53.1,M,46.0,M,,0000*60
$GPGSA,A,3,02,27,12,09,,,,,,,,,6.1,6.0,1.0*3F
$GPRMC,074955.000,A,5333.1701,N,01000.7071,E,0.97,234.20,180912,,,A*6F
$GPGGA,074956.000,5333.1702,N,01000.7063,E,1,04,6.0,52.4,M,46.0,M,,0000*67
$GPGSA,A,3,02,27,12,09,,,,,,,,,6.1,6.0,1.0*3F
$GPGSV,3,1,10,12,83,274,26,09,47,135,31,14,42,289,23,25,42,259,23*77
$GPGSV,3,2,10,27,39,135,32,04,22,078,23,02,15,120,36,17,11,041,26*7D
$GPGSV,3,3,10,29,09,201,,32,05,346,25*7B
$GPRMC,074959.000,A,5333.1716,N,01000.7046,E,0.90,325.07,180912,,,A*62
$GPGGA,075000.000,5333.1723,N,01000.7041,E,1,04,6.0,48.7,M,46.0,M,,0000*67
$GPGSA,A,3,02,27,12,09,,,,,,,,,6.1,6.0,1.0*3F
$GPRMC,075000.000,A,5333.1723,N,01000.7041,E,0.93,319.96,180912,,,A*63
$GPGGA,075001.000,5333.1728,N,01000.7038,E,1,03,6.7,48.0,M,46.0,M,,0000*64
$GPGSA,A,2,02,27,12,,,,,,,,,,6.8,6.7,1.0*39
$GPGSV,3,1,11,12,84,280,26,09,46,135,,25,43,260,23,14,42,287,21*7E
$GPGSV,3,2,11,27,38,135,30,04,22,077,23,02,16,119,37,29,10,201,22*76
$GPGSV,3,3,11,17,10,041,26,32,06,345,25,31,00,304,*48
$GPRMC,075003.000,A,5333.1742,N,01000.7045,E,2.33,52.32,180912,,,A*59
$GPGGA,075004.000,5333.1749,N,01000.7055,E,0,03,,46.1,M,46.0,M,,0000*4C
$GPGSA,A,1,02,27,09,,,,,,,,,,,,*10
$GPRMC,075005.000,A,5333.1753,N,01000.7063,E,1.71,94.84,180912,,,A*59
$GPGGA,075006.000,5333.1757,N,01000.7072,E,0,00,,45.2,M,46.0,M,,0000*47
$GPGSA,A,1,,,,,,,,,,,,,,,*1E
$GPGSV,3,1,11,12,84,280,16,09,46,135,33,25,43,260,24,14,42,287,28*73
$GPGSV,3,2,11,27,38,135,,04,22,077,23,02,16,119,24,29,10,201,26*73
$GPGSV,3,3,11,17,10,041,21,32,06,345,20,31,00,304,*4A
$GPRMC,075008.000,A,5333.1758,N,01000.7085,E,1.83,177.11,180912,,,A*6A
$GPGGA,075009.000,5333.1758,N,01000.7086,E,1,04,5.9,44.4,M,46.0,M,,0000*6C
$GPGSA,A,3,02,27,12,09,,,,,,,,,6.0,5.9,1.0*34
$GPRMC,075009.000,A,5333.1758,N,01000.7086,E,1.66,188.17,180912,,,A*65
$GPGGA,075010.000,5333.1755,N,01000.7086,E,1,04,5.9,44.4,M,46.0,M,,0000*69
$GPGSA,A,3,02,27,12,09,,,,,,,,,6.0,5.9,1.0*34
$GPRMC,075010.000,A,5333.1755,N,01000.7086,E,2.11,194.06,180912,,,A*6E
$GPGGA,075011.000,5333.1751,N,01000.7083,E,1,04,5.9,44.4,M,46.0,M,,0000*69
$GPGSA,A,3,02,27,12,09,,,,,,,,,6.0,5.9,1.0*34
$GPGSV,3,1,11,12,84,280,23,09,46,135,30,25,43,260,25,14,42,287,*7D
$GPGSV,3,2,11,27,38,135,34,04,22,077,25,02,16,119,35,29,10,201,28*7C
$GPGSV,3,3,11,17,10,041,25,32,06,345,28,31,00,304,*46
$GPRMC,075011.000,A,5333.1751,N,01000.7083,E,2.11,202.66,180912,,,A*64
$GPGGA,075012.000,5333.1747,N,01000.7080,E,1,04,5.9,44.3,M,46.0,M,,0000*69
$GPGSA,A,3,02,27,12,09,,,,,,,,,6.0,5.9,1.0*34
$GPRMC,075012.000,A,5333.1747,N,01000.7080,E,2.06,205.77,180912,,,A*62
$GPGGA,075013.000,5333.1743,N,01000.7078,E,1,04,5.9,44.5,M,46.0,M,,0000*6D
$GPGSA,A,3,02,27,12,09,,,,,,,,,6.0,5.9,1.0*34
$GPRMC,075013.000,A,5333.1743,N,01000.7078,E,1.82,211.17,180912,,,A*6C
$GPGGA,075014.000,5333.1740,N,01000.7074,E,1,04,5.9,44.7,M,46.0,M,,0000*67
$GPGSA,A,3,02,27,12,09,,,,,,,,,6.0,5.9,1.0*34
$GPRMC,075014.000,A,5333.1740,N,01000.7074,E,1.79,229.85,180912,,,A*60
$GPGGA,075015.000,5333.1738,N,01000.7073,E,1,04,5.9,44.9,M,46.0,M,,0000*60
$GPGSA,A,3,02,27,12,09,,,,,,,,,6.0,5.9,1.0*34
$GPRMC,075015.000,A,5333.1738,N,01000.7073,E,1.48,220.06,180912,,,A*69
$GPGGA,075016.000,5333.1740,N,01000.7072,E,1,03,6.6,45.2,M,46.0,M,,0000*6C
$GPGSA,A,2,02,27,12,,,,,,,,,,6.7,6.6,1.0*37
$GPGSV,3,1,12,12,84,281,23,09,46,135,17,25,43,260,24,14,42,287,23*7A
$GPGSV,3,2,12,27,38,135,23,04,22,077,23,02,16,119,24,29,10,201,*75
$GPGSV,3,3,12,17,10,041,19,32,06,345,22,31,00,304,,20,00,012,*71
$GPRMC,075016.000,A,5333.1740,N,01000.7072,E,1.04,270.12,180912,,,A*6C
$GPGGA,075017.000,5333.1743,N,01000.7066,E,1,04,5.9,45.3,M,46.0,M,,0000*61
$GPGSA,A,3,02,27,12,09,,,,,,,,,6.0,5.9,1.0*34
$GPRMC,075017.000,A,5333.1743,N,01000.7066,E,1.48,288.67,180912,,,A*66
$GPGGA,075018.000,5333.1745,N,01000.7060,E,1,04,5.9,45.4,M,46.0,M,,0000*69
$GPGSA,A,3,02,27,12,09,,,,,,,,,6.0,5.9,1.0*34
$GPRMC,075018.000,A,5333.1745,N,01000.7060,E,1.27,281.11,180912,,,A*68
$GPGGA,075019.000,5333.1747,N,01000.7054,E,0,00,,45.4,M,46.0,M,,0000*4A
$GPGSA,A,1,,,,,,,,,,,,,,,*1E
$GPRMC,075022.000,A,5333.1747,N,01000.7035,E,2.36,225.75,180912,,,A*6C
$GPGGA,075023.000,5333.1742,N,01000.7030,E,1,04,5.9,45.7,M,46.0,M,,0000*60
$GPGSA,A,3,02,27,09,12,,,,,,,,,6.0,5.9,1.0*34
$GPRMC,075023.000,A,5333.1742,N,01000.7030,E,2.25,215.46,180912,,,A*6C
$GPGGA,075024.000,5333.1742,N,01000.7031,E,1,04,5.9,45.9,M,46.0,M,,0000*68
$GPGSA,A,3,02,27,09,12,,,,,,,,,6.0,5.9,1.0*34
$GPRMC,075024.000,A,5333.1742,N,01000.7031,E,1.06,208.11,180912,,,A*66
$GPGGA,075025.000,5333.1748,N,01000.7034,E,1,03,6.6,46.0,M,46.0,M,,0000*67
$GPGSA,A,2,02,27,12,,,,,,,,,,6.7,6.6,1.0*37
$GPRMC,075026.000,A,5333.1757,N,01000.7039,E,1.02,354.68,180912,,,A*6A
$GPGGA,075027.000,5333.1771,N,01000.7047,E,1,04,5.9,46.4,M,46.0,M,,0000*64
$GPGSA,A,3,02,27,09,12,,,,,,,,,6.0,5.9,1.0*34
$GPRMC,075027.000,A,5333.1771,N,01000.7047,E,1.82,13.10,180912,,,A*51
$GPGGA,075028.000,5333.1788,N,01000.7059,E,1,04,5.9,46.7,M,46.0,M,,0000*61
$GPGSA,A,3,02,27,09,12,,,,,,,,,5.9,5.9,1.0*3E
$GPRMC,075028.000,A,5333.1788,N,01000.7059,E,2.36,22.53,180912,,,A*5E
$GPGGA,075029.000,5333.1799,N,01000.7071,E,1,04,5.9,46.9,M,46.0,M,,0000*64
$GPGSA,A,3,02,27,09,12,,,,,,,,,5.9,5.9,1.0*3E
$GPRMC,075029.000,A,5333.1799,N,01000.7071,E,1.38,45.78,180912,,,A*50
$GPGGA,075030.000,5333.1804,N,01000.7079,E,1,04,5.9,47.0,M,46.0,M,,0000*67
$GPGSA,A,3,02,27,09,12,,,,,,,,,5.9,5.9,1.0*3E
$GPRMC,075034.000,A,5333.1822,N,01000.7090,E,1.26,326.51,180912,,,A*6E
$GPGGA,075035.000,5333.1827,N,01000.7087,E,1,04,5.8,45.9,M,46.0,M,,0000*68
$GPGSA,A,3,02,27,09,12,,,,,,,,,5.9,5.8,1.0*3F
$GPRMC,075035.000,A,5333.1827,N,01000.7087,E,0.98,330.10,180912,,,A*6A
$GPGGA,075036.000,5333.1831,N,01000.7081,E,1,04,5.8,45.0,M,46.0,M,,0000*63
$GPGSA,A,3,02,27,09,12,,,,,,,,,5.9,5.8,1.0*3F
$GPGSV,3,1,12,12,84,281,21,09,46,135,25,25,43,260,17,14,42,287,20*7A
$GPGSV,3,2,12,27,38,135,27,04,22,077,23,02,16,119,27,29,10,201,22*72
$GPGSV,3,3,12,17,10,041,27,32,06,345,18,31,00,304,,20,00,012,*75
$GPRMC,075036.000,A,5333.1831,N,01000.7081,E,0.97,325.16,180912,,,A*65
$GPGGA,075037.000,5333.1833,N,01000.7071,E,1,04,5.8,44.0,M,46.0,M,,0000*6E
$GPGSA,A,3,02,27,09,12,,,,,,,,,5.9,5.8,1.0*3F
$GPRMC,075037.000,A,5333.1833,N,01000.7071,E,1.00,308.34,180912,,,A*69
$GPGGA,075038.000,5333.1833,N,01000.7057,E,1,04,5.8,42.8,M,46.0,M,,0000*6B
$GPGSA,A,3,02,27,09,12,,,,,,,,,5.9,5.8,1.0*3F
$GPRMC,075038.000,A,5333.1833,N,01000.7057,E,1.34,270.22,180912,,,A*6C
$GPGGA,075039.000,5333.1835,N,01000.7045,E,1,04,5.8,41.8,M,46.0,M,,0000*6C
$GPGSA,A,3,02,27,09,12,,,,,,,,,5.9,5.8,1.0*3F
$GPRMC,075039.000,A,5333.1835,N,01000.7045,E,1.13,287.45,180912,,,A*64
$GPGGA,075040.000,5333.1836,N,01000.7035,E,1,04,5.8,40.9,M,46.0,M,,0000*66
$GPGSA,A,3,02,27,09,12,,,,,,,,,5.9,5.8,1.0*3F
$GPRMC,075042.000,A,5333.1834,N,01000.7012,E,1.02,250.26,180912,,,A*64
$GPGGA,075043.000,5333.1830,N,01000.6994,E,1,04,5.8,38.1,M,46.0,M,,0000*67
$GPGSA,A,3,02,27,09,12,,,,,,,,,5.9,5.8,1.0*3F
$GPRMC,075043.000,A,5333.1830,N,01000.6994,E,2.30,239.84,180912,,,A*62
$GPGGA,075044.000,5333.1827,N,01000.6976,E,1,03,6.5,37.4,M,46.0,M,,0000*69
$GPGSA,A,2,02,27,12,,,,,,,,,,6.6,6.5,1.0*35
$GPRMC,075044.000,A,5333.1827,N,01000.6976,E,2.56,239.42,180912,,,A*65
$GPGGA,075045.000,5333.1823,N,01000.6960,E,1,04,5.8,36.6,M,46.0,M,,0000*61
$GPGSA,A,3,02,27,09,12,,,,,,,,,5.9,5.8,1.0*3F
$GPRMC,075045.000,A,5333.1823,N,01000.6960,E,1.99,232.97,180912,,,A*64
$GPGGA,075046.000,5333.1820,N,01000.6943,E,1,04,5.8,35.8,M,46.0,M,,0000*6D
$GPGSA,A,3,02,27,09,12,,,,,,,,,5.9,5.8,1.0*3F
$GPGSV,3,1,12,12,84,281,25,09,46,135,20,25,43,260,26,14,42,287,22*7B
$GPGSV,3,2,12,27,38,135,22,04,22,077,20,02,16,119,19,29,10,201,16*7E
$GPGSV,3,3,12,17,10,041,14,32,06,345,16,31,00,304,,20,00,012,*7B
$GPRMC,075046.000,A,5333.1820,N,01000.6943,E,2.40,234.11,180912,,,A*6A
$GPGGA,075047.000,5333.1810,N,01000.6919,E,1,04,5.8,35.2,M,46.0,M,,0000*6A
$GPGSA,A,3,02,27,09,12,,,,,,,,,5.9,5.8,1.0*3F
$GPRMC,075047.000,A,5333.1810,N,01000.6919,E,4.76,220.20,180912,,,A*63
$GPGGA,075048.000,5333.1799,N,01000.6899,E,1,04,5.8,34.6,M,46.0,M,,0000*67
$GPGSA,A,3,02,27,09,12,,,,,,,,,5.9,5.8,1.0*3F
$GPRMC,075048.000,A,5333.1799,N,01000.6899,E,4.36,215.57,180912,,,A*69
$GPGGA,075049.000,5333.1789,N,01000.6881,E,1,03,7.3,34.1,M,46.0,M,,0000*67
$GPGSA,A,2,02,09,12,,,,,,,,,,7.4,7.3,1.0*3D
$GPRMC,075049.000,A,5333.1789,N,01000.6881,E,3.99,213.50,180912,,,A*63
$GPGGA,075050.000,5333.1782,N,01000.6868,E,1,03,7.3,33.7,M,46.0,M,,0000*62
$GPGSA,A,2,02,09,12,,,,,,,,,,7.4,7.3,1.0*3D
$GPRMC,075050.000,A,5333.1782,N,01000.6868,E,2.86,213.77,180912,,,A*6D
$GPGGA,075051.000,5333.1776,N,01000.6857,E,1,03,7.3,33.3,M,46.0,M,,0000*60
$GPGSA,A,2,02,09,12,,,,,,,,,,7.4,7.3,1.0*3D
$GPGSV,3,1,12,12,84,281,28,09,46,135,31,25,43,260,22,14,42,287,18*7B
$GPGSV,3,2,12,27,38,135,,04,22,077,24,02,16,119,19,29,10,201,17*7B
$GPGSV,3,3,12,17,10,041,14,32,06,345,15,31,00,304,,20,00,012,*78
$GPRMC,075051.000,A,5333.1776,N,01000.6857,E,2.39,212.64,180912,,,A*6C
$GPGGA,075052.000,5333.1773,N,01000.6851,E,1,04,5.8,33.0,M,46.0,M,,0000*6D
$GPGSA,A,3,02,27,09,12,,,,,,,,,5.8,5.8,1.0*3E
$GPRMC,075052.000,A,5333.1773,N,01000.6851,E,1.33,207.31,180912,,,A*61
$GPGGA,075053.000,5333.1769,N,01000.6842,E,1,04,5.8,32.7,M,46.0,M,,0000*63
$GPGSA,A,3,02,27,09,12,,,,,,,,,5.8,5.8,1.0*3E
$GPRMC,075053.000,A,5333.1769,N,01000.6842,E,1.93,216.44,180912,,,A*61
$GPGGA,075054.000,5333.1770,N,01000.6844,E,1,04,5.8,32.5,M,46.0,M,,0000*68
$GPGSA,A,3,02,27,09,12,,,,,,,,,5.8,5.8,1.0*3E
$GPRMC,075057.000,A,5333.1768,N,01000.6839,E,0.91,233.11,180912,,,A*6C
$GPGGA,075058.000,5333.1766,N,01000.6835,E,1,04,5.7,31.3,M,46.0,M,,0000*6F
$GPGSA,A,3,02,27,09,12,,,,,,,,,5.8,5.7,1.0*31
$GPRMC,075058.000,A,5333.1766,N,01000.6835,E,1.37,221.63,180912,,,A*6A
$GPGGA,075059.000,5333.1766,N,01000.6835,E,1,03,7.2,31.0,M,46.0,M,,0000*6D
$GPGSA,A,2,02,09,12,,,,,,,,,,7.3,7.2,1.0*3B
$GPRMC,075101.000,A,5333.1781,N,01000.6853,E,2.80,35.85,180912,,,A*5E
$GPGGA,075102.000,5333.1797,N,01000.6872,E,1,04,5.7,30.2,M,46.0,M,,0000*6C
$GPGSA,A,3,02,27,09,12,,,,,,,,,5.8,5.7,1.0*31
$GPRMC,075102.000,A,5333.1797,N,01000.6872,E,4.52,35.66,180912,,,A*5D
$GPGGA,075103.000,5333.1808,N,01000.6882,E,1,04,5.7,30.0,M,46.0,M,,0000*69
$GPGSA,A,3,02,27,09,12,,,,,,,,,5.8,5.7,1.0*31
$GPRMC,075103.000,A,5333.1808,N,01000.6882,E,3.03,27.57,180912,,,A*58
$GPGGA,075104.000,5333.1819,N,01000.6892,E,0,00,,29.8,M,46.0,M,,0000*46
$GPGSA,A,1,,,,,,,,,,,,,,,*1E
$GPRMC,075106.000,A,5333.1841,N,01000.6907,E,2.75,17.09,180912,,,A*54
$GPGGA,075107.000,5333.1859,N,01000.6911,E,1,04,5.7,29.6,M,46.0,M,,0000*6C
$GPGSA,A,3,02,27,09,12,,,,,,,,,5.8,5.7,1.0*31
$GPRMC,075107.000,A,5333.1859,N,01000.6911,E,3.89,8.21,180912,,,A*6D
$GPGGA,075108.000,5333.1866,N,01000.6912,E,1,04,5.7,29.8,M,46.0,M,,0000*62
$GPGSA,A,3,02,27,09,12,,,,,,,,,5.8,5.7,1.0*31
$GPRMC,075108.000,A,5333.1866,N,01000.6912,E,1.15,0.66,180912,,,A*61
$GPGGA,075109.000,5333.1876,N,01000.6916,E,1,04,5.7,30.0,M,46.0,M,,0000*66
$GPGSA,A,3,02,27,09,12,,,,,,,,,5.8,5.7,1.0*31
$GPRMC,075109.000,A,5333.1876,N,01000.6916,E,2.01,19.61,180912,,,A*5C
$GPGGA,075110.000,5333.1888,N,01000.6922,E,1,04,5.7,30.4,M,46.0,M,,0000*6C
$GPGSA,A,3,02,27,09,12,,,,,,,,,5.8,5.7,1.0*31
$GPRMC,075110.000,A,5333.1888,N,01000.6922,E,2.24,24.91,180912,,,A*54
$GPGGA,075111.000,5333.1897,N,01000.6927,E,1,04,5.7,30.8,M,46.0,M,,0000*6A
$GPGSA,A,3,02,27,09,12,,,,,,,,,5.8,5.7,1.0*31
$GPGSV,3,1,12,12,84,281,33,09,46,135,25,25,43,260,26,14,42,287,33*79
$GPGSV,3,2,12,27,38,135,22,04,22,077,,02,16,119,32,29,10,201,17*74
$GPGSV,3,3,12,17,10,041,26,32,06,345,22,31,00,304,,20,00,012,*7D
$GPRMC,075111.000,A,5333.1897,N,01000.6927,E,1.51,27.05,180912,,,A*51
$GPGGA,075112.000,5333.1906,N,01000.6932,E,1,04,5.7,31.3,M,46.0,M,,0000*6E
$GPGSA,A,3,02,27,09,12,,,,,,,,,5.8,5.7,1.0*31
$GPRMC,075112.000,A,5333.1906,N,01000.6932,E,1.01,30.26,180912,,,A*5D
$GPGGA,075113.000,5333.1916,N,01000.6936,E,1,04,5.7,32.0,M,46.0,M,,0000*6A
$GPGSA,A,3,02,27,09,12,,,,,,,,,5.8,5.7,1.0*31
$GPRMC,075113.000,A,5333.1916,N,01000.6936,E,1.07,18.77,180912,,,A*51
$GPGGA,075114.000,5333.1926,N,01000.6941,E,0,03,,32.6,M,46.0,M,,0000*42
$GPGSA,A,1,27,09,12,,,,,,,,,,,,*11
$GPRMC,075117.000,A,5333.1940,N,01000.6925,E,1.01,299.68,180912,,,A*67
$GPGGA,075118.000,5333.1939,N,01000.6906,E,1,04,5.7,34.6,M,46.0,M,,0000*6F
$GPGSA,A,3,02,27,09,12,,,,,,,,,5.7,5.7,1.0*3E
$GPRMC,075118.000,A,5333.1939,N,01000.6906,E,1.11,301.59,180912,,,A*64
$GPGGA,075119.000,5333.1937,N,01000.6886,E,1,04,5.7,34.7,M,46.0,M,,0000*68
$GPGSA,A,3,02,27,09,12,,,,,,,,,5.7,5.7,1.0*3E
$GPRMC,075122.000,A,5333.1928,N,01000.6820,E,1.34,351.15,180912,,,A*62
$GPGGA,075123.000,5333.1927,N,01000.6801,E,1,04,5.6,35.8,M,46.0,M,,0000*60
$GPGSA,A,3,02,27,09,12,,,,,,,,,5.7,5.6,1.0*3F
$GPRMC,075123.000,A,5333.1927,N,01000.6801,E,1.23,352.84,180912,,,A*62
$GPGGA,075124.000,5333.1929,N,01000.6782,E,1,04,5.6,36.5,M,46.0,M,,0000*63
$GPGSA,A,3,02,27,09,12,,,,,,,,,5.7,5.6,1.0*3F
$GPRMC,075124.000,A,5333.1929,N,01000.6782,E,1.71,340.55,180912,,,A*67
$GPGGA,075125.000,5333.1935,N,01000.6760,E,1,03,7.1,37.1,M,46.0,M,,0000*64
$GPGSA,A,2,02,09,12,,,,,,,,,,7.2,7.1,1.0*39
$GPRMC,075125.000,A,5333.1935,N,01000.6760,E,3.48,338.86,180912,,,A*6E
$GPGGA,075126.000,5333.1948,N,01000.6741,E,1,04,5.6,37.5,M,46.0,M,,0000*68
$GPGSA,A,3,02,27,09,12,,,,,,,,,5.7,5.6,1.0*3F
$GPGSV,3,1,12,12,85,284,18,09,45,135,22,25,43,260,22,14,42,286,28*7F
$GPGSV,3,2,12,27,37,135,15,04,23,076,,02,17,119,21,29,11,201,20*79
$GPGSV,3,3,12,17,10,041,15,32,06,344,11,31,00,304,,20,00,011,*7F
$GPRMC,075126.000,A,5333.1948,N,01000.6741,E,5.00,348.54,180912,,,A*66
$GPGGA,075127.000,5333.1964,N,01000.6727,E,1,03,7.1,37.7,M,46.0,M,,0000*67
$GPGSA,A,2,02,09,12,,,,,,,,,,7.1,7.1,1.0*3A
$GPRMC,075127.000,A,5333.1964,N,01000.6727,E,5.74,1.05,180912,,,A*60
$GPGGA,075128.000,5333.1980,N,01000.6714,E,0,00,,37.9,M,46.0,M,,0000*46
$GPGSA,A,1,,,,,,,,,,,,,,,*1E
$GPRMC,075343.000,A,5333.2700,N,01000.7851,E,3.34,12.69,180912,,,A*5A
$GPGGA,075344.000,5333.2720,N,01000.7885,E,1,03,5.8,132.5,M,46.0,M,,0000*56
$GPGSA,A,2,02,27,12,,,,,,,,,,5.9,5.8,1.0*37
$GPRMC,075344.000,A,5333.2720,N,01000.7885,E,5.13,9.76,180912,,,A*61
$GPGGA,075345.000,5333.2732,N,01000.7918,E,1,03,6.4,131.7,M,46.0,M,,0000*5F
$GPGSA,A,2,02,12,09,,,,,,,,,,6.5,6.4,1.0*3B
$GPRMC,075345.000,A,5333.2732,N,01000.7918,E,3.74,23.51,180912,,,A*5C
$GPGGA,075346.000,5333.2726,N,01000.7936,E,1,03,6.4,131.9,M,46.0,M,,0000*5B
$GPGSA,A,2,02,12,09,,,,,,,,,,6.5,6.4,1.0*3B
$GPGSV,3,1,12,12,85,284,24,09,45,135,22,25,43,260,31,14,42,286,31*7A
$GPGSV,3,2,12,27,37,135,,04,23,076,22,02,17,119,24,29,11,201,22*7A
$GPGSV,3,3,12,17,10,041,29,32,06,344,,31,00,304,,20,00,011,*70
$GPRMC,075347.000,A,5333.2711,N,01000.7944,E,2.99,207.67,180912,,,A*65
$GPGGA,075348.000,5333.2687,N,01000.7932,E,1,04,5.1,130.8,M,46.0,M,,0000*5A
$GPGSA,A,3,02,12,09,27,,,,,,,,,5.2,5.1,1.0*3D
$GPRMC,075348.000,A,5333.2687,N,01000.7932,E,3.19,210.73,180912,,,A*6F
$GPGGA,075349.000,5333.2650,N,01000.7891,E,1,04,5.1,127.6,M,46.0,M,,0000*51
$GPGSA,A,3,02,12,09,27,,,,,,,,,5.2,5.1,1.0*3D
$GPRMC,075349.000,A,5333.2650,N,01000.7891,E,4.05,215.04,180912,,,A*63
$GPGGA,075350.000,5333.2611,N,01000.7841,E,1,04,5.1,124.0,M,46.0,M,,0000*54
$GPGSA,A,3,02,12,09,27,,,,,,,,,5.2,5.1,1.0*3D
$GPRMC,075350.000,A,5333.2611,N,01000.7841,E,3.77,219.67,180912,,,A*68
$GPGGA,075351.000,5333.2577,N,01000.7794,E,1,03,6.4,120.8,M,46.0,M,,0000*5C
$GPGSA,A,2,02,12,09,,,,,,,,,,6.4,6.4,1.0*3A
$GPGSV,3,1,12,12,85,284,30,09,45,135,24,25,43,260,35,14,42,286,33*7F
$GPGSV,3,2,12,27,37,135,29,04,23,076,25,02,17,119,30,29,11,201,19*7B
$GPGSV,3,3,12,17,10,041,27,32,06,344,,31,00,304,,20,00,011,*7E
$GPRMC,075351.000,A,5333.2577,N,01000.7794,E,2.81,225.80,180912,,,A*63
$GPGGA,075352.000,5333.2544,N,01000.7745,E,1,04,5.1,117.2,M,46.0,M,,0000*5C
$GPGSA,A,3,02,12,09,27,,,,,,,,,5.2,5.1,1.0*3D
$GPRMC,075352.000,A,5333.2544,N,01000.7745,E,2.32,227.10,180912,,,A*6F
$GPGGA,075353.000,5333.2514,N,01000.7693,E,1,03,6.4,113.4,M,46.0,M,,0000*51
$GPGSA,A,2,02,12,09,,,,,,,,,,6.4,6.4,1.0*3A
$GPRMC,075353.000,A,5333.2514,N,01000.7693,E,1.87,231.41,180912,,,A*6F
$GPGGA,075354.000,5333.2489,N,01000.7636,E,1,04,5.1,109.3,M,46.0,M,,0000*51
$GPGSA,A,3,02,12,09,27,,,,,,,,,5.2,5.1,1.0*3D
$GPRMC,075354.000,A,5333.2489,N,01000.7636,E,1.40,293.40,180912,,,A*60
$GPGGA,075355.000,5333.2461,N,01000.7571,E,1,04,5.1,104.6,M,46.0,M,,0000*5E
$GPGSA,A,3,02,12,09,27,,,,,,,,,5.2,5.1,1.0*3D
$GPRMC,075355.000,A,5333.2461,N,01000.7571,E,1.49,262.44,180912,,,A*64
$GPGGA,075356.000,5333.2432,N,01000.7507,E,1,04,5.1,100.3,M,46.0,M,,0000*5B
$GPGSA,A,3,02,12,09,27,,,,,,,,,5.2,5.1,1.0*3D
$GPGSV,3,1,12,12,85,284,43,09,45,135,29,25,43,260,35,14,42,286,37*72
$GPGSV,3,2,12,27,37,135,31,04,23,076,33,02,17,119,30,29,11,201,21*7E
$GPGSV,3,3,12,17,10,041,39,32,06,344,,31,00,304,,20,00,011,*71
$GPRMC,075356.000,A,5333.2432,N,01000.7507,E,2.24,234.51,180912,,,A*6F
$GPGGA,075357.000,5333.2402,N,01000.7441,E,1,04,5.1,95.8,M,46.0,M,,0000*6C
$GPGSA,A,3,02,12,09,27,,,,,,,,,5.2,5.1,1.0*3D
