$GPRMC,194324.000,A,5229.6211,N,01319.5162,E,1.59,191.75,110912,,,A*69
$GPGGA,194325.000,5229.6208,N,01319.5149,E,1,04,2.4,70.9,M,44.8,M,,0000*63
$GPGSA,A,3,14,32,11,20,,,,,,,,,4.6,2.4,3.9*3A
$GPGSV,3,1,10,32,88,197,34,01,81,163,,11,57,161,22,20,55,255,31*79
$GPGSV,3,2,10,17,31,307,14,14,24,045,26,23,17,195,,31,16,100,*74
$GPGSV,3,3,10,19,09,174,14,28,06,270,*77
$GPRMC,194325.000,A,5229.6208,N,01319.5149,E,1.13,196.50,110912,,,A*67
$GPGGA,194326.000,5229.6205,N,01319.5133,E,1,06,1.9,71.5,M,44.8,M,,0000*61
$GPGSA,A,3,14,32,11,20,01,17,,,,,,,3.6,1.9,3.1*3C
$GPRMC,194332.000,A,5229.6190,N,01319.5018,E,0.88,122.40,110912,,,A*6B
$GPGGA,194333.000,5229.6187,N,01319.5005,E,1,06,1.9,77.8,M,44.8,M,,0000*63
$GPGSA,A,3,14,32,11,20,01,17,,,,,,,3.6,1.9,3.1*3C
$GPRMC,194333.000,A,5229.6187,N,01319.5005,E,1.23,139.99,110912,,,A*6E
$GPGGA,194334.000,5229.6187,N,01319.4995,E,1,06,1.9,78.1,M,44.8,M,,0000*63
$GPGSA,A,3,14,32,11,20,01,17,,,,,,,3.6,1.9,3.1*3C
$GPRMC,194334.000,A,5229.6187,N,01319.4995,E,1.01,84.96,110912,,,A*50
$GPGGA,194335.000,5229.6189,N,01319.4987,E,1,06,1.9,78.2,M,44.8,M,,0000*6C
$GPGSA,A,3,14,32,11,20,01,17,,,,,,,3.6,1.9,3.1*3C
$GPGSV,3,1,10,32,89,115,34,01,80,159,34,20,56,255,27,11,55,161,36*7E
$GPGSV,3,2,10,17,32,306,24,14,23,044,22,23,18,195,,31,17,099,*78
$GPGSV,3,3,10,19,08,174,,28,05,269,*78
$GPRMC,194335.000,A,5229.6189,N,01319.4987,E,1.56,54.15,110912,,,A*58
$GPGGA,194336.000,5229.6190,N,01319.4980,E,1,06,1.9,77.9,M,44.8,M,,0000*64
$GPGSA,A,3,14,32,11,20,01,17,,,,,,,3.6,1.9,3.1*3C
$GPRMC,194336.000,A,5229.6190,N,01319.4980,E,1.30,86.49,110912,,,A*52
$GPGGA,194337.000,5229.6188,N,01319.4973,E,1,06,1.9,77.4,M,44.8,M,,0000*6D
$GPGSA,A,3,14,32,11,20,01,17,,,,,,,3.6,1.9,3.1*3C
$GPRMC,194337.000,A,5229.6188,N,01319.4973,E,0.90,116.68,110912,,,A*66
$GPGGA,194338.000,5229.6187,N,01319.4962,E,1,06,1.9,76.8,M,44.8,M,,0000*60
$GPGSA,A,3,14,32,11,20,01,17,,,,,,,3.6,1.9,3.1*3C
$GPRMC,194341.000,A,5229.6176,N,01319.4936,E,1.05,161.14,110912,,,A*61
$GPGGA,194342.000,5229.6171,N,01319.4929,E,1,06,1.9,71.8,M,44.8,M,,0000*6C
$GPGSA,A,3,14,32,11,20,01,17,,,,,,,3.6,1.9,3.1*3C
$GPRMC,194345.000,A,5229.6162,N,01319.4912,E,0.81,143.44,110912,,,A*6E
$GPGGA,194346.000,5229.6158,N,01319.4904,E,1,05,3.1,68.5,M,44.8,M,,0000*60
$GPGSA,A,3,32,11,20,01,17,,,,,,,,5.1,3.1,4.0*34
$GPRMC,194346.000,A,5229.6158,N,01319.4904,E,1.05,199.99,110912,,,A*69
$GPGGA,194347.000,5229.6154,N,01319.4898,E,1,05,3.1,68.3,M,44.8,M,,0000*6F
$GPGSA,A,3,32,11,20,01,17,,,,,,,,5.1,3.1,4.0*34
$GPRMC,194347.000,A,5229.6154,N,01319.4898,E,1.31,183.53,110912,,,A*6A
$GPGGA,194348.000,5229.6152,N,01319.4894,E,1,06,1.9,68.4,M,44.8,M,,0000*64
$GPGSA,A,3,14,32,11,20,01,17,,,,,,,3.6,1.9,3.1*3C
$GPRMC,194349.000,A,5229.6150,N,01319.4886,E,1.11,222.95,110912,,,A*6F
$GPGGA,194350.000,5229.6147,N,01319.4874,E,1,06,1.9,69.1,M,44.8,M,,0000*63
$GPGSA,A,3,14,32,11,20,01,17,,,,,,,3.6,1.9,3.1*3C
$GPGSV,3,1,10,32,89,115,33,01,80,159,28,20,56,255,21,11,55,161,31*75
$GPGSV,3,2,10,17,32,306,23,14,23,044,16,23,18,195,,31,17,099,*78
$GPGSV,3,3,10,19,08,174,,28,05,269,*78
$GPRMC,194350.000,A,5229.6147,N,01319.4874,E,1.99,235.67,110912,,,A*67
$GPGGA,194351.000,5229.6144,N,01319.4860,E,1,06,1.9,69.8,M,44.8,M,,0000*6D
$GPGSA,A,3,14,32,11,20,01,17,,,,,,,3.6,1.9,3.1*3C
$GPRMC,194351.000,A,5229.6144,N,01319.4860,E,2.33,242.47,110912,,,A*61
$GPGGA,194352.000,5229.6143,N,01319.4852,E,1,06,1.9,70.7,M,44.8,M,,0000*6F
$GPGSA,A,3,14,32,11,20,01,17,,,,,,,3.6,1.9,3.1*3C
$GPRMC,194352.000,A,5229.6143,N,01319.4852,E,1.21,238.41,110912,,,A*6F
$GPGGA,194353.000,5229.6141,N,01319.4843,E,1,06,1.9,71.4,M,44.8,M,,0000*6E
$GPGSA,A,3,14,32,11,20,01,17,,,,,,,3.6,1.9,3.1*3C
$GPRMC,194353.000,A,5229.6141,N,01319.4843,E,1.70,232.07,110912,,,A*60
$GPGGA,194354.000,5229.6141,N,01319.4840,E,1,06,1.9,72.0,M,44.8,M,,0000*6D
$GPGSA,A,3,14,32,11,20,01,17,,,,,,,3.6,1.9,3.1*3C
$GPRMC,194356.000,A,5229.6149,N,01319.4840,E,1.27,36.76,110912,,,A*5C
$GPGGA,194357.000,5229.6154,N,01319.4843,E,1,06,1.9,72.1,M,44.8,M,,0000*68
$GPGSA,A,3,14,32,11,20,01,17,,,,,,,3.6,1.9,3.1*3C
$GPRMC,194357.000,A,5229.6154,N,01319.4843,E,1.58,35.41,110912,,,A*5D
$GPGGA,194358.000,5229.6160,N,01319.4843,E,1,06,1.9,71.9,M,44.8,M,,0000*6B
$GPGSA,A,3,14,32,11,20,01,17,,,,,,,3.6,1.9,3.1*3C
$GPRMC,194358.000,A,5229.6160,N,01319.4843,E,1.62,11.93,110912,,,A*55
$GPGGA,194359.000,5229.6165,N,01319.4844,E,1,06,1.9,71.6,M,44.8,M,,0000*67
$GPGSA,A,3,14,32,11,20,01,17,,,,,,,3.6,1.9,3.1*3C
$GPRMC,194359.000,A,5229.6165,N,01319.4844,E,1.35,16.75,110912,,,A*5B
$GPGGA,194400.000,5229.6168,N,01319.4843,E,1,06,1.9,71.4,M,44.8,M,,0000*64
$GPGSA,A,3,14,32,11,20,01,17,,,,,,,3.6,1.9,3.1*3C
$GPGSV,3,1,10,32,89,115,36,01,80,159,35,20,56,255,24,11,55,161,40*7F
$GPGSV,3,2,10,17,32,306,25,14,23,044,15,23,18,195,,31,17,099,*7D
$GPGSV,3,3,10,19,08,174,,28,05,269,*78
$GPRMC,194402.000,A,5229.6167,N,01319.4836,E,1.07,217.70,110912,,,A*62
$GPGGA,194403.000,5229.6166,N,01319.4829,E,1,05,2.3,71.2,M,44.8,M,,0000*69
$GPGSA,A,3,14,32,11,20,01,,,,,,,,4.1,2.3,3.3*31
$GPRMC,194403.000,A,5229.6166,N,01319.4829,E,1.29,242.56,110912,,,A*64
$GPGGA,194404.000,5229.6165,N,01319.4820,E,1,05,2.3,71.4,M,44.8,M,,0000*62
$GPGSA,A,3,14,32,11,20,01,,,,,,,,4.1,2.3,3.3*31
$GPRMC,194404.000,A,5229.6165,N,01319.4820,E,1.85,255.00,110912,,,A*6A
$GPGGA,194405.000,5229.6166,N,01319.4810,E,1,04,3.7,71.2,M,44.8,M,,0000*61
$GPGSA,A,3,14,32,11,01,,,,,,,,,3.8,3.7,1.0*39
$GPGSV,3,1,10,32,89,115,21,01,80,159,31,20,56,255,18,11,55,161,32*77
$GPGSV,3,2,10,17,32,306,,14,23,044,18,23,18,195,,31,17,099,*77
$GPGSV,3,3,10,19,08,174,,28,05,269,*78
$GPRMC,194405.000,A,5229.6166,N,01319.4810,E,2.13,270.24,110912,,,A*66
$GPGGA,194406.000,5229.6167,N,01319.4800,E,0,03,,71.0,M,44.8,M,,0000*4C
$GPGSA,A,1,32,11,01,,,,,,,,,,,,*1E
$GPRMC,194407.000,A,5229.6168,N,01319.4791,E,1.92,287.60,110912,,,A*6E
$GPGGA,194408.000,5229.6169,N,01319.4785,E,1,04,3.7,70.4,M,44.8,M,,0000*67
$GPGSA,A,3,14,32,11,01,,,,,,,,,3.8,3.7,1.0*39
$GPRMC,194408.000,A,5229.6169,N,01319.4785,E,1.15,281.48,110912,,,A*66
$GPGGA,194409.000,5229.6171,N,01319.4783,E,1,04,2.4,70.2,M,44.8,M,,0000*6D
$GPGSA,A,3,14,11,01,17,,,,,,,,,5.0,2.4,4.4*33
$GPRMC,194412.000,A,5229.6170,N,01319.4786,E,1.47,151.54,110912,,,A*62
$GPGGA,194413.000,5229.6166,N,01319.4791,E,1,04,5.8,68.4,M,44.8,M,,0000*67
$GPGSA,A,3,32,11,01,17,,,,,,,,,5.9,5.8,1.0*34
$GPRMC,194413.000,A,5229.6166,N,01319.4791,E,1.54,142.16,110912,,,A*64
$GPGGA,194414.000,5229.6163,N,01319.4795,E,1,04,2.1,68.1,M,44.8,M,,0000*6A
$GPGSA,A,3,14,32,11,17,,,,,,,,,4.1,2.1,3.5*30
$GPRMC,194414.000,A,5229.6163,N,01319.4795,E,1.45,151.16,110912,,,A*60
$GPGGA,194415.000,5229.6159,N,01319.4802,E,1,04,2.4,67.9,M,44.8,M,,0000*61
$GPGSA,A,3,14,11,01,17,,,,,,,,,5.0,2.4,4.4*33
$GPGSV,3,1,10,32,89,115,15,01,80,159,18,20,56,255,,11,55,161,22*73
$GPGSV,3,2,10,17,32,306,17,14,23,044,15,23,18,195,,31,17,099,*7C
$GPGSV,3,3,10,19,08,174,,28,05,269,*78
$GPRMC,194415.000,A,5229.6159,N,01319.4802,E,1.91,149.18,110912,,,A*67
$GPGGA,194416.000,5229.6154,N,01319.4807,E,1,05,2.0,67.7,M,44.8,M,,0000*61
$GPGSA,A,3,14,32,11,01,17,,,,,,,,3.7,2.0,3.1*35
$GPRMC,194416.000,A,5229.6154,N,01319.4807,E,2.23,167.93,110912,,,A*69
$GPGGA,194417.000,5229.6147,N,01319.4811,E,1,05,2.0,67.5,M,44.8,M,,0000*67
$GPGSA,A,3,14,32,11,01,17,,,,,,,,3.7,2.0,3.1*35
$GPRMC,194417.000,A,5229.6147,N,01319.4811,E,2.69,170.34,110912,,,A*68
$GPGGA,194418.000,5229.6139,N,01319.4813,E,1,05,2.0,67.2,M,44.8,M,,0000*64
$GPGSA,A,3,14,32,11,01,17,,,,,,,,3.7,2.0,3.1*35
$GPRMC,194418.000,A,5229.6139,N,01319.4813,E,2.83,184.04,110912,,,A*60
$GPGGA,194419.000,5229.6131,N,01319.4811,E,1,04,2.4,66.7,M,44.8,M,,0000*6E
$GPGSA,A,3,14,11,01,17,,,,,,,,,5.0,2.4,4.4*33
$GPRMC,194419.000,A,5229.6131,N,01319.4811,E,2.88,195.92,110912,,,A*6F
$GPGGA,194420.000,5229.6125,N,01319.4808,E,1,03,6.1,66.4,M,44.8,M,,0000*6C
$GPGSA,A,2,32,11,17,,,,,,,,,,6.2,6.1,1.0*36
$GPGSV,3,1,10,32,89,115,15,01,80,159,18,20,56,255,,11,55,161,22*73
$GPGSV,3,2,10,17,32,306,17,14,23,044,,23,18,195,,31,17,099,*78
$GPGSV,3,3,10,19,08,174,,28,05,269,*78
$GPRMC,194420.000,A,5229.6125,N,01319.4808,E,2.75,208.17,110912,,,A*60
$GPGGA,194421.000,5229.6122,N,01319.4799,E,1,03,6.1,66.3,M,44.8,M,,0000*6A
$GPGSA,A,2,32,11,17,,,,,,,,,,6.2,6.1,1.0*36
$GPRMC,194421.000,A,5229.6122,N,01319.4799,E,2.65,241.54,110912,,,A*6A
$GPGGA,194422.000,5229.6119,N,01319.4789,E,0,00,,66.2,M,44.8,M,,0000*4A
$GPGSA,A,1,,,,,,,,,,,,,,,*1E
$GPRMC,194426.000,A,5229.6096,N,01319.4762,E,2.06,210.87,110912,,,A*68
$GPGGA,194427.000,5229.6092,N,01319.4760,E,1,04,5.8,64.7,M,44.8,M,,0000*6B
$GPGSA,A,3,32,11,01,17,,,,,,,,,5.9,5.8,1.0*34
$GPRMC,194427.000,A,5229.6092,N,01319.4760,E,2.16,196.77,110912,,,A*6C
$GPGGA,194428.000,5229.6088,N,01319.4755,E,1,04,5.8,64.6,M,44.8,M,,0000*68
$GPGSA,A,3,32,11,01,17,,,,,,,,,5.9,5.8,1.0*34
$GPRMC,194428.000,A,5229.6088,N,01319.4755,E,2.73,205.48,110912,,,A*68
$GPGGA,194429.000,5229.6083,N,01319.4749,E,0,00,,64.5,M,44.8,M,,0000*4A
$GPGSA,A,1,,,,,,,,,,,,,,,*1E
$GPRMC,194525.000,A,5229.5784,N,01319.4468,E,4.43,2.40,110912,,,A*69
$GPGGA,194526.000,5229.5859,N,01319.4531,E,1,03,8.5,62.8,M,44.8,M,,0000*6F
$GPGSA,A,2,11,01,17,,,,,,,,,,8.5,8.5,1.0*35
$GPRMC,194526.000,A,5229.5859,N,01319.4531,E,6.06,27.18,110912,,,A*51
$GPGGA,194527.000,5229.5925,N,01319.4599,E,1,03,8.5,63.0,M,44.8,M,,0000*6F
$GPGSA,A,2,11,01,17,,,,,,,,,,8.5,8.5,1.0*35
$GPRMC,194527.000,A,5229.5925,N,01319.4599,E,6.04,46.86,110912,,,A*5A
$GPGGA,194528.000,5229.5982,N,01319.4663,E,1,03,8.5,63.1,M,44.8,M,,0000*6A
$GPGSA,A,2,11,01,17,,,,,,,,,,8.5,8.5,1.0*35
$GPRMC,194528.000,A,5229.5982,N,01319.4663,E,5.76,58.80,110912,,,A*51
$GPGGA,194529.000,5229.6035,N,01319.4724,E,0,00,,63.3,M,44.8,M,,0000*4C
$GPGSA,A,1,,,,,,,,,,,,,,,*1E
$GPRMC,194530.000,A,5229.6094,N,01319.4764,E,6.30,16.34,110912,,,A*57
$GPGGA,194531.000,5229.6106,N,01319.4719,E,1,04,3.6,66.1,M,44.8,M,,0000*63
$GPGSA,A,3,11,01,20,17,,,,,,,,,6.0,3.6,4.7*37
$GPRMC,194531.000,A,5229.6106,N,01319.4719,E,5.25,256.23,110912,,,A*61
$GPGGA,194532.000,5229.6098,N,01319.4654,E,1,04,3.6,69.2,M,44.8,M,,0000*62
$GPGSA,A,3,11,01,20,17,,,,,,,,,6.0,3.6,4.7*37
$GPRMC,194532.000,A,5229.6098,N,01319.4654,E,7.25,230.20,110912,,,A*6D
$GPGGA,194533.000,5229.6079,N,01319.4584,E,1,05,3.2,71.9,M,44.8,M,,0000*65
$GPGSA,A,3,11,32,01,20,17,,,,,,,,5.1,3.2,4.0*37
$GPRMC,194533.000,A,5229.6079,N,01319.4584,E,8.46,222.73,110912,,,A*62
$GPGGA,194534.000,5229.6057,N,01319.4512,E,1,04,3.6,74.4,M,44.8,M,,0000*6C
$GPGSA,A,3,11,01,20,17,,,,,,,,,6.0,3.6,4.7*37
$GPRMC,194534.000,A,5229.6057,N,01319.4512,E,9.12,223.35,110912,,,A*65
$GPGGA,194535.000,5229.6032,N,01319.4443,E,1,03,8.5,75.9,M,44.8,M,,0000*68
$GPGSA,A,2,11,01,17,,,,,,,,,,8.5,8.5,1.0*35
$GPGSV,3,1,10,32,89,115,,01,80,159,26,20,56,255,,11,55,161,25*7D
$GPGSV,3,2,10,17,32,306,17,14,23,044,,23,18,195,,31,17,099,*78
$GPGSV,3,3,10,19,08,174,,28,05,269,*78
$GPRMC,194535.000,A,5229.6032,N,01319.4443,E,9.48,219.89,110912,,,A*63
$GPGGA,194536.000,5229.6005,N,01319.4379,E,1,03,8.4,76.9,M,44.8,M,,0000*63
$GPGSA,A,2,11,01,17,,,,,,,,,,8.5,8.4,1.0*34
$GPRMC,194536.000,A,5229.6005,N,01319.4379,E,9.51,215.13,110912,,,A*6D
$GPGGA,194537.000,5229.5974,N,01319.4316,E,1,03,8.4,77.6,M,44.8,M,,0000*69
$GPGSA,A,2,11,01,17,,,,,,,,,,8.5,8.4,1.0*34
$GPRMC,194537.000,A,5229.5974,N,01319.4316,E,10.31,214.86,110912,,,A*5A
$GPGGA,194538.000,5229.5944,N,01319.4251,E,1,03,8.4,77.9,M,44.8,M,,0000*68
$GPGSA,A,2,11,01,17,,,,,,,,,,8.5,8.4,1.0*34
$GPRMC,194538.000,A,5229.5944,N,01319.4251,E,10.73,219.71,110912,,,A*57
$GPGGA,194539.000,5229.5912,N,01319.4182,E,1,03,8.4,78.0,M,44.8,M,,0000*61
$GPGSA,A,2,11,01,17,,,,,,,,,,8.5,8.4,1.0*34
$GPRMC,194539.000,A,5229.5912,N,01319.4182,E,11.81,222.26,110912,,,A*5E
$GPGGA,194540.000,5229.5883,N,01319.4115,E,1,03,8.4,78.0,M,44.8,M,,0000*68
$GPGSA,A,2,11,01,17,,,,,,,,,,8.5,8.4,1.0*34
$GPGSV,3,1,10,32,89,115,,01,80,159,26,20,56,255,,11,55,161,25*7D
$GPGSV,3,2,10,17,32,306,16,14,23,044,,23,18,195,,31,17,099,*79
$GPGSV,3,3,10,19,08,174,,28,05,269,*78
$GPRMC,194540.000,A,5229.5883,N,01319.4115,E,11.35,225.29,110912,,,A*50
$GPGGA,194541.000,5229.5859,N,01319.4054,E,1,03,8.4,78.0,M,44.8,M,,0000*6A
$GPGSA,A,2,11,01,17,,,,,,,,,,8.5,8.4,1.0*34
$GPRMC,194541.000,A,5229.5859,N,01319.4054,E,9.91,229.92,110912,,,A*69
$GPGGA,194542.000,5229.5844,N,01319.4005,E,1,03,8.4,78.1,M,44.8,M,,0000*60
$GPGSA,A,2,11,01,17,,,,,,,,,,8.5,8.4,1.0*34
$GPRMC,194542.000,A,5229.5844,N,01319.4005,E,7.12,234.75,110912,,,A*62
$GPGGA,194543.000,5229.5829,N,01319.3960,E,0,00,,78.3,M,44.8,M,,0000*45
$GPGSA,A,1,,,,,,,,,,,,,,,*1E
$GPRMC,194603.000,A,5229.5804,N,01319.3783,E,3.83,106.42,110912,,,A*64
$GPGGA,194604.000,5229.5799,N,01319.3811,E,1,03,5.7,78.6,M,44.8,M,,0000*6D
$GPGSA,A,2,11,32,17,,,,,,,,,,5.7,5.7,1.0*35
$GPRMC,194604.000,A,5229.5799,N,01319.3811,E,5.52,116.48,110912,,,A*6D
$GPGGA,194605.000,5229.5795,N,01319.3841,E,1,03,5.6,78.5,M,44.8,M,,0000*67
$GPGSA,A,2,11,32,17,,,,,,,,,,5.7,5.6,1.0*34
$GPGSV,3,1,10,32,89,115,16,01,80,159,17,20,56,255,17,11,55,161,17*7F
$GPGSV,3,2,10,17,32,306,18,14,23,044,15,23,18,195,,31,17,099,*73
$GPGSV,3,3,10,19,08,174,,28,05,269,*78
$GPRMC,194605.000,A,5229.5795,N,01319.3841,E,5.75,115.95,110912,,,A*63
$GPGGA,194606.000,5229.5795,N,01319.3868,E,1,03,5.6,78.6,M,44.8,M,,0000*6C
$GPGSA,A,2,11,32,17,,,,,,,,,,5.7,5.6,1.0*34
$GPRMC,194606.000,A,5229.5795,N,01319.3868,E,5.17,114.20,110912,,,A*60
$GPGGA,194607.000,5229.5794,N,01319.3894,E,0,00,,78.7,M,44.8,M,,0000*41
$GPGSA,A,1,,,,,,,,,,,,,,,*1E
$GPRMC,194619.000,A,5229.5812,N,01319.4176,E,9.39,15.49,110912,,,A*50
$GPGGA,194620.000,5229.5858,N,01319.4194,E,1,04,3.2,78.0,M,44.8,M,,0000*68
$GPGSA,A,3,11,32,20,17,,,,,,,,,5.3,3.2,4.2*36
$GPGSV,3,1,10,32,89,115,17,01,80,159,,20,56,255,16,11,55,161,16*78
$GPGSV,3,2,10,17,32,306,17,14,23,044,,23,18,195,,31,17,099,*78
$GPGSV,3,3,10,19,08,174,,28,05,269,*78
$GPRMC,194620.000,A,5229.5858,N,01319.4194,E,10.00,22.71,110912,,,A*65
$GPGGA,194621.000,5229.5905,N,01319.4218,E,1,04,3.2,76.1,M,44.8,M,,0000*68
$GPGSA,A,3,11,32,20,17,,,,,,,,,5.3,3.2,4.2*36
$GPRMC,194621.000,A,5229.5905,N,01319.4218,E,9.95,24.78,110912,,,A*51
$GPGGA,194622.000,5229.5959,N,01319.4269,E,1,04,1.4,72.9,M,44.8,M,,0000*6C
$GPGSA,A,3,11,20,14,17,,,,,,,,,1.8,1.4,1.0*3E
$GPRMC,194622.000,A,5229.5959,N,01319.4269,E,11.89,36.04,110912,,,A*61
$GPGGA,194623.000,5229.6008,N,01319.4327,E,1,04,1.4,70.0,M,44.8,M,,0000*63
$GPGSA,A,3,11,20,14,17,,,,,,,,,1.8,1.4,1.0*3E
$GPRMC,194623.000,A,5229.6008,N,01319.4327,E,12.68,44.91,110912,,,A*60
$GPGGA,194624.000,5229.6052,N,01319.4386,E,1,04,1.4,67.7,M,44.8,M,,0000*61
$GPGSA,A,3,11,20,14,17,,,,,,,,,1.8,1.4,1.0*3E
$GPRMC,194624.000,A,5229.6052,N,01319.4386,E,12.72,51.26,110912,,,A*60
$GPGGA,194625.000,5229.6091,N,01319.4446,E,1,04,1.4,65.5,M,44.8,M,,0000*64
$GPGSA,A,3,11,20,14,17,,,,,,,,,1.8,1.4,1.0*3E
$GPGSV,3,1,10,32,89,115,17,01,80,159,,20,56,255,15,11,55,161,15*78
$GPGSV,3,2,10,17,32,306,16,14,23,044,14,23,18,195,,31,17,099,*7C
$GPGSV,3,3,10,19,08,174,,28,05,269,*78
$GPRMC,194625.000,A,5229.6091,N,01319.4446,E,12.83,55.30,110912,,,A*68
$GPGGA,194626.000,5229.6128,N,01319.4506,E,0,00,,63.6,M,44.8,M,,0000*4A
$GPGSA,A,1,,,,,,,,,,,,,,,*1E
$GPRMC,194643.000,A,5229.6542,N,01319.5276,E,1.27,56.09,110912,,,A*52
$GPGGA,194644.000,5229.6535,N,01319.5267,E,1,04,3.3,44.8,M,44.8,M,,0000*67
$GPGSA,A,3,01,32,20,17,,,,,,,,,3.4,3.3,1.0*30
$GPRMC,194644.000,A,5229.6535,N,01319.5267,E,1.30,84.10,110912,,,A*54
$GPGGA,194645.000,5229.6531,N,01319.5254,E,1,04,3.3,45.6,M,44.8,M,,0000*6D
$GPGSA,A,3,01,32,20,17,,,,,,,,,3.4,3.3,1.0*30
$GPGSV,3,1,10,32,87,084,20,01,79,156,19,20,57,256,23,11,54,161,*78
$GPGSV,3,2,10,17,33,304,16,14,22,044,,23,20,195,,31,18,098,*7E
$GPGSV,3,3,10,19,07,173,,28,04,268,*70
$GPRMC,194645.000,A,5229.6531,N,01319.5254,E,1.29,30.83,110912,,,A*5C
$GPGGA,194646.000,5229.6520,N,01319.5228,E,1,03,8.6,46.5,M,44.8,M,,0000*6C
$GPGSA,A,2,01,32,20,,,,,,,,,,8.7,8.6,1.0*31
$GPRMC,194646.000,A,5229.6520,N,01319.5228,E,0.98,256.29,110912,,,A*6D
$GPGGA,194647.000,5229.6502,N,01319.5189,E,1,03,8.6,47.6,M,44.8,M,,0000*67
$GPGSA,A,2,01,32,20,,,,,,,,,,8.7,8.6,1.0*31
$GPRMC,194647.000,A,5229.6502,N,01319.5189,E,2.34,242.92,110912,,,A*65
$GPGGA,194648.000,5229.6488,N,01319.5147,E,1,04,3.3,48.7,M,44.8,M,,0000*6E
$GPGSA,A,3,01,32,20,17,,,,,,,,,3.4,3.3,1.0*30
$GPRMC,194648.000,A,5229.6488,N,01319.5147,E,3.06,272.07,110912,,,A*64
$GPGGA,194649.000,5229.6474,N,01319.5108,E,1,03,8.6,49.6,M,44.8,M,,0000*6E
$GPGSA,A,2,01,32,20,,,,,,,,,,8.6,8.6,1.0*30
$GPRMC,194649.000,A,5229.6474,N,01319.5108,E,2.70,262.11,110912,,,A*6B
$GPGGA,194650.000,5229.6457,N,01319.5075,E,1,03,8.6,50.4,M,44.8,M,,0000*66
$GPGSA,A,2,01,32,20,,,,,,,,,,8.6,8.6,1.0*30
$GPGSV,3,1,10,32,87,084,20,01,79,156,19,20,57,256,23,11,54,161,*78
$GPGSV,3,2,10,17,33,304,16,14,22,044,,23,20,195,,31,18,098,*7E
$GPGSV,3,3,10,19,07,173,,28,04,268,*70
$GPRMC,194650.000,A,5229.6457,N,01319.5075,E,2.15,239.75,110912,,,A*66
$GPGGA,194651.000,5229.6441,N,01319.5042,E,1,03,8.6,51.1,M,44.8,M,,0000*60
$GPGSA,A,2,01,32,20,,,,,,,,,,8.6,8.6,1.0*30
$GPRMC,194651.000,A,5229.6441,N,01319.5042,E,1.79,243.64,110912,,,A*60
$GPGGA,194652.000,5229.6426,N,01319.5010,E,1,04,3.3,51.8,M,44.8,M,,0000*65
$GPGSA,A,3,01,32,20,17,,,,,,,,,3.4,3.3,1.0*30
$GPRMC,194652.000,A,5229.6426,N,01319.5010,E,1.78,263.29,110912,,,A*6F
$GPGGA,194653.000,5229.6415,N,01319.4981,E,1,04,3.3,52.3,M,44.8,M,,0000*6C
$GPGSA,A,3,01,32,20,17,,,,,,,,,3.4,3.3,1.0*30
$GPRMC,194653.000,A,5229.6415,N,01319.4981,E,1.92,312.39,110912,,,A*6C
$GPGGA,194654.000,5229.6407,N,01319.4959,E,1,04,3.3,52.6,M,44.8,M,,0000*68
$GPGSA,A,3,01,32,20,17,,,,,,,,,3.4,3.3,1.0*30
$GPRMC,194654.000,A,5229.6407,N,01319.4959,E,1.28,342.07,110912,,,A*64
$GPGGA,194655.000,5229.6398,N,01319.4947,E,1,04,3.3,52.6,M,44.8,M,,0000*67
$GPGSA,A,3,01,32,20,17,,,,,,,,,3.4,3.3,1.0*30
$GPGSV,3,1,10,32,87,084,20,01,79,156,19,20,57,256,23,11,54,161,*78
$GPGSV,3,2,10,17,33,304,17,14,22,044,,23,20,195,,31,18,098,*7F
$GPGSV,3,3,10,19,07,173,,28,04,268,*70
$GPRMC,194655.000,A,5229.6398,N,01319.4947,E,1.29,63.12,110912,,,A*5E
$GPGGA,194656.000,5229.6386,N,01319.4937,E,1,04,3.3,52.5,M,44.8,M,,0000*6F
$GPGSA,A,3,01,32,20,17,,,,,,,,,3.4,3.3,1.0*30
$GPRMC,194656.000,A,5229.6386,N,01319.4937,E,1.56,104.23,110912,,,A*6F
$GPGGA,194657.000,5229.6375,N,01319.4920,E,1,04,3.3,52.2,M,44.8,M,,0000*63
$GPGSA,A,3,01,32,20,17,,,,,,,,,3.4,3.3,1.0*30
$GPRMC,194702.000,A,5229.6325,N,01319.4841,E,1.47,261.17,110912,,,A*61
$GPGGA,194703.000,5229.6314,N,01319.4822,E,1,03,8.5,48.9,M,44.8,M,,0000*6D
$GPGSA,A,2,01,32,20,,,,,,,,,,8.5,8.5,1.0*30
$GPRMC,194703.000,A,5229.6314,N,01319.4822,E,1.99,248.46,110912,,,A*6B
$GPGGA,194704.000,5229.6301,N,01319.4802,E,1,03,8.5,48.3,M,44.8,M,,0000*66
$GPGSA,A,2,01,32,20,,,,,,,,,,8.5,8.5,1.0*30
$GPRMC,194704.000,A,5229.6301,N,01319.4802,E,2.45,231.94,110912,,,A*69
$GPGGA,194705.000,5229.6286,N,01319.4783,E,1,03,8.5,47.6,M,44.8,M,,0000*65
$GPGSA,A,2,01,32,20,,,,,,,,,,8.5,8.5,1.0*30
$GPGSV,3,1,10,32,87,084,20,01,79,156,18,20,57,256,23,11,54,161,*79
$GPGSV,3,2,10,17,33,304,17,14,22,044,,23,20,195,,31,18,098,*7F
$GPGSV,3,3,10,19,07,173,,28,04,268,*70
$GPRMC,194705.000,A,5229.6286,N,01319.4783,E,2.74,225.84,110912,,,A*66
$GPGGA,194706.000,5229.6272,N,01319.4762,E,1,03,8.5,47.0,M,44.8,M,,0000*64
$GPGSA,A,2,01,32,20,,,,,,,,,,8.5,8.5,1.0*30
$GPRMC,194706.000,A,5229.6272,N,01319.4762,E,2.83,233.21,110912,,,A*61
$GPGGA,194707.000,5229.6258,N,01319.4739,E,1,03,8.4,46.2,M,44.8,M,,0000*61
$GPGSA,A,2,01,32,20,,,,,,,,,,8.5,8.4,1.0*31
$GPRMC,194707.000,A,5229.6258,N,01319.4739,E,3.06,241.65,110912,,,A*6F
$GPGGA,194708.000,5229.6244,N,01319.4715,E,1,03,8.4,45.5,M,44.8,M,,0000*69
$GPGSA,A,2,01,32,20,,,,,,,,,,8.5,8.4,1.0*31
$GPRMC,194708.000,A,5229.6244,N,01319.4715,E,3.16,243.46,110912,,,A*61
$GPGGA,194709.000,5229.6229,N,01319.4698,E,1,03,8.4,44.6,M,44.8,M,,0000*65
$GPGSA,A,2,01,32,20,,,,,,,,,,8.5,8.4,1.0*31
$GPRMC,194709.000,A,5229.6229,N,01319.4698,E,2.44,222.81,110912,,,A*65
$GPGGA,194710.000,5229.6214,N,01319.4685,E,1,04,3.3,43.7,M,44.8,M,,0000*62
$GPGSA,A,3,01,32,20,17,,,,,,,,,3.4,3.3,1.0*30
$GPGSV,3,1,10,32,87,084,20,01,79,156,17,20,57,256,22,11,54,161,*77
$GPGSV,3,2,10,17,33,304,18,14,22,044,,23,20,195,,31,18,098,*70
$GPGSV,3,3,10,19,07,173,,28,04,268,*70
$GPRMC,194710.000,A,5229.6214,N,01319.4685,E,2.23,198.06,110912,,,A*63
$GPGGA,194711.000,5229.6195,N,01319.4673,E,1,04,3.3,42.8,M,44.8,M,,0000*6E
$GPGSA,A,3,01,32,20,17,,,,,,,,,3.4,3.3,1.0*30
$GPRMC,194711.000,A,5229.6195,N,01319.4673,E,3.57,190.37,110912,,,A*69
$GPGGA,194712.000,5229.6177,N,01319.4661,E,0,00,,41.8,M,44.8,M,,0000*4A
$GPGSA,A,1,,,,,,,,,,,,,,,*1E
$GPRMC,194715.000,A,5229.6144,N,01319.4622,E,2.92,309.92,110912,,,A*60
$GPGGA,194716.000,5229.6148,N,01319.4605,E,0,00,,38.7,M,44.8,M,,0000*41
$GPGSA,A,1,,,,,,,,,,,,,,,*1E
$GPRMC,194718.000,A,5229.6171,N,01319.4566,E,7.31,332.24,110912,,,A*61
$GPGGA,194719.000,5229.6189,N,01319.4548,E,1,03,3.4,37.2,M,44.8,M,,0000*68
$GPGSA,A,2,32,20,17,,,,,,,,,,3.6,3.4,1.0*35
$GPRMC,194719.000,A,5229.6189,N,01319.4548,E,6.82,334.26,110912,,,A*66
$GPGGA,194720.000,5229.6198,N,01319.4527,E,1,03,3.4,36.9,M,44.8,M,,0000*61
$GPGSA,A,2,32,20,17,,,,,,,,,,3.6,3.4,1.0*35
$GPGSV,3,1,10,32,87,084,20,01,79,156,,20,57,256,22,11,54,161,*71
$GPGSV,3,2,10,17,33,304,19,14,22,044,,23,20,195,,31,18,098,*71
$GPGSV,3,3,10,19,07,173,,28,04,268,*70
$GPRMC,194720.000,A,5229.6198,N,01319.4527,E,4.64,321.51,110912,,,A*6B
$GPGGA,194721.000,5229.6206,N,01319.4507,E,1,03,3.4,36.7,M,44.8,M,,0000*68
$GPGSA,A,2,32,20,17,,,,,,,,,,3.6,3.4,1.0*35
$GPRMC,194721.000,A,5229.6206,N,01319.4507,E,4.54,322.49,110912,,,A*65
$GPGGA,194722.000,5229.6210,N,01319.4495,E,1,04,3.2,36.1,M,44.8,M,,0000*61
$GPGSA,A,3,32,11,20,17,,,,,,,,,5.3,3.2,4.2*36
$GPRMC,194722.000,A,5229.6210,N,01319.4495,E,2.73,327.29,110912,,,A*6B
$GPGGA,194723.000,5229.6211,N,01319.4492,E,1,03,3.4,35.7,M,44.8,M,,0000*62
$GPGSA,A,2,32,20,17,,,,,,,,,,3.6,3.4,1.0*35
$GPRMC,194723.000,A,5229.6211,N,01319.4492,E,1.08,4.34,110912,,,A*6D
$GPGGA,194724.000,5229.6206,N,01319.4492,E,1,03,3.4,35.4,M,44.8,M,,0000*60
$GPGSA,A,2,32,20,17,,,,,,,,,,3.6,3.4,1.0*35
$GPRMC,194724.000,A,5229.6206,N,01319.4492,E,1.11,132.51,110912,,,A*63
$GPGGA,194725.000,5229.6200,N,01319.4490,E,1,03,3.4,35.1,M,44.8,M,,0000*60
$GPGSA,A,2,32,20,17,,,,,,,,,,3.6,3.4,1.0*35
$GPGSV,3,1,10,32,87,084,20,01,79,156,,20,57,256,23,11,54,161,17*76
$GPGSV,3,2,10,17,33,304,19,14,22,044,,23,20,195,,31,18,098,*71
$GPGSV,3,3,10,19,07,173,,28,04,268,*70
$GPRMC,194725.000,A,5229.6200,N,01319.4490,E,1.32,157.90,110912,,,A*69
$GPGGA,194726.000,5229.6193,N,01319.4483,E,1,03,3.4,34.9,M,44.8,M,,0000*61
$GPGSA,A,2,32,20,17,,,,,,,,,,3.6,3.4,1.0*35
$GPRMC,194726.000,A,5229.6193,N,01319.4483,E,1.40,190.91,110912,,,A*6E
$GPGGA,194727.000,5229.6189,N,01319.4481,E,1,03,3.4,34.7,M,44.8,M,,0000*67
$GPGSA,A,2,32,20,17,,,,,,,,,,3.6,3.4,1.0*35
$GPRMC,194728.000,A,5229.6189,N,01319.4483,E,1.81,54.37,110912,,,A*53
$GPGGA,194729.000,5229.6187,N,01319.4484,E,1,03,3.4,34.8,M,44.8,M,,0000*6D
$GPGSA,A,2,32,20,17,,,,,,,,,,3.6,3.4,1.0*35
$GPRMC,194729.000,A,5229.6187,N,01319.4484,E,0.94,75.90,110912,,,A*50
$GPGGA,194730.000,5229.6184,N,01319.4487,E,1,03,3.4,34.8,M,44.8,M,,0000*65
$GPGSA,A,2,32,20,17,,,,,,,,,,3.6,3.4,1.0*35
$GPGSV,3,1,10,32,87,084,20,01,79,156,,20,57,256,22,11,54,161,18*78
$GPGSV,3,2,10,17,33,304,19,14,22,044,,23,20,195,,31,18,098,*71
$GPGSV,3,3,10,19,07,173,,28,04,268,*70
$GPRMC,194730.000,A,5229.6184,N,01319.4487,E,1.15,111.63,110912,,,A*6F
$GPGGA,194731.000,5229.6185,N,01319.4492,E,1,03,3.4,34.9,M,44.8,M,,0000*60
$GPGSA,A,2,32,20,17,,,,,,,,,,3.6,3.4,1.0*35
$GPRMC,194731.000,A,5229.6185,N,01319.4492,E,1.57,54.30,110912,,,A*5B
$GPGGA,194732.000,5229.6194,N,01319.4501,E,1,03,3.4,34.9,M,44.8,M,,0000*68
$GPGSA,A,2,32,20,17,,,,,,,,,,3.6,3.4,1.0*35
$GPRMC,194732.000,A,5229.6194,N,01319.4501,E,3.14,31.66,110912,,,A*56
$GPGGA,194733.000,5229.6202,N,01319.4512,E,1,03,3.4,35.0,M,44.8,M,,0000*6F
$GPGSA,A,2,32,20,17,,,,,,,,,,3.6,3.4,1.0*35
$GPRMC,194733.000,A,5229.6202,N,01319.4512,E,2.99,33.05,110912,,,A*5A
$GPGGA,194734.000,5229.6205,N,01319.4516,E,1,03,3.4,35.1,M,44.8,M,,0000*6A
$GPGSA,A,2,32,20,17,,,,,,,,,,3.6,3.4,1.0*35
$GPRMC,194734.000,A,5229.6205,N,01319.4516,E,0.89,42.47,110912,,,A*5D
$GPGGA,194735.000,5229.6207,N,01319.4517,E,1,03,3.5,35.2,M,44.8,M,,0000*6A
$GPGSA,A,2,32,20,17,,,,,,,,,,3.6,3.5,1.0*34
$GPGSV,3,1,10,32,87,084,19,01,79,156,,20,57,256,22,11,54,161,19*73
$GPGSV,3,2,10,17,33,304,20,14,22,044,,23,20,195,,31,18,098,*7B
$GPGSV,3,3,10,19,07,173,,28,04,268,*70
$GPRMC,194736.000,A,5229.6212,N,01319.4514,E,1.44,332.70,110912,,,A*6B
$GPGGA,194737.000,5229.6216,N,01319.4508,E,1,03,3.5,34.8,M,44.8,M,,0000*6D
$GPGSA,A,2,32,20,17,,,,,,,,,,3.6,3.5,1.0*34
$GPRMC,194737.000,A,5229.6216,N,01319.4508,E,1.47,317.68,110912,,,A*6E
$GPGGA,194738.000,5229.6217,N,01319.4498,E,1,03,3.5,34.4,M,44.8,M,,0000*67
$GPGSA,A,2,32,20,17,,,,,,,,,,3.6,3.5,1.0*34
$GPRMC,194738.000,A,5229.6217,N,01319.4498,E,1.74,272.20,110912,,,A*66
$GPGGA,194739.000,5229.6214,N,01319.4489,E,1,04,3.2,33.8,M,44.8,M,,0000*6E
$GPGSA,A,3,32,11,20,17,,,,,,,,,5.3,3.2,4.2*36
$GPRMC,194739.000,A,5229.6214,N,01319.4489,E,2.32,230.26,110912,,,A*65
$GPGGA,194740.000,5229.6210,N,01319.4487,E,1,05,1.9,32.7,M,44.8,M,,0000*6C
$GPGSA,A,3,32,11,20,14,17,,,,,,,,3.8,1.9,3.3*31
$GPGSV,3,1,10,32,87,084,19,01,79,156,,20,57,256,22,11,54,161,19*73
$GPGSV,3,2,10,17,33,304,20,14,22,044,17,23,20,195,,31,18,098,*7D
$GPGSV,3,3,10,19,07,173,,28,04,268,*70
$GPRMC,194740.000,A,5229.6210,N,01319.4487,E,1.44,213.73,110912,,,A*62
$GPGGA,194741.000,5229.6206,N,01319.4490,E,1,05,1.9,31.3,M,44.8,M,,0000*6B
$GPGSA,A,3,32,11,20,14,17,,,,,,,,3.8,1.9,3.3*31
$GPRMC,194743.000,A,5229.6199,N,01319.4505,E,1.24,86.34,110912,,,A*53
$GPGGA,194744.000,5229.6193,N,01319.4516,E,1,05,1.9,25.5,M,44.8,M,,0000*6D
$GPGSA,A,3,32,11,20,14,17,,,,,,,,3.8,1.9,3.3*31
$GPRMC,194744.000,A,5229.6193,N,01319.4516,E,1.74,100.25,110912,,,A*66
$GPGGA,194745.000,5229.6186,N,01319.4525,E,1,05,1.9,23.5,M,44.8,M,,0000*6E
$GPGSA,A,3,32,11,20,14,17,,,,,,,,3.8,1.9,3.3*31
$GPGSV,3,1,10,32,87,084,18,01,79,156,,20,57,256,22,11,54,161,20*78
$GPGSV,3,2,10,17,33,304,20,14,22,044,17,23,20,195,,31,18,098,*7D
$GPGSV,3,3,10,19,07,173,,28,04,268,*70
$GPRMC,194745.000,A,5229.6186,N,01319.4525,E,1.14,99.87,110912,,,A*5C
$GPGGA,194746.000,5229.6180,N,01319.4532,E,1,05,1.9,22.0,M,44.8,M,,0000*69
$GPGSA,A,3,32,11,20,14,17,,,,,,,,3.8,1.9,3.3*31
$GPRMC,194746.000,A,5229.6180,N,01319.4532,E,0.93,126.27,110912,,,A*6E
$GPGGA,194747.000,5229.6174,N,01319.4536,E,1,04,1.4,20.8,M,44.8,M,,0000*61
$GPGSA,A,3,11,20,14,17,,,,,,,,,1.8,1.4,1.0*3E
$GPRMC,194748.000,A,5229.6171,N,01319.4535,E,1.04,278.12,110912,,,A*68
$GPGGA,194749.000,5229.6166,N,01319.4532,E,1,04,1.4,19.2,M,44.8,M,,0000*68
$GPGSA,A,3,11,20,14,17,,,,,,,,,1.8,1.4,1.0*3E
$GPRMC,194749.000,A,5229.6166,N,01319.4532,E,1.30,255.40,110912,,,A*67
$GPGGA,194750.000,5229.6160,N,01319.4532,E,1,03,5.0,18.6,M,44.8,M,,0000*64
$GPGSA,A,2,11,20,17,,,,,,,,,,5.1,5.0,1.0*37
$GPGSV,3,1,10,32,87,084,18,01,79,156,,20,57,256,22,11,54,161,21*79
$GPGSV,3,2,10,17,33,304,20,14,22,044,16,23,20,195,,31,18,098,*7C
$GPGSV,3,3,10,19,07,173,,28,04,268,*70
$GPRMC,194750.000,A,5229.6160,N,01319.4532,E,1.49,210.38,110912,,,A*69
$GPGGA,194751.000,5229.6156,N,01319.4531,E,1,04,3.2,18.4,M,44.8,M,,0000*62
$GPGSA,A,3,32,11,20,17,,,,,,,,,5.3,3.2,4.2*36
$GPRMC,194751.000,A,5229.6156,N,01319.4531,E,0.91,226.23,110912,,,A*65
$GPGGA,194752.000,5229.6156,N,01319.4530,E,1,04,3.2,18.7,M,44.8,M,,0000*63
$GPGSA,A,3,32,11,20,17,,,,,,,,,5.3,3.2,4.2*36
$GPRMC,194752.000,A,5229.6156,N,01319.4530,E,0.94,283.47,110912,,,A*6F
$GPGGA,194753.000,5229.6153,N,01319.4536,E,1,04,3.2,19.2,M,44.8,M,,0000*65
$GPGSA,A,3,32,11,20,17,,,,,,,,,5.3,3.2,4.2*36
$GPRMC,194754.000,A,5229.6149,N,01319.4544,E,1.48,139.00,110912,,,A*65
$GPGGA,194755.000,5229.6147,N,01319.4550,E,1,06,1.9,19.9,M,44.8,M,,0000*66
$GPGSA,A,3,01,32,11,20,14,17,,,,,,,3.5,1.9,2.9*36
$GPGSV,3,1,10,32,87,084,18,01,79,156,15,20,57,256,22,11,54,161,21*7D
$GPGSV,3,2,10,17,33,304,20,14,22,044,16,23,20,195,,31,18,098,*7C
$GPGSV,3,3,10,19,07,173,,28,04,268,*70
$GPRMC,194756.000,A,5229.6145,N,01319.4562,E,1.55,108.11,110912,,,A*61
$GPGGA,194757.000,5229.6144,N,01319.4575,E,1,04,1.4,21.2,M,44.8,M,,0000*6F
$GPGSA,A,3,11,20,14,17,,,,,,,,,1.8,1.4,1.0*3E
$GPRMC,194757.000,A,5229.6144,N,01319.4575,E,1.57,111.15,110912,,,A*69
$GPGGA,194758.000,5229.6147,N,01319.4584,E,1,06,1.8,22.0,M,44.8,M,,0000*62
$GPGSA,A,3,01,32,11,20,14,17,,,,,,,3.5,1.8,2.9*37
$GPRMC,194758.000,A,5229.6147,N,01319.4584,E,1.33,38.56,110912,,,A*54
$GPGGA,194759.000,5229.6154,N,01319.4593,E,1,06,1.8,22.9,M,44.8,M,,0000*6E
$GPGSA,A,3,01,32,11,20,14,17,,,,,,,3.5,1.8,2.9*37
$GPRMC,194759.000,A,5229.6154,N,01319.4593,E,2.43,24.29,110912,,,A*50
$GPGGA,194800.000,5229.6160,N,01319.4601,E,1,06,1.8,23.9,M,44.8,M,,0000*63
$GPGSA,A,3,01,32,11,20,14,17,,,,,,,3.5,1.8,2.9*37
$GPGSV,3,1,10,32,87,084,18,01,79,156,14,20,57,256,23,11,54,161,21*7D
$GPGSV,3,2,10,17,33,304,19,14,22,044,16,23,20,195,,31,18,098,*76
$GPGSV,3,3,10,19,07,173,,28,04,268,*70
$GPRMC,194800.000,A,5229.6160,N,01319.4601,E,1.75,37.40,110912,,,A*57
$GPGGA,194801.000,5229.6165,N,01319.4610,E,1,06,1.8,25.1,M,44.8,M,,0000*69
$GPGSA,A,3,01,32,11,20,14,17,,,,,,,3.5,1.8,2.9*37
$GPRMC,194801.000,A,5229.6165,N,01319.4610,E,1.60,52.59,110912,,,A*5C
$GPGGA,194802.000,5229.6171,N,01319.4616,E,1,05,1.9,26.2,M,44.8,M,,0000*6B
$GPGSA,A,3,32,11,20,14,17,,,,,,,,3.8,1.9,3.3*31
$GPRMC,194802.000,A,5229.6171,N,01319.4616,E,1.52,35.98,110912,,,A*51
$GPGGA,194803.000,5229.6172,N,01319.4620,E,1,04,3.2,27.0,M,44.8,M,,0000*67
$GPGSA,A,3,32,11,20,17,,,,,,,,,5.3,3.2,4.1*35
$GPRMC,194804.000,A,5229.6171,N,01319.4627,E,1.79,123.85,110912,,,A*66
$GPGGA,194805.000,5229.6170,N,01319.4635,E,1,05,1.9,28.5,M,44.8,M,,0000*65
$GPGSA,A,3,32,11,20,14,17,,,,,,,,3.8,1.9,3.3*31
$GPGSV,3,1,10,32,87,084,17,01,79,156,,20,57,256,23,11,54,161,21*77
$GPGSV,3,2,10,17,33,304,18,14,22,044,16,23,20,195,,31,18,098,*77
$GPGSV,3,3,10,19,07,173,,28,04,268,*70
$GPRMC,194805.000,A,5229.6170,N,01319.4635,E,1.52,107.89,110912,,,A*66
$GPGGA,194806.000,5229.6168,N,01319.4645,E,1,04,3.2,29.0,M,44.8,M,,0000*64
$GPGSA,A,3,32,11,20,17,,,,,,,,,5.3,3.2,4.1*35
$GPRMC,194806.000,A,5229.6168,N,01319.4645,E,2.12,113.06,110912,,,A*6E
$GPGGA,194807.000,5229.6169,N,01319.4650,E,1,04,3.2,28.9,M,44.8,M,,0000*68
$GPGSA,A,3,32,11,20,17,,,,,,,,,5.3,3.2,4.1*35
$GPRMC,194807.000,A,5229.6169,N,01319.4650,E,1.03,65.87,110912,,,A*50
$GPGGA,194808.000,5229.6170,N,01319.4656,E,1,03,2.0,28.8,M,44.8,M,,0000*6C
$GPGSA,A,2,11,20,14,,,,,,,,,,2.2,2.0,1.0*37
$GPRMC,194808.000,A,5229.6170,N,01319.4656,E,1.31,67.95,110912,,,A*51
$GPGGA,194809.000,5229.6172,N,01319.4662,E,1,04,2.4,28.4,M,44.8,M,,0000*67
$GPGSA,A,3,32,11,20,14,,,,,,,,,4.5,2.4,3.8*38
$GPRMC,194809.000,A,5229.6172,N,01319.4662,E,1.67,55.05,110912,,,A*5E
$GPGGA,194810.000,5229.6173,N,01319.4670,E,1,04,2.4,27.8,M,44.8,M,,0000*6E
$GPGSA,A,3,32,11,20,14,,,,,,,,,4.5,2.4,3.8*38
$GPGSV,3,1,10,32,87,084,17,01,79,156,,20,57,256,23,11,54,161,22*74
$GPGSV,3,2,10,17,33,304,18,14,22,044,16,23,20,195,,31,18,098,*77
$GPGSV,3,3,10,19,07,173,,28,04,268,*70
$GPRMC,194810.000,A,5229.6173,N,01319.4670,E,1.84,65.40,110912,,,A*5B
$GPGGA,194811.000,5229.6172,N,01319.4677,E,1,04,2.4,27.1,M,44.8,M,,0000*60
$GPGSA,A,3,32,11,20,14,,,,,,,,,4.5,2.4,3.8*38
$GPRMC,194811.000,A,5229.6172,N,01319.4677,E,1.26,77.31,110912,,,A*51
$GPGGA,194812.000,5229.6172,N,01319.4679,E,1,04,2.4,26.3,M,44.8,M,,0000*6E
$GPGSA,A,3,32,11,20,14,,,,,,,,,4.5,2.4,3.8*38
$GPRMC,194814.000,A,5229.6175,N,01319.4674,E,1.26,313.72,110912,,,A*66
$GPGGA,194815.000,5229.6177,N,01319.4670,E,1,05,1.9,25.7,M,44.8,M,,0000*6D
$GPGSA,A,3,32,11,20,14,17,,,,,,,,3.8,1.9,3.3*31
$GPGSV,3,1,10,32,87,084,16,01,79,156,,20,57,256,23,11,54,161,21*76
$GPGSV,3,2,10,17,33,304,17,14,22,044,15,23,20,195,,31,18,098,*7B
$GPGSV,3,3,10,19,07,173,,28,04,268,*70
$GPRMC,194815.000,A,5229.6177,N,01319.4670,E,0.95,290.23,110912,,,A*66
$GPGGA,194816.000,5229.6177,N,01319.4669,E,1,05,1.9,25.7,M,44.8,M,,0000*66
$GPGSA,A,3,32,11,20,14,17,,,,,,,,3.8,1.9,3.3*31
$GPRMC,194817.000,A,5229.6179,N,01319.4666,E,0.85,316.27,110912,,,A*67
$GPGGA,194818.000,5229.6183,N,01319.4668,E,1,04,3.2,27.0,M,44.8,M,,0000*6F
$GPGSA,A,3,32,11,20,17,,,,,,,,,5.3,3.2,4.1*35
$GPRMC,194818.000,A,5229.6183,N,01319.4668,E,1.17,22.62,110912,,,A*5C
$GPGGA,194819.000,5229.6188,N,01319.4672,E,1,03,5.0,27.5,M,44.8,M,,0000*68
$GPGSA,A,2,01,11,20,,,,,,,,,,5.1,5.0,1.0*30
$GPRMC,194819.000,A,5229.6188,N,01319.4672,E,2.01,22.67,110912,,,A*5C
$GPGGA,194820.000,5229.6197,N,01319.4673,E,1,05,3.2,28.2,M,44.8,M,,0000*67
$GPGSA,A,3,01,32,11,20,17,,,,,,,,5.1,3.2,4.0*37
$GPGSV,3,1,10,32,87,084,16,01,79,156,14,20,57,256,23,11,54,161,21*73
$GPGSV,3,2,10,17,33,304,17,14,22,044,,23,20,195,,31,18,098,*7F
$GPGSV,3,3,10,19,07,173,,28,04,268,*70
$GPRMC,194820.000,A,5229.6197,N,01319.4673,E,2.81,1.76,110912,,,A*60
$GPGGA,194821.000,5229.6205,N,01319.4671,E,1,04,3.2,29.1,M,44.8,M,,0000*6F
$GPGSA,A,3,32,11,20,17,,,,,,,,,5.3,3.2,4.1*35
$GPRMC,194821.000,A,5229.6205,N,01319.4671,E,2.45,348.29,110912,,,A*67
$GPGGA,194822.000,5229.6212,N,01319.4672,E,1,04,3.2,30.2,M,44.8,M,,0000*62
$GPGSA,A,3,32,11,20,17,,,,,,,,,5.3,3.2,4.1*35
$GPRMC,194822.000,A,5229.6212,N,01319.4672,E,2.25,359.60,110912,,,A*6A
$GPGGA,194823.000,5229.6220,N,01319.4676,E,1,04,3.2,31.5,M,44.8,M,,0000*60
$GPGSA,A,3,32,11,20,17,,,,,,,,,5.3,3.2,4.1*35
$GPRMC,194823.000,A,5229.6220,N,01319.4676,E,2.25,11.34,110912,,,A*50
$GPGGA,194824.000,5229.6229,N,01319.4682,E,1,03,3.5,32.7,M,44.8,M,,0000*64
$GPGSA,A,2,32,11,20,,,,,,,,,,3.7,3.5,1.0*33
$GPRMC,194824.000,A,5229.6229,N,01319.4682,E,2.83,12.46,110912,,,A*5F
$GPGGA,194825.000,5229.6239,N,01319.4686,E,1,04,3.2,33.5,M,44.8,M,,0000*63
$GPGSA,A,3,32,11,20,17,,,,,,,,,5.3,3.2,4.1*35
$GPGSV,3,1,10,32,87,084,15,01,79,156,,20,57,256,23,11,54,161,20*74
$GPGSV,3,2,10,17,33,304,17,14,22,044,,23,20,195,,31,18,098,*7F
$GPGSV,3,3,10,19,07,173,,28,04,268,*70
$GPRMC,194825.000,A,5229.6239,N,01319.4686,E,3.08,6.93,110912,,,A*64
$GPGGA,194826.000,5229.6249,N,01319.4687,E,1,04,3.2,33.8,M,44.8,M,,0000*6B
$GPGSA,A,3,32,11,20,17,,,,,,,,,5.3,3.2,4.1*35
$GPRMC,194826.000,A,5229.6249,N,01319.4687,E,3.18,354.97,110912,,,A*60
$GPGGA,194827.000,5229.6256,N,01319.4688,E,1,04,3.2,34.0,M,44.8,M,,0000*64
$GPGSA,A,3,32,11,20,17,,,,,,,,,5.3,3.2,4.1*35
$GPRMC,194827.000,A,5229.6256,N,01319.4688,E,2.22,350.13,110912,,,A*60
$GPGGA,194828.000,5229.6258,N,01319.4693,E,1,04,3.2,34.2,M,44.8,M,,0000*6D
$GPGSA,A,3,32,11,20,17,,,,,,,,,5.3,3.2,4.1*35
$GPRMC,194832.000,A,5229.6260,N,01319.4715,E,0.81,214.13,110912,,,A*6E
$GPGGA,194833.000,5229.6262,N,01319.4719,E,1,04,3.2,35.2,M,44.8,M,,0000*6C
$GPGSA,A,3,32,11,20,17,,,,,,,,,5.3,3.2,4.1*35
$GPRMC,194834.000,A,5229.6261,N,01319.4719,E,1.43,248.68,110912,,,A*6F
$GPGGA,194835.000,5229.6259,N,01319.4717,E,0,00,,35.5,M,44.8,M,,0000*41
$GPGSA,A,1,,,,,,,,,,,,,,,*1E
$GPGSV,3,1,10,32,87,084,,01,79,156,,20,57,256,23,11,54,161,19*7A
$GPGSV,3,2,10,17,33,304,18,14,22,044,,23,20,195,,31,18,098,*70
$GPGSV,3,3,10,19,07,173,,28,04,268,*70
$GPRMC,194837.000,A,5229.6252,N,01319.4713,E,2.28,215.63,110912,,,A*6B
$GPGGA,194838.000,5229.6248,N,01319.4709,E,1,03,5.1,36.2,M,44.8,M,,0000*6F
$GPGSA,A,2,11,20,17,,,,,,,,,,5.2,5.1,1.0*35
$GPRMC,194838.000,A,5229.6248,N,01319.4709,E,1.89,230.18,110912,,,A*67
$GPGGA,194839.000,5229.6243,N,01319.4707,E,1,03,5.1,36.4,M,44.8,M,,0000*6D
$GPGSA,A,2,11,20,17,,,,,,,,,,5.2,5.1,1.0*35
$GPRMC,194839.000,A,5229.6243,N,01319.4707,E,1.96,212.00,110912,,,A*64
$GPGGA,194840.000,5229.6239,N,01319.4712,E,1,03,5.1,36.5,M,44.8,M,,0000*6B
$GPGSA,A,2,11,20,17,,,,,,,,,,5.2,5.1,1.0*35
$GPGSV,3,1,10,32,87,084,,01,79,156,,20,57,256,24,11,54,161,19*7D
$GPGSV,3,2,10,17,33,304,20,14,22,044,,23,20,195,,31,18,098,*7B
$GPGSV,3,3,10,19,07,173,,28,04,268,*70
$GPRMC,194840.000,A,5229.6239,N,01319.4712,E,1.54,176.79,110912,,,A*62
$GPGGA,194841.000,5229.6239,N,01319.4712,E,1,03,5.1,36.6,M,44.8,M,,0000*69
$GPGSA,A,2,11,20,17,,,,,,,,,,5.2,5.1,1.0*35
$GPRMC,194841.000,A,5229.6239,N,01319.4712,E,0.93,228.43,110912,,,A*68
$GPGGA,194842.000,5229.6238,N,01319.4711,E,0,00,,36.7,M,44.8,M,,0000*41
$GPGSA,A,1,,,,,,,,,,,,,,,*1E
$GPRMC,194844.000,A,5229.6244,N,01319.4689,E,4.97,293.45,110912,,,A*62
$GPGGA,194845.000,5229.6247,N,01319.4655,E,1,03,5.1,36.9,M,44.8,M,,0000*69
$GPGSA,A,2,11,20,17,,,,,,,,,,5.2,5.1,1.0*35
$GPGSV,3,1,10,32,87,084,,01,79,156,,20,57,256,24,11,54,161,18*7C
$GPGSV,3,2,10,17,33,304,21,14,22,044,,23,20,195,,31,18,098,*7A
$GPGSV,3,3,10,19,07,173,,28,04,268,*70
$GPRMC,194845.000,A,5229.6247,N,01319.4655,E,6.56,276.39,110912,,,A*6E
$GPGGA,194846.000,5229.6242,N,01319.4616,E,1,03,5.2,37.1,M,44.8,M,,0000*62
$GPGSA,A,2,11,20,17,,,,,,,,,,5.2,5.2,1.0*36
$GPRMC,194846.000,A,5229.6242,N,01319.4616,E,6.73,261.91,110912,,,A*6C
$GPGGA,194847.000,5229.6236,N,01319.4584,E,1,03,5.2,37.2,M,44.8,M,,0000*6B
$GPGSA,A,2,11,20,17,,,,,,,,,,5.3,5.2,1.0*37
$GPRMC,194847.000,A,5229.6236,N,01319.4584,E,5.31,254.91,110912,,,A*65
$GPGGA,194848.000,5229.6231,N,01319.4553,E,0,00,,37.4,M,44.8,M,,0000*44
$GPGSA,A,1,,,,,,,,,,,,,,,*1E
$GPRMC,194849.000,A,5229.6215,N,01319.4535,E,5.26,208.66,110912,,,A*67
$GPGGA,194850.000,5229.6208,N,01319.4531,E,1,03,5.2,37.7,M,44.8,M,,0000*6B
$GPGSA,A,2,11,20,17,,,,,,,,,,5.3,5.2,1.0*37
$GPGSV,3,1,10,32,87,084,,01,79,156,,20,57,256,24,11,54,161,19*7D
$GPGSV,3,2,10,17,33,304,21,14,22,044,15,23,20,195,,31,18,098,*7E
$GPGSV,3,3,10,19,07,173,,28,04,268,*70
$GPRMC,194850.000,A,5229.6208,N,01319.4531,E,2.35,196.12,110912,,,A*65
$GPGGA,194851.000,5229.6204,N,01319.4527,E,1,03,5.2,37.7,M,44.8,M,,0000*61
$GPGSA,A,2,11,20,17,,,,,,,,,,5.3,5.2,1.0*37
$GPRMC,194851.000,A,5229.6204,N,01319.4527,E,1.63,209.87,110912,,,A*66
$GPGGA,194852.000,5229.6201,N,01319.4525,E,1,03,5.2,37.8,M,44.8,M,,0000*6A
$GPGSA,A,2,11,20,17,,,,,,,,,,5.3,5.2,1.0*37
$GPRMC,194852.000,A,5229.6201,N,01319.4525,E,1.04,221.47,110912,,,A*65
$GPGGA,194853.000,5229.6196,N,01319.4521,E,1,03,5.2,37.8,M,44.8,M,,0000*62
$GPGSA,A,2,11,20,17,,,,,,,,,,5.3,5.2,1.0*37
$GPRMC,194853.000,A,5229.6196,N,01319.4521,E,1.78,210.06,110912,,,A*61
$GPGGA,194854.000,5229.6193,N,01319.4516,E,1,03,5.2,37.9,M,44.8,M,,0000*65
$GPGSA,A,2,11,20,17,,,,,,,,,,5.3,5.2,1.0*37
$GPRMC,194854.000,A,5229.6193,N,01319.4516,E,1.87,232.83,110912,,,A*6A
$GPGGA,194855.000,5229.6196,N,01319.4518,E,1,05,1.9,38.9,M,44.8,M,,0000*69
$GPGSA,A,3,32,14,11,20,17,,,,,,,,3.7,1.9,3.2*3F
$GPGSV,3,1,10,32,87,084,14,01,79,156,,20,57,256,24,11,54,161,20*72
$GPGSV,3,2,10,17,33,304,21,14,22,044,16,23,20,195,,31,18,098,*7D
$GPGSV,3,3,10,19,07,173,,28,04,268,*70
$GPRMC,194855.000,A,5229.6196,N,01319.4518,E,1.36,242.49,110912,,,A*6B
$GPGGA,194856.000,5229.6200,N,01319.4528,E,1,05,1.9,40.0,M,44.8,M,,0000*63
$GPGSA,A,3,32,14,11,20,17,,,,,,,,3.7,1.9,3.2*3F
$GPRMC,194859.000,A,5229.6206,N,01319.4560,E,1.30,170.03,110912,,,A*68
$GPGGA,194900.000,5229.6204,N,01319.4563,E,1,05,1.9,42.9,M,44.8,M,,0000*61
$GPGSA,A,3,32,14,11,20,17,,,,,,,,3.7,1.9,3.2*3F
$GPGSV,3,1,10,32,87,084,15,01,79,156,,20,57,256,24,11,54,161,20*73
$GPGSV,3,2,10,17,33,304,21,14,22,044,17,23,20,195,,31,18,098,*7C
$GPGSV,3,3,10,19,07,173,,28,04,268,*70
$GPRMC,194900.000,A,5229.6204,N,01319.4563,E,1.60,201.44,110912,,,A*67
$GPGGA,194901.000,5229.6204,N,01319.4563,E,1,05,1.9,43.0,M,44.8,M,,0000*68
$GPGSA,A,3,32,14,11,20,17,,,,,,,,3.7,1.9,3.2*3F
$GPRMC,194901.000,A,5229.6204,N,01319.4563,E,1.53,231.71,110912,,,A*63
$GPGGA,194902.000,5229.6206,N,01319.4567,E,1,05,1.9,43.2,M,44.8,M,,0000*6F
$GPGSA,A,3,32,14,11,20,17,,,,,,,,3.7,1.9,3.2*3F
$GPRMC,194904.000,A,5229.6211,N,01319.4578,E,1.14,32.05,110912,,,A*59
$GPGGA,194905.000,5229.6213,N,01319.4586,E,1,05,1.9,42.9,M,44.8,M,,0000*69
$GPGSA,A,3,32,14,11,20,17,,,,,,,,3.7,1.9,3.2*3F
$GPGSV,3,1,10,32,87,084,15,01,79,156,,20,57,256,24,11,54,161,20*73
$GPGSV,3,2,10,17,33,304,21,14,22,044,18,23,20,195,,31,18,098,*73
$GPGSV,3,3,10,19,07,173,,28,04,268,*70
$GPRMC,194905.000,A,5229.6213,N,01319.4586,E,1.05,61.40,110912,,,A*5C
$GPGGA,194906.000,5229.6213,N,01319.4594,E,1,05,1.9,42.2,M,44.8,M,,0000*62
$GPGSA,A,3,32,14,11,20,17,,,,,,,,3.7,1.9,3.2*3F
$GPRMC,194906.000,A,5229.6213,N,01319.4594,E,0.94,94.77,110912,,,A*5B
$GPGGA,194907.000,5229.6212,N,01319.4599,E,1,05,1.9,41.4,M,44.8,M,,0000*6A
$GPGSA,A,3,32,14,11,20,17,,,,,,,,3.7,1.9,3.2*3F
$GPRMC,194909.000,A,5229.6206,N,01319.4600,E,1.63,222.56,110912,,,A*6B
$GPGGA,194910.000,5229.6200,N,01319.4596,E,1,05,1.9,36.8,M,44.8,M,,0000*6C
$GPGSA,A,3,32,14,11,20,17,,,,,,,,3.7,1.9,3.2*3F
$GPGSV,3,1,10,32,87,084,15,01,79,156,,20,57,256,24,11,54,161,21*72
$GPGSV,3,2,10,17,33,304,21,14,22,044,19,23,20,195,,31,18,098,*72
$GPGSV,3,3,10,19,07,173,,28,04,268,*70
$GPRMC,194910.000,A,5229.6200,N,01319.4596,E,1.90,220.45,110912,,,A*65
$GPGGA,194911.000,5229.6196,N,01319.4595,E,1,04,1.4,35.3,M,44.8,M,,0000*66
$GPGSA,A,3,14,11,20,17,,,,,,,,,1.8,1.4,1.0*3E
$GPRMC,194911.000,A,5229.6196,N,01319.4595,E,1.17,195.71,110912,,,A*6E
$GPGGA,194912.000,5229.6192,N,01319.4592,E,1,05,1.9,33.5,M,44.8,M,,0000*6A
$GPGSA,A,3,32,14,11,20,17,,,,,,,,3.7,1.9,3.2*3F
$GPRMC,194912.000,A,5229.6192,N,01319.4592,E,1.52,214.30,110912,,,A*60
$GPGGA,194913.000,5229.6187,N,01319.4593,E,1,05,1.9,31.8,M,44.8,M,,0000*61
$GPGSA,A,3,32,14,11,20,17,,,,,,,,3.7,1.9,3.2*3F
$GPRMC,194913.000,A,5229.6187,N,01319.4593,E,1.22,167.25,110912,,,A*60
$GPGGA,194914.000,5229.6184,N,01319.4595,E,1,05,1.9,29.8,M,44.8,M,,0000*6A
$GPGSA,A,3,32,14,11,20,17,,,,,,,,3.7,1.9,3.2*3F
$GPRMC,194914.000,A,5229.6184,N,01319.4595,E,0.89,153.80,110912,,,A*6A
$GPGGA,194915.000,5229.6179,N,01319.4597,E,1,04,1.4,28.0,M,44.8,M,,0000*6E
$GPGSA,A,3,14,11,20,17,,,,,,,,,1.8,1.4,1.0*3E
$GPGSV,3,1,10,32,87,084,16,01,79,156,,20,57,256,23,11,54,161,21*76
$GPGSV,3,2,10,17,33,304,21,14,22,044,19,23,20,195,,31,18,098,*72
$GPGSV,3,3,10,19,07,173,,28,04,268,*70
$GPRMC,194915.000,A,5229.6179,N,01319.4597,E,1.03,170.30,110912,,,A*62
$GPGGA,194916.000,5229.6175,N,01319.4597,E,1,05,1.9,25.9,M,44.8,M,,0000*69
$GPGSA,A,3,32,14,11,20,17,,,,,,,,3.7,1.9,3.2*3F
$GPRMC,194916.000,A,5229.6175,N,01319.4597,E,0.85,187.47,110912,,,A*6A
$GPGGA,194917.000,5229.6170,N,01319.4597,E,1,06,1.8,23.7,M,44.8,M,,0000*67
$GPGSA,A,3,32,14,11,20,01,17,,,,,,,3.4,1.8,2.9*36
$GPRMC,194917.000,A,5229.6170,N,01319.4597,E,1.15,181.39,110912,,,A*69
$GPGGA,194918.000,5229.6162,N,01319.4595,E,1,05,2.2,21.4,M,44.8,M,,0000*62
$GPGSA,A,3,14,11,20,01,17,,,,,,,,4.8,2.2,4.2*38
$GPRMC,194918.000,A,5229.6162,N,01319.4595,E,1.92,198.53,110912,,,A*6C
$GPGGA,194919.000,5229.6157,N,01319.4592,E,1,05,2.2,19.4,M,44.8,M,,0000*69
$GPGSA,A,3,14,11,20,01,17,,,,,,,,4.8,2.2,4.2*38
$GPRMC,194919.000,A,5229.6157,N,01319.4592,E,1.29,217.35,110912,,,A*68
$GPGGA,194920.000,5229.6153,N,01319.4587,E,1,05,2.2,17.1,M,44.8,M,,0000*68
$GPGSA,A,3,14,11,20,01,17,,,,,,,,4.8,2.2,4.2*38
$GPGSV,3,1,10,32,87,084,16,01,79,156,17,20,57,256,23,11,54,161,21*70
$GPGSV,3,2,10,17,33,304,21,14,22,044,19,23,20,195,,31,18,098,*72
$GPGSV,3,3,10,19,07,173,,28,04,268,*70
$GPRMC,194920.000,A,5229.6153,N,01319.4587,E,0.95,255.20,110912,,,A*66
$GPGGA,194921.000,5229.6148,N,01319.4584,E,1,05,2.2,14.6,M,44.8,M,,0000*64
$GPGSA,A,3,14,11,20,01,17,,,,,,,,4.8,2.2,4.2*38
$GPRMC,194921.000,A,5229.6148,N,01319.4584,E,0.92,210.50,110912,,,A*6F
$GPGGA,194922.000,5229.6144,N,01319.4580,E,1,05,2.2,12.4,M,44.8,M,,0000*6B
$GPGSA,A,3,14,11,20,01,17,,,,,,,,4.8,2.2,4.2*38
$GPRMC,194924.000,A,5229.6139,N,01319.4584,E,0.92,82.47,110912,,,A*53
$GPGGA,194925.000,5229.6135,N,01319.4585,E,1,05,1.9,7.1,M,44.8,M,,0000*56
$GPGSA,A,3,32,14,11,20,17,,,,,,,,3.7,1.9,3.2*3F
$GPGSV,3,1,10,32,87,084,16,01,79,156,17,20,57,256,23,11,54,161,21*70
$GPGSV,3,2,10,17,33,304,21,14,22,044,19,23,20,195,,31,18,098,*72
$GPGSV,3,3,10,19,07,173,,28,04,268,*70
$GPRMC,194927.000,A,5229.6125,N,01319.4585,E,1.47,173.52,110912,,,A*6E
$GPGGA,194928.000,5229.6119,N,01319.4583,E,1,06,1.8,1.4,M,44.8,M,,0000*52
$GPGSA,A,3,32,14,11,20,01,17,,,,,,,3.4,1.8,2.9*36
$GPRMC,194928.000,A,5229.6119,N,01319.4583,E,1.61,196.98,110912,,,A*61
$GPGGA,194929.000,5229.6110,N,01319.4583,E,1,05,1.9,-0.5,M,44.8,M,,0000*75
$GPGSA,A,3,32,14,11,20,17,,,,,,,,3.7,1.9,3.2*3F
$GPRMC,194929.000,A,5229.6110,N,01319.4583,E,2.33,184.45,110912,,,A*6E
$GPGGA,194930.000,5229.6105,N,01319.4583,E,1,06,1.8,-1.8,M,44.8,M,,0000*77
$GPGSA,A,3,32,14,11,20,01,17,,,,,,,3.4,1.8,2.9*36
$GPGSV,3,1,10,32,87,084,16,01,79,156,17,20,57,256,23,11,54,161,21*70
$GPGSV,3,2,10,17,33,304,20,14,22,044,19,23,20,195,,31,18,098,*73
$GPGSV,3,3,10,19,07,173,,28,04,268,*70
$GPRMC,194930.000,A,5229.6105,N,01319.4583,E,1.48,185.36,110912,,,A*68
$GPGGA,194931.000,5229.6104,N,01319.4586,E,1,05,1.9,-2.7,M,44.8,M,,0000*7C
$GPGSA,A,3,32,14,11,20,17,,,,,,,,3.7,1.9,3.2*3F
$GPRMC,194934.000,A,5229.6103,N,01319.4595,E,1.26,98.64,110912,,,A*5F
$GPGGA,194935.000,5229.6105,N,01319.4595,E,1,04,3.3,-3.6,M,44.8,M,,0000*72
$GPGSA,A,3,32,11,20,17,,,,,,,,,5.2,3.3,4.1*35
$GPGSV,3,1,10,32,86,076,16,01,77,154,16,20,59,257,23,11,52,160,21*79
$GPGSV,3,2,10,17,33,303,20,14,21,043,18,23,21,195,,31,19,097,*7E
$GPGSV,3,3,10,19,05,173,,28,03,267,*7A
$GPRMC,194936.000,A,5229.6106,N,01319.4589,E,1.22,268.95,110912,,,A*62
$GPGGA,194937.000,5229.6107,N,01319.4585,E,1,05,3.2,-3.8,M,44.8,M,,0000*7D
$GPGSA,A,3,32,11,20,01,17,,,,,,,,5.1,3.2,4.0*37
$GPRMC,194937.000,A,5229.6107,N,01319.4585,E,0.92,235.26,110912,,,A*64
$GPGGA,194938.000,5229.6109,N,01319.4582,E,1,05,3.2,-3.5,M,44.8,M,,0000*76
$GPGSA,A,3,32,11,20,01,17,,,,,,,,5.1,3.2,4.0*37
$GPRMC,194939.000,A,5229.6109,N,01319.4578,E,1.00,232.00,110912,,,A*6F
$GPGGA,194940.000,5229.6112,N,01319.4572,E,1,04,3.3,-2.2,M,44.8,M,,0000*7A
$GPGSA,A,3,32,11,20,17,,,,,,,,,5.2,3.3,4.1*35
$GPGSV,3,1,10,32,86,076,17,01,77,154,16,20,59,257,22,11,52,160,22*7A
$GPGSV,3,2,10,17,33,303,20,14,21,043,17,23,21,195,,31,19,097,*71
$GPGSV,3,3,10,19,05,173,,28,03,267,*7A
$GPRMC,194940.000,A,5229.6112,N,01319.4572,E,0.97,249.52,110912,,,A*65
$GPGGA,194941.000,5229.6112,N,01319.4571,E,1,06,1.8,-1.9,M,44.8,M,,0000*7B
$GPGSA,A,3,32,14,11,20,01,17,,,,,,,3.4,1.8,2.9*36
$GPRMC,194941.000,A,5229.6112,N,01319.4571,E,1.10,185.89,110912,,,A*6C
$GPGGA,194942.000,5229.6112,N,01319.4573,E,1,06,1.8,-1.8,M,44.8,M,,0000*7B
$GPGSA,A,3,32,14,11,20,01,17,,,,,,,3.4,1.8,2.9*36
$GPRMC,194942.000,A,5229.6112,N,01319.4573,E,1.17,136.67,110912,,,A*62
$GPGGA,194943.000,5229.6114,N,01319.4577,E,1,05,2.2,-1.9,M,44.8,M,,0000*73
$GPGSA,A,3,14,11,20,01,17,,,,,,,,4.7,2.2,4.2*37
$GPRMC,194943.000,A,5229.6114,N,01319.4577,E,1.06,103.25,110912,,,A*61
$GPGGA,194944.000,5229.6115,N,01319.4578,E,1,06,1.8,-2.2,M,44.8,M,,0000*78
$GPGSA,A,3,32,14,11,20,01,17,,,,,,,3.4,1.8,2.9*36
$GPRMC,194945.000,A,5229.6113,N,01319.4577,E,1.59,191.34,110912,,,A*61
$GPGGA,194946.000,5229.6113,N,01319.4573,E,1,04,1.4,-3.1,M,44.8,M,,0000*7B
$GPGSA,A,3,14,11,20,17,,,,,,,,,1.8,1.4,1.0*3E
$GPRMC,194946.000,A,5229.6113,N,01319.4573,E,1.46,216.93,110912,,,A*69
$GPGGA,194947.000,5229.6110,N,01319.4569,E,1,05,1.9,-3.3,M,44.8,M,,0000*7C
$GPGSA,A,3,32,14,11,20,17,,,,,,,,3.7,1.9,3.2*3F
$GPRMC,194947.000,A,5229.6110,N,01319.4569,E,2.13,206.04,110912,,,A*6C
$GPGGA,194948.000,5229.6108,N,01319.4563,E,1,05,1.9,-3.1,M,44.8,M,,0000*72
$GPGSA,A,3,32,14,11,20,17,,,,,,,,3.7,1.9,3.2*3F
$GPRMC,194948.000,A,5229.6108,N,01319.4563,E,2.47,215.06,110912,,,A*61
$GPGGA,194949.000,5229.6106,N,01319.4560,E,1,04,3.3,-2.5,M,44.8,M,,0000*72
$GPGSA,A,3,32,11,20,17,,,,,,,,,5.2,3.3,4.1*35
$GPRMC,194949.000,A,5229.6106,N,01319.4560,E,2.35,201.19,110912,,,A*63
$GPGGA,194950.000,5229.6107,N,01319.4558,E,1,04,3.3,-1.7,M,44.8,M,,0000*71
$GPGSA,A,3,32,11,20,17,,,,,,,,,5.2,3.3,4.1*35
$GPGSV,3,1,10,32,86,076,17,01,77,154,,20,59,257,22,11,52,160,21*7E
$GPGSV,3,2,10,17,33,303,20,14,21,043,,23,21,195,,31,19,097,*77
$GPGSV,3,3,10,19,05,173,,28,03,267,*7A
$GPRMC,194950.000,A,5229.6107,N,01319.4558,E,1.25,209.14,110912,,,A*66
$GPGGA,194951.000,5229.6110,N,01319.4560,E,1,04,3.3,-1.0,M,44.8,M,,0000*7A
$GPGSA,A,3,32,11,20,17,,,,,,,,,5.2,3.3,4.1*35
$GPRMC,194952.000,A,5229.6117,N,01319.4564,E,1.24,37.92,110912,,,A*5A
$GPGGA,194953.000,5229.6122,N,01319.4572,E,1,03,5.4,0.5,M,44.8,M,,0000*55
$GPGSA,A,2,11,20,17,,,,,,,,,,5.5,5.4,1.0*37
$GPRMC,194953.000,A,5229.6122,N,01319.4572,E,1.74,64.61,110912,,,A*55
$GPGGA,194954.000,5229.6126,N,01319.4580,E,1,03,5.4,1.1,M,44.8,M,,0000*5E
$GPGSA,A,2,11,20,17,,,,,,,,,,5.5,5.4,1.0*37
$GPRMC,194954.000,A,5229.6126,N,01319.4580,E,1.69,81.42,110912,,,A*5D
$GPGGA,194955.000,5229.6129,N,01319.4591,E,1,03,5.4,1.4,M,44.8,M,,0000*55
$GPGSA,A,2,11,20,17,,,,,,,,,,5.5,5.4,1.0*37
$GPGSV,3,1,10,32,86,076,17,01,77,154,,20,59,257,22,11,52,160,21*7E
$GPGSV,3,2,10,17,33,303,20,14,21,043,,23,21,195,,31,19,097,*77
$GPGSV,3,3,10,19,05,173,,28,03,267,*7A
$GPRMC,194955.000,A,5229.6129,N,01319.4591,E,2.14,85.48,110912,,,A*54
$GPGGA,194956.000,5229.6133,N,01319.4601,E,1,04,3.3,1.7,M,44.8,M,,0000*52
$GPGSA,A,3,32,11,20,17,,,,,,,,,5.2,3.3,4.1*35
$GPRMC,194956.000,A,5229.6133,N,01319.4601,E,2.18,73.40,110912,,,A*5B
$GPGGA,194957.000,5229.6141,N,01319.4611,E,1,04,3.3,2.3,M,44.8,M,,0000*50
$GPGSA,A,3,32,11,20,17,,,,,,,,,5.2,3.3,4.1*35
$GPRMC,194957.000,A,5229.6141,N,01319.4611,E,2.79,45.74,110912,,,A*5B
$GPGGA,194958.000,5229.6149,N,01319.4624,E,1,04,3.3,2.8,M,44.8,M,,0000*5A
$GPGSA,A,3,32,11,20,17,,,,,,,,,5.2,3.3,4.1*35
$GPRMC,194958.000,A,5229.6149,N,01319.4624,E,3.07,56.48,110912,,,A*5F
$GPGGA,194959.000,5229.6155,N,01319.4638,E,1,03,5.4,3.4,M,44.8,M,,0000*50
$GPGSA,A,2,11,20,17,,,,,,,,,,5.5,5.4,1.0*37
$GPRMC,194959.000,A,5229.6155,N,01319.4638,E,3.26,63.55,110912,,,A*57
$GPGGA,195000.000,5229.6163,N,01319.4651,E,1,03,5.4,3.8,M,44.8,M,,0000*52
$GPGSA,A,2,11,20,17,,,,,,,,,,5.5,5.4,1.0*37
$GPGSV,3,1,10,32,86,076,16,01,77,154,,20,59,257,22,11,52,160,20*7E
$GPGSV,3,2,10,17,33,303,21,14,21,043,,23,21,195,,31,19,097,*76
$GPGSV,3,3,10,19,05,173,,28,03,267,*7A
$GPRMC,195000.000,A,5229.6163,N,01319.4651,E,3.31,50.79,110912,,,A*51
$GPGGA,195001.000,5229.6171,N,01319.4656,E,1,03,5.4,4.4,M,44.8,M,,0000*5C
$GPGSA,A,2,11,20,17,,,,,,,,,,5.5,5.4,1.0*37
$GPRMC,195001.000,A,5229.6171,N,01319.4656,E,2.60,27.05,110912,,,A*5A
$GPGGA,195002.000,5229.6174,N,01319.4656,E,1,03,5.4,4.8,M,44.8,M,,0000*56
$GPGSA,A,2,11,20,17,,,,,,,,,,5.5,5.4,1.0*37
$GPRMC,195002.000,A,5229.6174,N,01319.4656,E,0.82,7.67,110912,,,A*64
$GPGGA,195003.000,5229.6171,N,01319.4650,E,1,03,5.5,5.5,M,44.8,M,,0000*59
$GPGSA,A,2,11,20,17,,,,,,,,,,5.5,5.5,1.0*36
$GPRMC,195003.000,A,5229.6171,N,01319.4650,E,1.47,215.34,110912,,,A*69
$GPGGA,195004.000,5229.6166,N,01319.4639,E,1,03,5.5,6.2,M,44.8,M,,0000*53
$GPGSA,A,2,11,20,17,,,,,,,,,,5.5,5.5,1.0*36
$GPRMC,195004.000,A,5229.6166,N,01319.4639,E,2.11,224.12,110912,,,A*61
$GPGGA,195005.000,5229.6163,N,01319.4627,E,1,03,5.5,7.0,M,44.8,M,,0000*5B
$GPGSA,A,2,11,20,17,,,,,,,,,,5.6,5.5,1.0*35
$GPGSV,3,1,10,32,86,076,16,01,77,154,,20,59,257,22,11,52,160,20*7E
$GPGSV,3,2,10,17,33,303,22,14,21,043,,23,21,195,,31,19,097,*75
$GPGSV,3,3,10,19,05,173,,28,03,267,*7A
$GPRMC,195005.000,A,5229.6163,N,01319.4627,E,1.92,248.02,110912,,,A*69
$GPGGA,195006.000,5229.6161,N,01319.4619,E,1,04,3.3,8.1,M,44.8,M,,0000*5E
$GPGSA,A,3,32,11,20,17,,,,,,,,,5.2,3.3,4.1*35
$GPRMC,195006.000,A,5229.6161,N,01319.4619,E,1.05,240.31,110912,,,A*63
$GPGGA,195007.000,5229.6163,N,01319.4616,E,1,04,3.3,9.4,M,44.8,M,,0000*56
$GPGSA,A,3,32,11,20,17,,,,,,,,,5.2,3.3,4.1*35
$GPRMC,195007.000,A,5229.6163,N,01319.4616,E,0.87,344.02,110912,,,A*61
$GPGGA,195008.000,5229.6168,N,01319.4618,E,1,04,3.3,11.0,M,44.8,M,,0000*61
$GPGSA,A,3,32,11,20,17,,,,,,,,,5.2,3.3,4.1*35
$GPRMC,195008.000,A,5229.6168,N,01319.4618,E,1.84,19.28,110912,,,A*5A
$GPGGA,195009.000,5229.6173,N,01319.4619,E,1,04,3.3,12.8,M,44.8,M,,0000*60
$GPGSA,A,3,32,11,20,17,,,,,,,,,5.2,3.3,4.1*35
$GPRMC,195009.000,A,5229.6173,N,01319.4619,E,1.51,24.07,110912,,,A*5B
$GPGGA,195010.000,5229.6177,N,01319.4618,E,1,03,5.5,14.6,M,44.8,M,,0000*62
$GPGSA,A,2,11,20,17,,,,,,,,,,5.6,5.5,1.0*35
$GPGSV,3,1,10,32,86,076,16,01,77,154,,20,59,257,21,11,52,160,19*77
$GPGSV,3,2,10,17,33,303,23,14,21,043,,23,21,195,,31,19,097,*74
$GPGSV,3,3,10,19,05,173,,28,03,267,*7A
$GPRMC,195010.000,A,5229.6177,N,01319.4618,E,1.50,12.98,110912,,,A*54
$GPGGA,195011.000,5229.6178,N,01319.4612,E,1,04,3.3,16.1,M,44.8,M,,0000*64
$GPGSA,A,3,32,11,20,17,,,,,,,,,5.2,3.3,4.1*35
$GPRMC,195012.000,A,5229.6174,N,01319.4603,E,1.34,225.04,110912,,,A*6E
$GPGGA,195013.000,5229.6164,N,01319.4587,E,1,04,3.3,18.3,M,44.8,M,,0000*68
$GPGSA,A,3,32,11,20,17,,,,,,,,,5.2,3.3,4.1*35
$GPRMC,195013.000,A,5229.6164,N,01319.4587,E,3.15,222.38,110912,,,A*68
$GPGGA,195014.000,5229.6154,N,01319.4567,E,1,03,3.5,19.3,M,44.8,M,,0000*62
$GPGSA,A,2,32,20,17,,,,,,,,,,3.7,3.5,1.0*35
$GPRMC,195014.000,A,5229.6154,N,01319.4567,E,3.51,229.91,110912,,,A*6A
$GPGGA,195015.000,5229.6144,N,01319.4549,E,1,04,3.3,20.3,M,44.8,M,,0000*65
$GPGSA,A,3,32,11,20,17,,,,,,,,,5.2,3.3,4.1*35
$GPGSV,3,1,10,32,86,076,16,01,77,154,,20,59,257,21,11,52,160,18*76
$GPGSV,3,2,10,17,33,303,23,14,21,043,,23,21,195,,31,19,097,*74
$GPGSV,3,3,10,19,05,173,,28,03,267,*7A
$GPRMC,195015.000,A,5229.6144,N,01319.4549,E,3.42,228.70,110912,,,A*6A
$GPGGA,195016.000,5229.6129,N,01319.4528,E,1,04,3.3,21.4,M,44.8,M,,0000*6C
$GPGSA,A,3,32,11,20,17,,,,,,,,,5.2,3.3,4.1*35
$GPRMC,195016.000,A,5229.6129,N,01319.4528,E,4.60,221.12,110912,,,A*6F
$GPGGA,195017.000,5229.6111,N,01319.4501,E,1,04,3.3,22.4,M,44.8,M,,0000*6E
$GPGSA,A,3,32,11,20,17,,,,,,,,,5.2,3.3,4.1*35
$GPRMC,195017.000,A,5229.6111,N,01319.4501,E,6.33,221.51,110912,,,A*6D
$GPGGA,195018.000,5229.6088,N,01319.4476,E,1,04,3.3,23.5,M,44.8,M,,0000*61
$GPGSA,A,3,32,11,20,17,,,,,,,,,5.2,3.3,4.1*35
$GPRMC,195018.000,A,5229.6088,N,01319.4476,E,7.41,214.23,110912,,,A*65
$GPGGA,195019.000,5229.6064,N,01319.4448,E,1,03,3.5,24.6,M,44.8,M,,0000*6A
$GPGSA,A,2,32,20,17,,,,,,,,,,3.7,3.5,1.0*35
$GPRMC,195019.000,A,5229.6064,N,01319.4448,E,8.03,216.40,110912,,,A*65
$GPGGA,195020.000,5229.6041,N,01319.4420,E,1,03,3.5,25.7,M,44.8,M,,0000*69
$GPGSA,A,2,32,20,17,,,,,,,,,,3.7,3.5,1.0*35
$GPGSV,3,1,10,32,86,076,16,01,77,154,,20,59,257,20,11,52,160,*7E
$GPGSV,3,2,10,17,33,303,23,14,21,043,,23,21,195,,31,19,097,*74
$GPGSV,3,3,10,19,05,173,,28,03,267,*7A
$GPRMC,195020.000,A,5229.6041,N,01319.4420,E,8.10,219.50,110912,,,A*6A
$GPGGA,195021.000,5229.6018,N,01319.4392,E,0,00,,26.8,M,44.8,M,,0000*4C
$GPGSA,A,1,,,,,,,,,,,,,,,*1E
$GPRMC,195023.000,A,5229.5992,N,01319.4362,E,1.46,210.14,110912,,,A*6F
$GPGGA,195024.000,5229.6005,N,01319.4380,E,1,03,3.5,29.3,M,44.8,M,,0000*68
$GPGSA,A,2,32,20,17,,,,,,,,,,3.7,3.5,1.0*35
$GPRMC,195024.000,A,5229.6005,N,01319.4380,E,4.44,37.07,110912,,,A*52
$GPGGA,195025.000,5229.6026,N,01319.4409,E,1,03,3.5,30.0,M,44.8,M,,0000*65
$GPGSA,A,2,32,20,17,,,,,,,,,,3.7,3.5,1.0*35
$GPGSV,3,1,10,32,86,076,15,01,77,154,,20,59,257,20,11,52,160,*7D
$GPGSV,3,2,10,17,33,303,23,14,21,043,,23,21,195,,31,19,097,*74
$GPGSV,3,3,10,19,05,173,,28,03,267,*7A
$GPRMC,195025.000,A,5229.6026,N,01319.4409,E,7.14,37.68,110912,,,A*5B
$GPGGA,195026.000,5229.6041,N,01319.4424,E,1,03,3.5,30.5,M,44.8,M,,0000*6D
$GPGSA,A,2,32,20,17,,,,,,,,,,3.7,3.5,1.0*35
$GPRMC,195026.000,A,5229.6041,N,01319.4424,E,4.79,27.78,110912,,,A*5E
$GPGGA,195027.000,5229.6049,N,01319.4424,E,1,03,3.5,30.9,M,44.8,M,,0000*68
$GPGSA,A,2,32,20,17,,,,,,,,,,3.7,3.5,1.0*35
$GPRMC,195027.000,A,5229.6049,N,01319.4424,E,2.51,352.60,110912,,,A*63
$GPGGA,195028.000,5229.6053,N,01319.4417,E,1,04,3.4,31.3,M,44.8,M,,0000*61
$GPGSA,A,3,32,01,20,17,,,,,,,,,3.5,3.4,1.0*36
$GPRMC,195028.000,A,5229.6053,N,01319.4417,E,2.61,322.61,110912,,,A*62
$GPGGA,195029.000,5229.6056,N,01319.4409,E,1,04,3.4,31.6,M,44.8,M,,0000*6F
$GPGSA,A,3,32,01,20,17,,,,,,,,,3.5,3.4,1.0*36
$GPRMC,195029.000,A,5229.6056,N,01319.4409,E,2.55,317.47,110912,,,A*6C
$GPGGA,195030.000,5229.6056,N,01319.4396,E,1,04,3.4,31.9,M,44.8,M,,0000*69
$GPGSA,A,3,32,01,20,17,,,,,,,,,3.5,3.4,1.0*36
$GPGSV,3,1,10,32,86,076,15,01,77,154,14,20,59,257,20,11,52,160,*78
$GPGSV,3,2,10,17,33,303,23,14,21,043,16,23,21,195,,31,19,097,17*75
$GPGSV,3,3,10,19,05,173,,28,03,267,*7A
$GPRMC,195030.000,A,5229.6056,N,01319.4396,E,3.02,304.15,110912,,,A*63
$GPGGA,195031.000,5229.6057,N,01319.4383,E,1,04,3.4,32.1,M,44.8,M,,0000*66
$GPGSA,A,3,32,01,20,17,,,,,,,,,3.5,3.4,1.0*36
$GPRMC,195031.000,A,5229.6057,N,01319.4383,E,3.60,300.88,110912,,,A*63
$GPGGA,195032.000,5229.6055,N,01319.4370,E,1,04,3.4,32.2,M,44.8,M,,0000*68
$GPGSA,A,3,32,01,20,17,,,,,,,,,3.5,3.4,1.0*36
$GPRMC,195032.000,A,5229.6055,N,01319.4370,E,3.11,292.66,110912,,,A*62
$GPGGA,195033.000,5229.6052,N,01319.4359,E,1,04,3.4,32.0,M,44.8,M,,0000*67
$GPGSA,A,3,32,01,20,17,,,,,,,,,3.5,3.4,1.0*36
$GPRMC,195033.000,A,5229.6052,N,01319.4359,E,2.63,292.62,110912,,,A*6F
$GPGGA,195034.000,5229.6049,N,01319.4353,E,1,04,3.4,31.9,M,44.8,M,,0000*6A
$GPGSA,A,3,32,01,20,17,,,,,,,,,3.5,3.4,1.0*36
$GPRMC,195034.000,A,5229.6049,N,01319.4353,E,1.99,301.68,110912,,,A*6F
$GPGGA,195035.000,5229.6051,N,01319.4350,E,1,04,3.4,31.9,M,44.8,M,,0000*61
$GPGSA,A,3,32,01,20,17,,,,,,,,,3.5,3.4,1.0*36
$GPGSV,3,1,10,32,86,076,15,01,77,154,14,20,59,257,20,11,52,160,*78
$GPGSV,3,2,10,17,33,303,22,14,21,043,15,23,21,195,,31,19,097,16*76
$GPGSV,3,3,10,19,05,173,,28,03,267,*7A
$GPRMC,195035.000,A,5229.6051,N,01319.4350,E,2.32,324.75,110912,,,A*6D
$GPGGA,195036.000,5229.6056,N,01319.4346,E,1,04,3.4,31.9,M,44.8,M,,0000*62
$GPGSA,A,3,32,01,20,17,,,,,,,,,3.5,3.4,1.0*36
$GPRMC,195036.000,A,5229.6056,N,01319.4346,E,3.37,339.35,110912,,,A*62
$GPGGA,195037.000,5229.6059,N,01319.4344,E,1,03,3.6,31.9,M,44.8,M,,0000*6B
$GPGSA,A,2,32,20,17,,,,,,,,,,3.7,3.6,1.0*36
$GPRMC,195037.000,A,5229.6059,N,01319.4344,E,2.83,349.88,110912,,,A*61
$GPGGA,195038.000,5229.6061,N,01319.4345,E,1,03,3.6,31.7,M,44.8,M,,0000*60
$GPGSA,A,2,32,20,17,,,,,,,,,,3.7,3.6,1.0*36
$GPRMC,195038.000,A,5229.6061,N,01319.4345,E,2.24,2.58,110912,,,A*68
$GPGGA,195039.000,5229.6062,N,01319.4346,E,0,00,,31.6,M,44.8,M,,0000*49
$GPGSA,A,1,,,,,,,,,,,,,,,*1E
$GPRMC,195051.000,A,5229.6129,N,01319.4388,E,7.72,26.05,110912,,,A*53
$GPGGA,195052.000,5229.6148,N,01319.4411,E,1,03,3.6,31.1,M,44.8,M,,0000*66
$GPGSA,A,2,32,20,17,,,,,,,,,,3.7,3.6,1.0*36
$GPRMC,195052.000,A,5229.6148,N,01319.4411,E,4.96,26.50,110912,,,A*59
$GPGGA,195053.000,5229.6160,N,01319.4429,E,1,04,3.4,31.9,M,44.8,M,,0000*6B
$GPGSA,A,3,32,01,20,17,,,,,,,,,3.5,3.4,1.0*36
$GPRMC,195053.000,A,5229.6160,N,01319.4429,E,3.12,40.30,110912,,,A*54
$GPGGA,195054.000,5229.6165,N,01319.4448,E,1,03,3.6,32.6,M,44.8,M,,0000*67
$GPGSA,A,2,32,20,17,,,,,,,,,,3.7,3.6,1.0*36
$GPRMC,195054.000,A,5229.6165,N,01319.4448,E,2.57,72.91,110912,,,A*5B
$GPGGA,195055.000,5229.6164,N,01319.4464,E,1,03,3.6,33.3,M,44.8,M,,0000*6D
$GPGSA,A,2,32,20,17,,,,,,,,,,3.7,3.6,1.0*36
$GPGSV,3,1,10,32,86,076,16,01,77,154,17,20,59,257,19,11,52,160,*72
$GPGSV,3,2,10,17,33,303,19,14,21,043,,23,21,195,,31,19,097,*7D
$GPGSV,3,3,10,19,05,173,,28,03,267,*7A
$GPRMC,195055.000,A,5229.6164,N,01319.4464,E,2.39,112.28,110912,,,A*68
$GPGGA,195056.000,5229.6153,N,01319.4482,E,1,03,3.6,34.1,M,44.8,M,,0000*67
$GPGSA,A,2,32,20,17,,,,,,,,,,3.7,3.6,1.0*36
$GPRMC,195056.000,A,5229.6153,N,01319.4482,E,4.30,142.71,110912,,,A*61
$GPGGA,195057.000,5229.6140,N,01319.4499,E,1,03,3.6,34.7,M,44.8,M,,0000*68
$GPGSA,A,2,32,20,17,,,,,,,,,,3.7,3.6,1.0*36
$GPRMC,195057.000,A,5229.6140,N,01319.4499,E,5.14,147.91,110912,,,A*64
$GPGGA,195058.000,5229.6126,N,01319.4516,E,0,00,,35.3,M,44.8,M,,0000*4D
$GPGSA,A,1,,,,,,,,,,,,,,,*1E
$GPRMC,195059.000,A,5229.6111,N,01319.4524,E,4.94,166.13,110912,,,A*69
