$GPGGA,180822.000,5351.9648,N,01041.0528,E,1,09,1.0,36.0,M,45.6,M,,0000*6D
$GPGSA,A,3,32,17,01,28,19,11,14,22,20,,,,1.8,1.0,1.5*3D
$GPRMC,180822.000,A,5351.9648,N,01041.0528,E,1.79,102.99,180912,,,A*6A
$GPGGA,180823.000,5351.9649,N,01041.0537,E,1,09,1.0,34.8,M,45.6,M,,0000*69
$GPGSA,A,3,32,17,01,28,19,11,14,22,20,,,,1.8,1.0,1.5*3D
$GPRMC,180823.000,A,5351.9649,N,01041.0537,E,1.65,102.76,180912,,,A*68
$GPGGA,180824.000,5351.9650,N,01041.0546,E,1,09,1.0,33.6,M,45.6,M,,0000*69
$GPGSA,A,3,32,17,01,28,19,11,14,22,20,,,,1.8,1.0,1.5*3D
$GPRMC,180824.000,A,5351.9650,N,01041.0546,E,1.62,99.12,180912,,,A*57
$GPGGA,180825.000,5351.9650,N,01041.0554,E,1,09,1.0,32.6,M,45.6,M,,0000*6A
$GPGSA,A,3,32,17,01,28,19,11,14,22,20,,,,1.8,1.0,1.5*3D
$GPGSV,3,1,12,11,79,213,24,01,68,285,34,32,58,219,28,14,40,069,39*7F
$GPGSV,3,2,12,19,36,171,27,20,28,236,27,28,22,291,40,22,22,064,41*7D
$GPGSV,3,3,12,17,12,319,27,03,06,167,14,09,05,004,,27,02,354,*7C
$GPRMC,180825.000,A,5351.9650,N,01041.0554,E,1.39,115.39,180912,,,A*67
$GPGGA,180826.000,5351.9651,N,01041.0561,E,1,09,1.0,31.8,M,45.6,M,,0000*63
$GPGSA,A,3,32,17,01,28,19,11,14,22,20,,,,1.8,1.0,1.5*3D
$GPRMC,180826.000,A,5351.9651,N,01041.0561,E,1.25,108.79,180912,,,A*66
$GPGGA,180827.000,5351.9650,N,01041.0569,E,1,09,1.0,31.1,M,45.6,M,,0000*62
$GPGSA,A,3,32,17,01,28,19,11,14,22,20,,,,1.8,1.0,1.5*3D
$GPRMC,180827.000,A,5351.9650,N,01041.0569,E,1.46,112.31,180912,,,A*6C
$GPGGA,180828.000,5351.9651,N,01041.0577,E,1,09,1.0,30.4,M,45.6,M,,0000*67
$GPGSA,A,3,32,17,01,28,19,11,14,22,20,,,,1.8,1.0,1.5*3D
$GPRMC,180828.000,A,5351.9651,N,01041.0577,E,1.51,105.90,180912,,,A*66
$GPGGA,180829.000,5351.9650,N,01041.0585,E,1,08,1.3,29.7,M,45.6,M,,0000*63
$GPGSA,A,3,32,17,01,28,11,14,22,20,,,,,2.2,1.3,1.7*3D
$GPRMC,180829.000,A,5351.9650,N,01041.0585,E,1.49,113.13,180912,,,A*6E
$GPGGA,180830.000,5351.9649,N,01041.0593,E,1,08,1.3,29.0,M,45.6,M,,0000*63
$GPGSA,A,3,32,17,01,28,11,14,22,20,,,,,2.2,1.3,1.7*3D
$GPGSV,3,1,12,11,79,213,27,01,68,285,36,32,58,219,26,14,40,069,40*7E
$GPGSV,3,2,12,19,36,171,,20,28,236,27,28,22,291,40,22,22,064,41*78
$GPGSV,3,3,12,17,12,319,25,03,06,167,13,09,05,004,,27,02,354,*79
$GPRMC,180830.000,A,5351.9649,N,01041.0593,E,1.59,122.78,180912,,,A*67
$GPGGA,180831.000,5351.9650,N,01041.0599,E,1,09,1.0,28.6,M,45.6,M,,0000*65
$GPGSA,A,3,32,17,01,19,28,11,14,22,20,,,,1.8,1.0,1.5*3D
$GPRMC,180831.000,A,5351.9650,N,01041.0599,E,1.12,111.11,180912,,,A*64
$GPGGA,180832.000,5351.9651,N,01041.0606,E,1,09,1.0,28.2,M,45.6,M,,0000*66
$GPGSA,A,3,32,17,01,19,28,11,14,22,20,,,,1.8,1.0,1.5*3D
$GPRMC,180832.000,A,5351.9651,N,01041.0606,E,1.39,89.30,180912,,,A*59
$GPGGA,180833.000,5351.9651,N,01041.0614,E,1,09,1.0,27.8,M,45.6,M,,0000*61
$GPGSA,A,3,32,17,01,19,28,11,14,22,20,,,,1.8,1.0,1.5*3D
$GPRMC,180833.000,A,5351.9651,N,01041.0614,E,1.57,111.93,180912,,,A*6A
$GPGGA,180834.000,5351.9650,N,01041.0621,E,1,08,1.0,27.5,M,45.6,M,,0000*6D
$GPGSA,A,3,32,17,01,19,28,14,22,20,,,,,2.0,1.0,1.8*3B
$GPRMC,180834.000,A,5351.9650,N,01041.0621,E,1.42,120.86,180912,,,A*68
$GPGGA,180835.000,5351.9651,N,01041.0628,E,1,09,1.0,27.3,M,45.6,M,,0000*63
$GPGSA,A,3,32,17,01,19,28,11,14,22,20,,,,1.8,1.0,1.5*3D
$GPGSV,3,1,12,11,79,213,29,01,68,285,29,32,58,219,28,14,40,069,41*71
$GPGSV,3,2,12,19,36,171,25,20,28,236,26,28,22,291,28,22,22,064,41*70
$GPGSV,3,3,12,17,12,319,30,03,06,167,14,09,05,004,13,27,02,354,*78
$GPRMC,180835.000,A,5351.9651,N,01041.0628,E,1.30,104.66,180912,,,A*6C
$GPGGA,180836.000,5351.9652,N,01041.0636,E,1,09,1.0,27.1,M,45.6,M,,0000*6E
$GPGSA,A,3,32,17,01,19,28,11,14,22,20,,,,1.8,1.0,1.5*3D
$GPRMC,180836.000,A,5351.9652,N,01041.0636,E,1.35,88.11,180912,,,A*53
$GPGGA,180837.000,5351.9654,N,01041.0645,E,1,09,1.0,26.8,M,45.6,M,,0000*65
$GPGSA,A,3,32,17,01,19,28,11,14,22,20,,,,1.8,1.0,1.5*3D
$GPRMC,180837.000,A,5351.9654,N,01041.0645,E,1.60,81.00,180912,,,A*59
$GPGGA,180838.000,5351.9656,N,01041.0653,E,1,09,1.0,26.4,M,45.6,M,,0000*63
$GPGSA,A,3,32,17,01,19,28,11,14,22,20,,,,1.8,1.0,1.5*3D
$GPRMC,180838.000,A,5351.9656,N,01041.0653,E,1.47,86.96,180912,,,A*5E
$GPGGA,180839.000,5351.9657,N,01041.0660,E,1,09,1.0,26.1,M,45.6,M,,0000*66
$GPGSA,A,3,32,17,01,19,28,11,14,22,20,,,,1.8,1.0,1.5*3D
$GPRMC,180839.000,A,5351.9657,N,01041.0660,E,1.25,90.06,180912,,,A*54
$GPGGA,180840.000,5351.9660,N,01041.0667,E,1,09,1.0,25.8,M,45.6,M,,0000*61
$GPGSA,A,3,32,17,01,19,28,11,14,22,20,,,,1.8,1.0,1.5*3D
$GPGSV,3,1,12,11,79,213,27,01,68,285,33,32,58,219,37,14,40,069,41*7A
$GPGSV,3,2,12,19,36,171,25,20,28,236,26,28,22,291,28,22,22,064,41*70
$GPGSV,3,3,12,17,12,319,27,03,06,167,19,09,05,004,14,27,02,354,*74
$GPRMC,180840.000,A,5351.9660,N,01041.0667,E,1.17,88.08,180912,,,A*5F
$GPGGA,180841.000,5351.9662,N,01041.0675,E,1,09,1.0,25.4,M,45.6,M,,0000*6D
$GPGSA,A,3,32,17,01,19,28,11,14,22,20,,,,1.8,1.0,1.5*3D
$GPRMC,180841.000,A,5351.9662,N,01041.0675,E,1.37,82.02,180912,,,A*5D
$GPGGA,180842.000,5351.9665,N,01041.0683,E,1,09,1.0,25.0,M,45.6,M,,0000*64
$GPGSA,A,3,32,17,01,19,28,11,14,22,20,,,,1.8,1.0,1.5*3D
$GPRMC,180842.000,A,5351.9665,N,01041.0683,E,1.47,85.31,180912,,,A*50
$GPGGA,180843.000,5351.9667,N,01041.0691,E,1,09,1.0,24.5,M,45.6,M,,0000*60
$GPGSA,A,3,32,17,01,19,28,11,14,22,20,,,,1.8,1.0,1.5*3D
$GPRMC,180843.000,A,5351.9667,N,01041.0691,E,1.49,89.12,180912,,,A*53
$GPGGA,180844.000,5351.9671,N,01041.0698,E,1,09,1.0,24.0,M,45.6,M,,0000*6C
$GPGSA,A,3,32,17,01,19,28,11,14,22,20,,,,1.8,1.0,1.5*3D
$GPRMC,180844.000,A,5351.9671,N,01041.0698,E,1.58,61.41,180912,,,A*5A
$GPGGA,180845.000,5351.9675,N,01041.0706,E,1,09,1.0,23.6,M,45.6,M,,0000*6E
$GPGSA,A,3,32,17,01,19,28,11,14,22,20,,,,1.8,1.0,1.5*3D
$GPGSV,3,1,12,11,79,213,27,01,68,285,35,32,58,219,29,14,40,069,41*73
$GPGSV,3,2,12,19,36,171,24,20,28,236,26,28,22,291,29,22,22,064,35*73
$GPGSV,3,3,12,17,12,319,28,03,06,167,17,09,05,004,,27,02,354,*70
$GPRMC,180845.000,A,5351.9675,N,01041.0706,E,1.57,73.40,180912,,,A*54
$GPGGA,180846.000,5351.9677,N,01041.0712,E,1,09,1.0,23.4,M,45.6,M,,0000*68
$GPGSA,A,3,32,17,01,19,28,11,14,22,20,,,,1.8,1.0,1.5*3D
$GPRMC,180846.000,A,5351.9677,N,01041.0712,E,0.95,73.43,180912,,,A*5C
$GPGGA,180847.000,5351.9680,N,01041.0717,E,1,09,1.0,23.3,M,45.6,M,,0000*63
$GPGSA,A,3,32,17,01,19,28,11,14,22,20,,,,1.8,1.0,1.5*3D
$GPRMC,180847.000,A,5351.9680,N,01041.0717,E,0.95,69.30,180912,,,A*5F
$GPGGA,180848.000,5351.9683,N,01041.0722,E,1,09,1.0,23.3,M,45.6,M,,0000*69
$GPGSA,A,3,32,17,01,19,28,11,14,22,20,,,,1.8,1.0,1.5*3D
$GPRMC,180848.000,A,5351.9683,N,01041.0722,E,0.99,69.62,180912,,,A*5E
$GPGGA,180849.000,5351.9689,N,01041.0729,E,1,09,1.0,23.6,M,45.6,M,,0000*6C
$GPGSA,A,3,32,17,01,19,28,11,14,22,20,,,,1.8,1.0,1.5*3D
$GPRMC,180849.000,A,5351.9689,N,01041.0729,E,1.49,59.53,180912,,,A*53
$GPGGA,180850.000,5351.9695,N,01041.0734,E,1,09,1.0,24.2,M,45.6,M,,0000*66
$GPGSA,A,3,32,17,01,19,28,11,14,22,20,,,,1.8,1.0,1.5*3D
$GPGSV,3,1,12,11,79,213,27,01,68,285,33,32,58,219,28,14,40,069,41*74
$GPGSV,3,2,12,19,36,171,26,20,28,236,25,28,22,291,26,22,22,064,41*7E
$GPGSV,3,3,12,17,12,319,24,03,06,167,15,09,05,004,,27,02,354,*7E
$GPRMC,180850.000,A,5351.9695,N,01041.0734,E,1.04,60.25,180912,,,A*58
$GPGGA,180851.000,5351.9702,N,01041.0741,E,1,09,1.0,24.8,M,45.6,M,,0000*60
$GPGSA,A,3,32,17,01,19,28,11,14,22,20,,,,1.8,1.0,1.5*3D
$GPRMC,180851.000,A,5351.9702,N,01041.0741,E,1.27,80.96,180912,,,A*53
$GPGGA,180852.000,5351.9708,N,01041.0747,E,1,09,1.0,25.3,M,45.6,M,,0000*65
$GPGSA,A,3,32,17,01,19,28,11,14,22,20,,,,1.8,1.0,1.5*3D
$GPRMC,180852.000,A,5351.9708,N,01041.0747,E,1.14,75.41,180912,,,A*5C
$GPGGA,180853.000,5351.9713,N,01041.0754,E,1,09,1.0,25.7,M,45.6,M,,0000*68
$GPGSA,A,3,32,17,01,19,28,11,14,22,20,,,,1.8,1.0,1.5*3D
$GPRMC,180853.000,A,5351.9713,N,01041.0754,E,1.07,97.07,180912,,,A*59
$GPGGA,180854.000,5351.9719,N,01041.0759,E,1,09,1.0,26.1,M,45.6,M,,0000*6D
$GPGSA,A,3,32,17,01,19,28,11,14,22,20,,,,1.8,1.0,1.5*3D
$GPRMC,180854.000,A,5351.9719,N,01041.0759,E,0.89,82.71,180912,,,A*5B
$GPGGA,180855.000,5351.9725,N,01041.0762,E,1,09,1.0,26.5,M,45.6,M,,0000*6F
$GPGSA,A,3,32,17,01,19,28,11,14,22,20,,,,1.8,1.0,1.5*3D
$GPGSV,3,1,12,11,79,213,28,01,68,285,31,32,58,219,27,14,40,069,41*76
$GPGSV,3,2,12,19,36,171,28,20,28,236,28,28,22,291,32,22,22,064,35*7B
$GPGSV,3,3,12,17,12,319,21,03,06,167,14,09,05,004,,27,02,354,*7A
$GPRMC,180911.000,A,5351.9790,N,01041.0794,E,0.96,89.85,180912,,,A*55
$GPGGA,180912.000,5351.9792,N,01041.0799,E,1,09,1.0,33.6,M,45.6,M,,0000*62
$GPGSA,A,3,32,17,01,19,28,11,14,22,20,,,,1.8,1.0,1.5*3D
$GPRMC,180912.000,A,5351.9792,N,01041.0799,E,0.99,71.44,180912,,,A*5C
$GPGGA,180913.000,5351.9795,N,01041.0804,E,1,09,1.0,33.8,M,45.6,M,,0000*61
$GPGSA,A,3,32,17,01,19,28,11,14,22,20,,,,1.8,1.0,1.5*3D
$GPRMC,180913.000,A,5351.9795,N,01041.0804,E,0.82,68.94,180912,,,A*5E
$GPGGA,180914.000,5351.9798,N,01041.0809,E,1,09,1.0,34.0,M,45.6,M,,0000*69
$GPGSA,A,3,32,17,01,19,28,11,14,22,20,,,,1.8,1.0,1.5*3D
$GPRMC,180914.000,A,5351.9798,N,01041.0809,E,1.12,70.28,180912,,,A*5F
$GPGGA,180915.000,5351.9801,N,01041.0815,E,1,09,1.0,34.2,M,45.6,M,,0000*68
$GPGSA,A,3,32,17,01,19,28,11,14,22,20,,,,1.8,1.0,1.5*3D
$GPGSV,3,1,12,11,79,213,25,01,68,285,31,32,58,219,28,14,40,069,39*7B
$GPGSV,3,2,12,19,36,171,26,20,28,236,23,28,22,291,25,22,22,064,32*7F
$GPGSV,3,3,12,17,12,319,25,03,06,167,,09,05,004,14,27,02,354,*7E
$GPRMC,180915.000,A,5351.9801,N,01041.0815,E,1.30,83.99,180912,,,A*5A
$GPGGA,180916.000,5351.9803,N,01041.0821,E,1,09,1.0,34.1,M,45.6,M,,0000*6D
$GPGSA,A,3,32,17,01,19,28,11,14,22,20,,,,1.8,1.0,1.5*3D
$GPRMC,180916.000,A,5351.9803,N,01041.0821,E,1.09,84.54,180912,,,A*50
$GPGGA,180917.000,5351.9807,N,01041.0827,E,1,09,1.0,33.8,M,45.6,M,,0000*60
$GPGSA,A,3,32,17,01,19,28,11,14,22,20,,,,1.8,1.0,1.5*3D
$GPRMC,180917.000,A,5351.9807,N,01041.0827,E,1.24,69.12,180912,,,A*5D
$GPGGA,180918.000,5351.9809,N,01041.0834,E,1,09,1.0,33.4,M,45.6,M,,0000*6F
$GPGSA,A,3,32,17,01,19,28,11,14,22,20,,,,1.8,1.0,1.5*3D
$GPRMC,180918.000,A,5351.9809,N,01041.0834,E,1.18,81.39,180912,,,A*5E
$GPGGA,180919.000,5351.9810,N,01041.0841,E,1,09,1.0,33.0,M,45.6,M,,0000*60
$GPGSA,A,3,32,17,01,19,28,11,14,22,20,,,,1.8,1.0,1.5*3D
$GPRMC,180919.000,A,5351.9810,N,01041.0841,E,1.28,97.36,180912,,,A*5E
$GPGGA,180920.000,5351.9812,N,01041.0850,E,1,09,1.0,32.7,M,45.6,M,,0000*6E
$GPGSA,A,3,32,17,01,19,28,11,14,22,20,,,,1.8,1.0,1.5*3D
$GPGSV,3,1,12,11,79,213,25,01,68,285,33,32,58,219,28,14,40,069,40*77
$GPGSV,3,2,12,19,36,171,25,20,28,236,27,28,22,291,26,22,22,064,42*7C
$GPGSV,3,3,12,17,12,319,28,03,06,167,,09,05,004,,27,02,354,*76
$GPRMC,180920.000,A,5351.9812,N,01041.0850,E,1.53,91.47,180912,,,A*5A
$GPGGA,180921.000,5351.9812,N,01041.0859,E,1,09,1.0,32.4,M,45.6,M,,0000*65
$GPGSA,A,3,32,17,01,19,28,11,14,22,20,,,,1.8,1.0,1.5*3D
$GPRMC,180921.000,A,5351.9812,N,01041.0859,E,1.77,113.46,180912,,,A*6E
$GPGGA,180922.000,5351.9813,N,01041.0866,E,1,09,1.0,32.1,M,45.6,M,,0000*6E
$GPGSA,A,3,32,17,01,19,28,11,14,22,20,,,,1.8,1.0,1.5*3D
$GPRMC,180922.000,A,5351.9813,N,01041.0866,E,1.24,89.21,180912,,,A*55
$GPGGA,180923.000,5351.9815,N,01041.0873,E,1,09,1.0,31.9,M,45.6,M,,0000*66
$GPGSA,A,3,32,17,01,19,28,11,14,22,20,,,,1.8,1.0,1.5*3D
$GPRMC,180923.000,A,5351.9815,N,01041.0873,E,1.10,79.04,180912,,,A*59
$GPGGA,180924.000,5351.9817,N,01041.0879,E,1,09,1.0,31.6,M,45.6,M,,0000*66
$GPGSA,A,3,32,17,01,19,28,11,14,22,20,,,,1.8,1.0,1.5*3D
$GPRMC,180924.000,A,5351.9817,N,01041.0879,E,1.19,80.04,180912,,,A*59
$GPGGA,180925.000,5351.9819,N,01041.0885,E,1,09,1.0,31.4,M,45.6,M,,0000*68
$GPGSA,A,3,32,17,01,19,28,11,14,22,20,,,,1.8,1.0,1.5*3D
$GPGSV,3,1,12,11,79,213,24,01,68,285,34,32,58,219,30,14,40,069,40*78
$GPGSV,3,2,12,19,36,171,25,20,28,236,27,28,22,291,29,22,22,064,40*71
$GPGSV,3,3,12,17,12,319,30,03,06,167,12,09,05,004,,27,02,354,*7C
$GPRMC,180925.000,A,5351.9819,N,01041.0885,E,0.97,75.02,180912,,,A*5E
$GPGGA,180926.000,5351.9821,N,01041.0891,E,1,09,1.0,31.2,M,45.6,M,,0000*63
$GPGSA,A,3,32,17,01,19,28,11,14,22,20,,,,1.8,1.0,1.5*3D
$GPRMC,180926.000,A,5351.9821,N,01041.0891,E,0.99,74.91,180912,,,A*56
$GPGGA,180927.000,5351.9823,N,01041.0898,E,1,09,1.0,31.0,M,45.6,M,,0000*6B
$GPGSA,A,3,32,17,01,19,28,11,14,22,20,,,,1.8,1.0,1.5*3D
$GPRMC,180927.000,A,5351.9823,N,01041.0898,E,1.43,81.02,180912,,,A*5A
$GPGGA,180928.000,5351.9825,N,01041.0904,E,1,09,1.0,30.9,M,45.6,M,,0000*6E
$GPGSA,A,3,32,17,01,19,28,11,14,22,20,,,,1.8,1.0,1.5*3D
$GPRMC,180928.000,A,5351.9825,N,01041.0904,E,0.89,73.85,180912,,,A*52
$GPGGA,180929.000,5351.9828,N,01041.0910,E,1,09,1.0,30.9,M,45.6,M,,0000*67
$GPGSA,A,3,32,17,01,19,28,11,14,22,20,,,,1.8,1.0,1.5*3D
$GPRMC,180929.000,A,5351.9828,N,01041.0910,E,1.22,54.43,180912,,,A*54
$GPGGA,180930.000,5351.9830,N,01041.0916,E,1,09,1.0,31.1,M,45.6,M,,0000*69
$GPGSA,A,3,32,17,01,19,28,11,14,22,20,,,,1.8,1.0,1.5*3D
$GPGSV,3,1,12,11,79,213,25,01,68,285,35,32,58,219,29,14,40,069,40*70
$GPGSV,3,2,12,19,36,171,25,20,28,236,27,28,22,291,29,22,22,064,43*72
$GPGSV,3,3,12,17,12,319,30,03,06,167,13,09,05,004,,27,02,354,*7D
$GPRMC,180930.000,A,5351.9830,N,01041.0916,E,1.21,70.22,180912,,,A*51
$GPGGA,180931.000,5351.9830,N,01041.0925,E,1,09,1.0,31.2,M,45.6,M,,0000*6B
$GPGSA,A,3,32,17,01,19,28,11,14,22,20,,,,1.8,1.0,1.5*3D
$GPRMC,180931.000,A,5351.9830,N,01041.0925,E,1.50,94.51,180912,,,A*58
$GPGGA,180932.000,5351.9832,N,01041.0933,E,1,09,1.0,31.2,M,45.6,M,,0000*6D
$GPGSA,A,3,32,17,01,19,28,11,14,22,20,,,,1.8,1.0,1.5*3D
$GPRMC,180932.000,A,5351.9832,N,01041.0933,E,1.51,79.08,180912,,,A*50
$GPGGA,180933.000,5351.9833,N,01041.0941,E,1,09,1.0,31.1,M,45.6,M,,0000*6B
$GPGSA,A,3,32,17,01,19,28,11,14,22,20,,,,1.8,1.0,1.5*3D
$GPRMC,180933.000,A,5351.9833,N,01041.0941,E,1.67,80.04,180912,,,A*5A
$GPGGA,180934.000,5351.9834,N,01041.0950,E,1,09,1.0,30.9,M,45.6,M,,0000*62
$GPGSA,A,3,32,17,01,19,28,11,14,22,20,,,,1.8,1.0,1.5*3D
$GPRMC,180934.000,A,5351.9834,N,01041.0950,E,1.64,87.11,180912,,,A*5A
$GPGGA,180935.000,5351.9835,N,01041.0957,E,1,09,1.0,30.7,M,45.6,M,,0000*6B
$GPGSA,A,3,32,17,01,19,28,11,14,22,20,,,,1.8,1.0,1.5*3D
$GPGSV,3,1,12,11,79,213,24,01,68,285,35,32,58,219,25,14,40,069,40*7D
$GPGSV,3,2,12,19,36,171,26,20,28,236,28,28,22,291,38,22,22,064,43*7E
$GPGSV,3,3,12,17,12,319,34,03,06,167,14,09,05,004,,27,02,354,*7E
$GPRMC,180935.000,A,5351.9835,N,01041.0957,E,1.54,77.00,180912,,,A*51
$GPGGA,180936.000,5351.9835,N,01041.0965,E,1,09,1.0,30.5,M,45.6,M,,0000*6B
$GPGSA,A,3,32,17,01,19,28,11,14,22,20,,,,1.8,1.0,1.5*3D
$GPRMC,180936.000,A,5351.9835,N,01041.0965,E,1.52,86.21,180912,,,A*58
$GPGGA,180937.000,5351.9835,N,01041.0972,E,1,09,1.0,30.4,M,45.6,M,,0000*6D
$GPGSA,A,3,32,17,01,19,28,11,14,22,20,,,,1.8,1.0,1.5*3D
$GPRMC,180937.000,A,5351.9835,N,01041.0972,E,1.29,96.50,180912,,,A*54
$GPGGA,180938.000,5351.9834,N,01041.0980,E,1,09,1.0,30.4,M,45.6,M,,0000*6E
$GPGSA,A,3,32,17,01,19,28,11,14,22,20,,,,1.8,1.0,1.5*3D
$GPRMC,180938.000,A,5351.9834,N,01041.0980,E,1.62,102.65,180912,,,A*62
$GPGGA,180939.000,5351.9833,N,01041.0987,E,1,09,1.0,30.6,M,45.6,M,,0000*6D
$GPGSA,A,3,32,17,01,19,28,11,14,22,20,,,,1.8,1.0,1.5*3D
$GPRMC,180939.000,A,5351.9833,N,01041.0987,E,1.31,95.46,180912,,,A*5B
$GPGGA,180940.000,5351.9833,N,01041.0994,E,1,09,1.0,30.8,M,45.6,M,,0000*6F
$GPGSA,A,3,32,17,01,19,28,11,14,22,20,,,,1.8,1.0,1.5*3D
$GPGSV,3,1,12,11,79,213,32,01,68,285,33,32,58,219,25,14,40,069,37*7C
$GPGSV,3,2,12,19,36,171,25,20,28,236,26,28,22,291,39,22,22,064,34*72
$GPGSV,3,3,12,17,12,319,36,03,06,167,14,09,05,004,13,27,02,354,*7E
$GPRMC,180940.000,A,5351.9833,N,01041.0994,E,1.21,84.12,180912,,,A*57
$GPGGA,180941.000,5351.9832,N,01041.0998,E,1,09,1.0,31.1,M,45.6,M,,0000*6B
$GPGSA,A,3,32,17,01,19,28,11,14,22,20,,,,1.8,1.0,1.5*3D
$GPRMC,181007.000,A,5351.9841,N,01041.0993,E,0.81,117.82,180912,,,A*67
$GPGGA,181008.000,5351.9842,N,01041.1000,E,1,09,1.0,47.5,M,45.6,M,,0000*65
$GPGSA,A,3,32,17,01,19,28,11,14,22,20,,,,1.8,1.0,1.5*3D
$GPRMC,181008.000,A,5351.9842,N,01041.1000,E,1.77,71.67,180912,,,A*5B
$GPGGA,181009.000,5351.9844,N,01041.1007,E,1,09,1.0,47.4,M,45.6,M,,0000*64
$GPGSA,A,3,32,17,01,19,28,11,14,22,20,,,,1.8,1.0,1.5*3D
$GPRMC,181009.000,A,5351.9844,N,01041.1007,E,1.94,49.40,180912,,,A*58
$GPGGA,181010.000,5351.9847,N,01041.1012,E,1,09,1.0,47.1,M,45.6,M,,0000*6E
$GPGSA,A,3,32,17,01,19,28,11,14,22,20,,,,1.8,1.0,1.5*3D
$GPGSV,3,1,12,11,79,213,28,01,68,285,39,32,58,219,28,14,40,069,38*7F
$GPGSV,3,2,12,19,36,171,42,20,28,236,26,28,22,291,45,22,22,064,24*79
$GPGSV,3,3,12,17,12,319,33,03,06,167,21,09,05,004,,27,02,354,*7F
$GPRMC,181010.000,A,5351.9847,N,01041.1012,E,2.02,38.83,180912,,,A*52
$GPGGA,181011.000,5351.9849,N,01041.1017,E,1,09,1.0,46.8,M,45.6,M,,0000*6C
$GPGSA,A,3,32,17,01,19,28,11,14,22,20,,,,1.8,1.0,1.5*3D
$GPRMC,181011.000,A,5351.9849,N,01041.1017,E,2.02,27.18,180912,,,A*54
$GPGGA,181012.000,5351.9851,N,01041.1021,E,1,09,1.0,46.4,M,45.6,M,,0000*6F
$GPGSA,A,3,32,17,01,19,28,11,14,22,20,,,,1.8,1.0,1.5*3D
$GPRMC,181012.000,A,5351.9851,N,01041.1021,E,1.83,30.99,180912,,,A*5E
$GPGGA,181013.000,5351.9851,N,01041.1027,E,1,09,1.0,45.8,M,45.6,M,,0000*67
$GPGSA,A,3,32,17,01,19,28,11,14,22,20,,,,1.8,1.0,1.5*3D
$GPRMC,181013.000,A,5351.9851,N,01041.1027,E,2.08,35.61,180912,,,A*5B
$GPGGA,181014.000,5351.9851,N,01041.1033,E,1,09,1.0,45.1,M,45.6,M,,0000*6C
$GPGSA,A,3,32,17,01,19,28,11,14,22,20,,,,1.8,1.0,1.5*3D
$GPRMC,181014.000,A,5351.9851,N,01041.1033,E,1.83,36.55,180912,,,A*5D
$GPGGA,181015.000,5351.9848,N,01041.1038,E,1,09,1.0,44.3,M,45.6,M,,0000*6D
$GPGSA,A,3,32,17,01,19,28,11,14,22,20,,,,1.8,1.0,1.5*3D
$GPGSV,3,1,12,11,79,213,32,01,68,285,39,32,58,219,35,14,40,069,39*79
$GPGSV,3,2,12,19,36,171,44,20,28,236,26,28,22,291,44,22,22,064,29*73
$GPGSV,3,3,12,17,12,319,40,03,06,167,21,09,05,004,16,27,02,354,*7C
$GPRMC,181015.000,A,5351.9848,N,01041.1038,E,1.45,42.62,180912,,,A*52
$GPGGA,181016.000,5351.9846,N,01041.1042,E,1,09,1.0,43.4,M,45.6,M,,0000*6D
$GPGSA,A,3,32,17,01,19,28,11,14,22,20,,,,1.8,1.0,1.5*3D
$GPRMC,181016.000,A,5351.9846,N,01041.1042,E,1.50,34.62,180912,,,A*57
$GPGGA,181017.000,5351.9844,N,01041.1046,E,1,09,1.0,42.5,M,45.6,M,,0000*6A
$GPGSA,A,3,32,17,01,19,28,11,14,22,20,,,,1.8,1.0,1.5*3D
$GPRMC,181017.000,A,5351.9844,N,01041.1046,E,1.50,24.29,180912,,,A*5E
$GPGGA,181018.000,5351.9841,N,01041.1049,E,1,09,1.0,41.5,M,45.6,M,,0000*6C
$GPGSA,A,3,32,17,01,19,28,11,14,22,20,,,,1.8,1.0,1.5*3D
$GPRMC,181018.000,A,5351.9841,N,01041.1049,E,1.64,25.93,180912,,,A*5C
$GPGGA,181019.000,5351.9838,N,01041.1054,E,1,08,1.1,40.5,M,45.6,M,,0000*6E
$GPGSA,A,3,32,17,01,19,28,11,14,20,,,,,2.0,1.1,1.6*34
$GPRMC,181019.000,A,5351.9838,N,01041.1054,E,1.68,34.58,180912,,,A*54
$GPGGA,181020.000,5351.9835,N,01041.1060,E,1,08,1.1,39.6,M,45.6,M,,0000*63
$GPGSA,A,3,32,17,01,19,28,11,14,20,,,,,2.0,1.1,1.6*34
$GPGSV,3,1,12,11,79,213,33,01,68,285,40,32,58,219,32,14,40,069,40*7F
$GPGSV,3,2,12,19,36,171,44,20,28,236,28,28,22,291,43,22,22,064,*71
$GPGSV,3,3,12,17,12,319,33,03,06,167,20,09,05,004,16,27,02,354,*79
$GPRMC,181020.000,A,5351.9835,N,01041.1060,E,1.72,41.68,180912,,,A*5E
$GPGGA,181021.000,5351.9832,N,01041.1067,E,1,09,1.0,38.8,M,45.6,M,,0000*6D
$GPGSA,A,3,32,17,01,19,28,11,14,22,20,,,,1.8,1.0,1.5*3D
$GPRMC,181021.000,A,5351.9832,N,01041.1067,E,1.74,44.37,180912,,,A*56
$GPGGA,181022.000,5351.9829,N,01041.1072,E,1,09,1.0,37.9,M,45.6,M,,0000*6E
$GPGSA,A,3,32,17,01,19,28,11,14,22,20,,,,1.8,1.0,1.5*3D
$GPRMC,181022.000,A,5351.9829,N,01041.1072,E,1.75,40.01,180912,,,A*5B
$GPGGA,181023.000,5351.9826,N,01041.1078,E,1,09,1.0,37.1,M,45.6,M,,0000*62
$GPGSA,A,3,32,17,01,19,28,11,14,22,20,,,,1.8,1.0,1.5*3D
$GPRMC,181023.000,A,5351.9826,N,01041.1078,E,1.72,38.61,180912,,,A*51
$GPGGA,181024.000,5351.9823,N,01041.1083,E,1,09,1.0,36.3,M,45.6,M,,0000*67
$GPGSA,A,3,32,17,01,19,28,11,14,22,20,,,,1.8,1.0,1.5*3D
$GPRMC,181024.000,A,5351.9823,N,01041.1083,E,1.71,36.11,180912,,,A*5D
$GPGGA,181025.000,5351.9820,N,01041.1089,E,1,09,1.0,35.5,M,45.6,M,,0000*6A
$GPGSA,A,3,32,17,01,19,28,11,14,22,20,,,,1.8,1.0,1.5*3D
$GPGSV,3,1,12,11,78,207,33,01,69,285,40,32,59,219,32,14,40,068,40*7A
$GPGSV,3,2,12,19,35,171,45,20,29,237,34,28,22,290,43,22,21,064,30*7F
$GPGSV,3,3,12,17,13,318,32,03,05,166,20,09,05,003,16,27,02,353,*7A
$GPRMC,181025.000,A,5351.9820,N,01041.1089,E,1.80,35.30,180912,,,A*5B
$GPGGA,181026.000,5351.9818,N,01041.1094,E,1,09,1.0,34.6,M,45.6,M,,0000*6C
$GPGSA,A,3,32,17,01,19,28,11,14,22,20,,,,1.8,1.0,1.5*3D
$GPRMC,181026.000,A,5351.9818,N,01041.1094,E,1.76,36.78,180912,,,A*59
$GPGGA,181027.000,5351.9815,N,01041.1099,E,1,09,1.0,33.8,M,45.6,M,,0000*64
$GPGSA,A,3,32,17,01,19,28,11,14,22,20,,,,1.8,1.0,1.5*3D
$GPRMC,181027.000,A,5351.9815,N,01041.1099,E,1.59,35.53,180912,,,A*5F
$GPGGA,181028.000,5351.9813,N,01041.1103,E,1,09,1.0,33.0,M,45.6,M,,0000*67
$GPGSA,A,3,32,17,01,19,28,11,14,22,20,,,,1.8,1.0,1.5*3D
$GPRMC,181028.000,A,5351.9813,N,01041.1103,E,1.58,31.45,180912,,,A*56
$GPGGA,181029.000,5351.9811,N,01041.1107,E,1,08,1.1,32.2,M,45.6,M,,0000*63
$GPGSA,A,3,32,17,01,19,11,14,22,20,,,,,1.9,1.1,1.5*37
$GPRMC,181029.000,A,5351.9811,N,01041.1107,E,1.66,34.65,180912,,,A*5B
$GPGGA,181030.000,5351.9809,N,01041.1111,E,1,09,1.0,31.4,M,45.6,M,,0000*60
$GPGSA,A,3,32,17,01,19,28,11,14,22,20,,,,1.8,1.0,1.5*3D
$GPGSV,3,1,12,11,78,207,33,01,69,285,41,32,59,219,39,14,40,068,41*71
$GPGSV,3,2,12,19,35,171,38,20,29,237,43,28,22,290,26,22,21,064,25*72
$GPGSV,3,3,12,17,13,318,32,03,05,166,21,09,05,003,16,27,02,353,*7B
$GPRMC,181030.000,A,5351.9809,N,01041.1111,E,1.57,35.25,180912,,,A*5A
$GPGGA,181031.000,5351.9807,N,01041.1116,E,1,09,1.0,30.8,M,45.6,M,,0000*65
$GPGSA,A,3,32,17,01,19,28,11,14,22,20,,,,1.8,1.0,1.5*3D
$GPRMC,181031.000,A,5351.9807,N,01041.1116,E,1.41,44.46,180912,,,A*56
$GPGGA,181032.000,5351.9805,N,01041.1120,E,1,09,1.0,30.2,M,45.6,M,,0000*6B
$GPGSA,A,3,32,17,01,19,28,11,14,22,20,,,,1.8,1.0,1.5*3D
$GPRMC,181032.000,A,5351.9805,N,01041.1120,E,1.52,35.04,180912,,,A*50
$GPGGA,181033.000,5351.9803,N,01041.1125,E,1,08,1.1,29.7,M,45.6,M,,0000*64
$GPGSA,A,3,32,17,01,19,11,14,22,20,,,,,1.9,1.1,1.5*37
$GPRMC,181033.000,A,5351.9803,N,01041.1125,E,1.49,51.05,180912,,,A*5B
$GPGGA,181034.000,5351.9801,N,01041.1130,E,1,09,1.0,29.1,M,45.6,M,,0000*63
$GPGSA,A,3,32,17,01,19,28,11,14,22,20,,,,1.8,1.0,1.5*3D
$GPRMC,181034.000,A,5351.9801,N,01041.1130,E,1.50,42.52,180912,,,A*52
$GPGGA,181035.000,5351.9800,N,01041.1135,E,1,09,1.0,28.6,M,45.6,M,,0000*60
$GPGSA,A,3,32,17,01,19,28,11,14,22,20,,,,1.8,1.0,1.5*3D
$GPGSV,3,1,12,11,78,207,32,01,69,285,29,32,59,219,39,14,40,068,41*7E
$GPGSV,3,2,12,19,35,171,38,20,29,237,35,28,22,290,32,22,21,064,31*73
$GPGSV,3,3,12,17,13,318,28,03,05,166,21,09,05,003,15,27,02,353,*73
$GPRMC,181035.000,A,5351.9800,N,01041.1135,E,1.60,49.96,180912,,,A*57
$GPGGA,181036.000,5351.9800,N,01041.1138,E,1,08,1.1,28.1,M,45.6,M,,0000*69
$GPGSA,A,3,32,01,19,28,11,14,22,20,,,,,1.9,1.1,1.6*38
$GPRMC,181036.000,A,5351.9800,N,01041.1138,E,1.64,28.04,180912,,,A*51
$GPGGA,181037.000,5351.9799,N,01041.1142,E,1,09,1.0,27.6,M,45.6,M,,0000*62
$GPGSA,A,3,32,17,01,19,28,11,14,22,20,,,,1.8,1.0,1.5*3D
$GPRMC,181037.000,A,5351.9799,N,01041.1142,E,1.50,35.36,180912,,,A*58
$GPGGA,181038.000,5351.9799,N,01041.1146,E,1,09,1.0,27.2,M,45.6,M,,0000*6D
$GPGSA,A,3,32,17,01,19,28,11,14,22,20,,,,1.8,1.0,1.5*3D
$GPRMC,181038.000,A,5351.9799,N,01041.1146,E,1.60,28.74,180912,,,A*5A
$GPGGA,181039.000,5351.9799,N,01041.1149,E,1,09,1.0,26.8,M,45.6,M,,0000*68
$GPGSA,A,3,32,17,01,19,28,11,14,22,20,,,,1.8,1.0,1.5*3D
$GPRMC,181039.000,A,5351.9799,N,01041.1149,E,1.50,29.84,180912,,,A*59
$GPGGA,181040.000,5351.9799,N,01041.1153,E,1,09,1.0,26.5,M,45.6,M,,0000*60
$GPGSA,A,3,32,17,01,19,28,11,14,22,20,,,,1.8,1.0,1.5*3D
$GPGSV,3,1,12,11,78,207,32,01,69,285,28,32,59,219,35,14,40,068,41*73
$GPGSV,3,2,12,19,35,171,40,20,29,237,29,28,22,290,33,22,21,064,26*76
$GPGSV,3,3,12,17,13,318,28,03,05,166,21,09,05,003,15,27,02,353,*73
$GPRMC,181040.000,A,5351.9799,N,01041.1153,E,1.47,31.47,180912,,,A*5C
$GPGGA,181041.000,5351.9799,N,01041.1157,E,1,09,1.0,26.2,M,45.6,M,,0000*62
$GPGSA,A,3,32,17,01,19,28,11,14,22,20,,,,1.8,1.0,1.5*3D
$GPRMC,181041.000,A,5351.9799,N,01041.1157,E,1.34,33.05,180912,,,A*59
$GPGGA,181042.000,5351.9799,N,01041.1160,E,1,09,1.0,26.0,M,45.6,M,,0000*67
$GPGSA,A,3,32,17,01,19,28,11,14,22,20,,,,1.8,1.0,1.5*3D
$GPRMC,181042.000,A,5351.9799,N,01041.1160,E,1.36,28.57,180912,,,A*51
$GPGGA,181043.000,5351.9799,N,01041.1164,E,1,08,1.1,26.0,M,45.6,M,,0000*62
$GPGSA,A,3,32,01,19,28,11,14,22,20,,,,,1.9,1.1,1.6*38
$GPRMC,181043.000,A,5351.9799,N,01041.1164,E,1.47,26.77,180912,,,A*5E
$GPGGA,181044.000,5351.9799,N,01041.1167,E,1,08,1.1,26.0,M,45.6,M,,0000*66
$GPGSA,A,3,32,01,19,28,11,14,22,20,,,,,1.9,1.1,1.6*38
$GPRMC,181044.000,A,5351.9799,N,01041.1167,E,1.26,26.69,180912,,,A*52
$GPGGA,181045.000,5351.9799,N,01041.1171,E,1,09,1.0,26.1,M,45.6,M,,0000*61
$GPGSA,A,3,32,17,01,19,28,11,14,22,20,,,,1.8,1.0,1.5*3D
$GPGSV,3,1,12,11,78,206,32,01,69,285,25,32,60,219,31,14,40,067,42*7D
$GPGSV,3,2,12,19,34,171,40,20,29,237,31,28,22,290,33,22,20,064,25*7C
$GPGSV,3,3,12,17,13,318,23,03,05,166,24,09,05,003,15,27,01,353,*7E
$GPRMC,181045.000,A,5351.9799,N,01041.1171,E,1.17,23.21,180912,,,A*5F
$GPGGA,181046.000,5351.9798,N,01041.1175,E,1,09,1.0,26.3,M,45.6,M,,0000*65
$GPGSA,A,3,32,17,01,19,28,11,14,22,20,,,,1.8,1.0,1.5*3D
$GPRMC,181046.000,A,5351.9798,N,01041.1175,E,1.14,33.16,180912,,,A*5F
$GPGGA,181047.000,5351.9798,N,01041.1180,E,1,09,1.0,26.6,M,45.6,M,,0000*6B
$GPGSA,A,3,32,17,01,19,28,11,14,22,20,,,,1.8,1.0,1.5*3D
$GPRMC,181047.000,A,5351.9798,N,01041.1180,E,1.11,38.49,180912,,,A*50
$GPGGA,181048.000,5351.9797,N,01041.1184,E,1,09,1.0,26.8,M,45.6,M,,0000*61
$GPGSA,A,3,32,17,01,19,28,11,14,22,20,,,,1.8,1.0,1.5*3D
$GPRMC,181048.000,A,5351.9797,N,01041.1184,E,0.91,23.87,180912,,,A*55
$GPGGA,181049.000,5351.9794,N,01041.1188,E,1,09,1.0,26.9,M,45.6,M,,0000*6E
$GPGSA,A,3,32,17,01,19,28,11,14,22,20,,,,1.8,1.0,1.5*3D
$GPRMC,181056.000,A,5351.9779,N,01041.1213,E,1.37,30.47,180912,,,A*54
$GPGGA,181057.000,5351.9780,N,01041.1220,E,1,09,1.0,29.0,M,45.6,M,,0000*63
$GPGSA,A,3,32,17,01,19,28,11,14,22,20,,,,1.8,1.0,1.5*3D
$GPRMC,181057.000,A,5351.9780,N,01041.1220,E,1.55,21.86,180912,,,A*5A
$GPGGA,181058.000,5351.9780,N,01041.1227,E,1,09,1.0,29.6,M,45.6,M,,0000*6D
$GPGSA,A,3,32,17,01,19,28,11,14,22,20,,,,1.8,1.0,1.5*3D
$GPRMC,181058.000,A,5351.9780,N,01041.1227,E,1.63,28.75,180912,,,A*52
$GPGGA,181059.000,5351.9780,N,01041.1233,E,1,09,1.0,30.1,M,45.6,M,,0000*66
$GPGSA,A,3,32,17,01,19,28,11,14,22,20,,,,1.8,1.0,1.5*3D
$GPRMC,181059.000,A,5351.9780,N,01041.1233,E,1.19,24.35,180912,,,A*53
$GPGGA,181100.000,5351.9781,N,01041.1240,E,1,09,1.0,30.8,M,45.6,M,,0000*67
$GPGSA,A,3,32,17,01,19,28,11,14,22,20,,,,1.8,1.0,1.5*3D
$GPGSV,3,1,12,11,78,206,35,01,69,285,26,32,60,219,33,14,40,067,43*7A
$GPGSV,3,2,12,19,34,171,42,20,29,237,30,28,22,290,30,22,20,064,21*78
$GPGSV,3,3,12,17,13,318,28,03,05,166,22,09,05,003,14,27,01,353,*72
$GPRMC,181100.000,A,5351.9781,N,01041.1240,E,1.55,27.03,180912,,,A*55
$GPGGA,181101.000,5351.9782,N,01041.1247,E,1,09,1.0,31.4,M,45.6,M,,0000*6F
$GPGSA,A,3,32,17,01,19,28,11,14,22,20,,,,1.8,1.0,1.5*3D
$GPRMC,181101.000,A,5351.9782,N,01041.1247,E,1.67,23.27,180912,,,A*53
$GPGGA,181102.000,5351.9783,N,01041.1253,E,1,09,1.0,32.0,M,45.6,M,,0000*6F
$GPGSA,A,3,32,17,01,19,28,11,14,22,20,,,,1.8,1.0,1.5*3D
$GPRMC,181102.000,A,5351.9783,N,01041.1253,E,1.62,15.04,180912,,,A*55
$GPGGA,181103.000,5351.9784,N,01041.1260,E,1,09,1.0,32.6,M,45.6,M,,0000*6F
$GPGSA,A,3,32,17,01,19,28,11,14,22,20,,,,1.8,1.0,1.5*3D
$GPRMC,181103.000,A,5351.9784,N,01041.1260,E,1.43,28.82,180912,,,A*50
$GPGGA,181104.000,5351.9785,N,01041.1266,E,1,09,1.0,33.2,M,45.6,M,,0000*6A
$GPGSA,A,3,32,17,01,19,28,11,14,22,20,,,,1.8,1.0,1.5*3D
$GPRMC,181104.000,A,5351.9785,N,01041.1266,E,1.50,19.65,180912,,,A*59
$GPGGA,181105.000,5351.9785,N,01041.1274,E,1,09,1.0,33.9,M,45.6,M,,0000*63
$GPGSA,A,3,32,17,01,19,28,11,14,22,20,,,,1.8,1.0,1.5*3D
$GPGSV,3,1,12,11,78,206,34,01,69,285,26,32,60,219,34,14,40,067,40*7F
$GPGSV,3,2,12,19,34,171,33,20,29,237,33,28,22,290,34,22,20,064,21*79
$GPGSV,3,3,12,17,13,318,28,03,05,166,19,09,05,003,14,27,01,353,*7A
$GPRMC,181105.000,A,5351.9785,N,01041.1274,E,1.41,33.10,180912,,,A*51
$GPGGA,181106.000,5351.9786,N,01041.1281,E,1,09,1.0,34.5,M,45.6,M,,0000*62
$GPGSA,A,3,32,17,01,19,28,11,14,22,20,,,,1.8,1.0,1.5*3D
$GPRMC,181106.000,A,5351.9786,N,01041.1281,E,1.55,30.19,180912,,,A*54
$GPGGA,181107.000,5351.9788,N,01041.1288,E,1,08,1.1,35.1,M,45.6,M,,0000*61
$GPGSA,A,3,32,17,01,19,11,14,22,20,,,,,1.8,1.1,1.5*36
$GPRMC,181107.000,A,5351.9788,N,01041.1288,E,1.58,22.09,180912,,,A*5D
$GPGGA,181108.000,5351.9789,N,01041.1295,E,1,09,1.0,35.6,M,45.6,M,,0000*64
$GPGSA,A,3,32,17,01,19,28,11,14,22,20,,,,1.8,1.0,1.5*3D
$GPRMC,181108.000,A,5351.9789,N,01041.1295,E,1.53,30.47,180912,,,A*5D
$GPGGA,181109.000,5351.9791,N,01041.1300,E,1,09,1.0,36.1,M,45.6,M,,0000*65
$GPGSA,A,3,32,17,01,19,28,11,14,22,20,,,,1.8,1.0,1.5*3D
$GPRMC,181109.000,A,5351.9791,N,01041.1300,E,1.62,11.84,180912,,,A*56
$GPGGA,181110.000,5351.9793,N,01041.1305,E,1,09,1.0,36.5,M,45.6,M,,0000*6E
$GPGSA,A,3,32,17,01,19,28,11,14,22,20,,,,1.8,1.0,1.5*3D
$GPGSV,3,1,12,11,78,206,33,01,69,285,25,32,60,219,27,14,40,067,42*7B
$GPGSV,3,2,12,19,34,171,43,20,29,237,26,28,22,290,40,22,20,064,22*7A
$GPGSV,3,3,12,17,13,318,25,03,05,166,20,09,05,003,14,27,01,353,*7D
$GPRMC,181110.000,A,5351.9793,N,01041.1305,E,1.61,9.08,180912,,,A*67
$GPGGA,181111.000,5351.9794,N,01041.1311,E,1,09,1.0,36.9,M,45.6,M,,0000*61
$GPGSA,A,3,32,17,01,19,28,11,14,22,20,,,,1.8,1.0,1.5*3D
$GPRMC,181111.000,A,5351.9794,N,01041.1311,E,1.35,25.86,180912,,,A*5D
$GPGGA,181112.000,5351.9796,N,01041.1319,E,1,09,1.0,37.3,M,45.6,M,,0000*63
$GPGSA,A,3,32,17,01,19,28,11,14,22,20,,,,1.8,1.0,1.5*3D
$GPRMC,181112.000,A,5351.9796,N,01041.1319,E,1.44,35.53,180912,,,A*5B
$GPGGA,181113.000,5351.9798,N,01041.1324,E,1,09,1.0,37.8,M,45.6,M,,0000*69
$GPGSA,A,3,32,17,01,19,28,11,14,22,20,,,,1.8,1.0,1.5*3D
$GPRMC,181113.000,A,5351.9798,N,01041.1324,E,1.54,15.08,180912,,,A*57
$GPGGA,181114.000,5351.9800,N,01041.1329,E,1,09,1.0,38.1,M,45.6,M,,0000*6B
$GPGSA,A,3,32,17,01,19,28,11,14,22,20,,,,1.8,1.0,1.5*3D
$GPRMC,181114.000,A,5351.9800,N,01041.1329,E,1.75,12.40,180912,,,A*5B
$GPGGA,181115.000,5351.9803,N,01041.1335,E,1,09,1.0,38.4,M,45.6,M,,0000*61
$GPGSA,A,3,32,17,01,19,28,11,14,22,20,,,,1.8,1.0,1.5*3D
$GPGSV,3,1,12,11,78,204,32,01,69,285,26,32,60,219,27,14,40,067,37*79
$GPGSV,3,2,12,19,34,171,44,20,29,237,29,28,22,289,36,22,20,064,20*79
$GPGSV,3,3,12,17,13,318,24,03,05,166,25,09,05,003,14,27,01,353,*79
$GPRMC,181115.000,A,5351.9803,N,01041.1335,E,1.63,18.78,180912,,,A*52
$GPGGA,181116.000,5351.9804,N,01041.1339,E,1,09,1.0,38.7,M,45.6,M,,0000*6A
$GPGSA,A,3,32,17,01,19,28,11,14,22,20,,,,1.8,1.0,1.5*3D
$GPRMC,181116.000,A,5351.9804,N,01041.1339,E,1.24,14.26,180912,,,A*5E
$GPGGA,181117.000,5351.9806,N,01041.1344,E,1,09,1.0,38.9,M,45.6,M,,0000*6D
$GPGSA,A,3,32,17,01,19,28,11,14,22,20,,,,1.8,1.0,1.5*3D
$GPRMC,181117.000,A,5351.9806,N,01041.1344,E,1.16,17.52,180912,,,A*56
$GPGGA,181118.000,5351.9808,N,01041.1349,E,1,09,1.0,39.0,M,45.6,M,,0000*69
$GPGSA,A,3,32,17,01,19,28,11,14,22,20,,,,1.8,1.0,1.5*3D
$GPRMC,181118.000,A,5351.9808,N,01041.1349,E,1.32,18.71,180912,,,A*52
$GPGGA,181119.000,5351.9809,N,01041.1354,E,1,09,1.0,39.2,M,45.6,M,,0000*67
$GPGSA,A,3,32,17,01,19,28,11,14,22,20,,,,1.8,1.0,1.5*3D
$GPRMC,181119.000,A,5351.9809,N,01041.1354,E,1.17,25.70,180912,,,A*56
$GPGGA,181120.000,5351.9810,N,01041.1360,E,1,09,1.0,39.4,M,45.6,M,,0000*64
$GPGSA,A,3,32,17,01,19,28,11,14,22,20,,,,1.8,1.0,1.5*3D
$GPGSV,3,1,12,11,78,204,31,01,69,285,26,32,60,219,31,14,40,067,35*7F
$GPGSV,3,2,12,19,34,171,44,20,29,237,29,28,22,289,37,22,20,064,19*72
$GPGSV,3,3,12,17,13,318,24,03,05,166,24,09,05,003,15,27,01,353,*79
$GPRMC,181120.000,A,5351.9810,N,01041.1360,E,1.28,41.46,180912,,,A*58
$GPGGA,181121.000,5351.9812,N,01041.1364,E,1,09,1.0,39.6,M,45.6,M,,0000*61
$GPGSA,A,3,32,17,01,19,28,11,14,22,20,,,,1.8,1.0,1.5*3D
$GPRMC,181121.000,A,5351.9812,N,01041.1364,E,0.98,20.00,180912,,,A*50
$GPGGA,181122.000,5351.9812,N,01041.1368,E,1,09,1.0,39.7,M,45.6,M,,0000*6F
$GPGSA,A,3,32,17,01,19,28,11,14,22,20,,,,1.8,1.0,1.5*3D
$GPRMC,181124.000,A,5351.9811,N,01041.1379,E,1.20,62.18,180912,,,A*57
$GPGGA,181125.000,5351.9812,N,01041.1384,E,1,09,1.0,39.9,M,45.6,M,,0000*64
$GPGSA,A,3,32,17,01,19,28,11,14,22,20,,,,1.8,1.0,1.5*3D
$GPGSV,3,1,12,11,78,204,32,01,69,285,31,32,60,219,39,14,40,067,31*76
$GPGSV,3,2,12,19,34,171,44,20,29,237,30,28,22,289,26,22,20,064,20*70
$GPGSV,3,3,12,17,13,318,23,09,05,003,16,03,05,166,24,27,01,353,*7D
$GPRMC,181130.000,A,5351.9818,N,01041.1389,E,1.41,20.35,180912,,,A*5A
$GPGGA,181131.000,5351.9821,N,01041.1389,E,1,09,1.0,41.0,M,45.6,M,,0000*6A
$GPGSA,A,3,32,17,01,19,28,11,14,22,20,,,,1.8,1.0,1.5*3D
$GPRMC,181131.000,A,5351.9821,N,01041.1389,E,1.41,359.18,180912,,,A*63
$GPGGA,181132.000,5351.9824,N,01041.1389,E,1,09,1.0,41.3,M,45.6,M,,0000*6F
$GPGSA,A,3,32,17,01,19,28,11,14,22,20,,,,1.8,1.0,1.5*3D
$GPRMC,181132.000,A,5351.9824,N,01041.1389,E,1.29,3.17,180912,,,A*68
$GPGGA,181133.000,5351.9826,N,01041.1390,E,1,09,1.0,41.7,M,45.6,M,,0000*60
$GPGSA,A,3,32,17,01,19,28,11,14,22,20,,,,1.8,1.0,1.5*3D
$GPRMC,181133.000,A,5351.9826,N,01041.1390,E,1.12,16.81,180912,,,A*50
$GPGGA,181134.000,5351.9828,N,01041.1391,E,1,09,1.0,42.1,M,45.6,M,,0000*6D
$GPGSA,A,3,32,17,01,19,28,11,14,22,20,,,,1.8,1.0,1.5*3D
$GPRMC,181134.000,A,5351.9828,N,01041.1391,E,1.01,12.63,180912,,,A*52
$GPGGA,181135.000,5351.9828,N,01041.1391,E,1,09,1.0,42.5,M,45.6,M,,0000*68
$GPGSA,A,3,32,17,01,19,28,11,14,22,20,,,,1.8,1.0,1.5*3D
$GPGSV,3,1,12,11,78,204,33,01,69,285,29,32,60,219,41,14,40,067,26*77
$GPGSV,3,2,12,19,34,171,40,20,29,237,31,28,22,289,25,22,20,064,20*76
$GPGSV,3,3,12,17,13,318,15,09,05,003,15,03,05,166,23,27,01,353,*7C
$GPRMC,181138.000,A,5351.9833,N,01041.1394,E,1.08,28.44,180912,,,A*54
$GPGGA,181139.000,5351.9835,N,01041.1395,E,1,09,1.0,43.8,M,45.6,M,,0000*60
$GPGSA,A,3,32,17,01,19,28,11,14,22,20,,,,1.8,1.0,1.5*3D
$GPRMC,181139.000,A,5351.9835,N,01041.1395,E,1.01,18.77,180912,,,A*58
$GPGGA,181140.000,5351.9838,N,01041.1398,E,1,09,1.0,44.1,M,45.6,M,,0000*60
$GPGSA,A,3,32,17,01,19,28,11,14,22,20,,,,1.8,1.0,1.5*3D
$GPGSV,3,1,12,11,78,204,33,01,69,285,37,32,60,219,29,14,40,067,25*75
$GPGSV,3,2,12,19,34,171,42,20,29,237,31,28,22,289,21,22,20,064,19*7A
$GPGSV,3,3,12,17,13,318,19,09,05,003,14,03,05,166,20,27,01,353,*72
$GPRMC,181140.000,A,5351.9838,N,01041.1398,E,1.24,25.74,180912,,,A*5C
$GPGGA,181141.000,5351.9840,N,01041.1401,E,1,09,1.0,44.4,M,45.6,M,,0000*6C
$GPGSA,A,3,32,17,01,19,28,11,14,22,20,,,,1.8,1.0,1.5*3D
$GPRMC,181141.000,A,5351.9840,N,01041.1401,E,0.95,29.26,180912,,,A*55
$GPGGA,181142.000,5351.9843,N,01041.1402,E,1,09,1.0,44.7,M,45.6,M,,0000*6C
$GPGSA,A,3,32,17,01,19,28,11,14,22,20,,,,1.8,1.0,1.5*3D
$GPRMC,181142.000,A,5351.9843,N,01041.1402,E,0.94,12.98,180912,,,A*5A
$GPGGA,181143.000,5351.9846,N,01041.1403,E,1,09,1.0,45.0,M,45.6,M,,0000*6F
$GPGSA,A,3,32,17,01,19,28,11,14,22,20,,,,1.8,1.0,1.5*3D
$GPRMC,181143.000,A,5351.9846,N,01041.1403,E,1.12,4.62,180912,,,A*62
$GPGGA,181144.000,5351.9849,N,01041.1404,E,1,09,1.0,45.4,M,45.6,M,,0000*64
$GPGSA,A,3,32,17,01,19,28,11,14,22,20,,,,1.8,1.0,1.5*3D
$GPRMC,181144.000,A,5351.9849,N,01041.1404,E,1.10,8.03,180912,,,A*64
$GPGGA,181145.000,5351.9852,N,01041.1406,E,1,09,1.0,45.7,M,45.6,M,,0000*6E
$GPGSA,A,3,32,17,01,19,28,11,14,22,20,,,,1.8,1.0,1.5*3D
$GPGSV,3,1,12,11,78,204,34,01,69,285,41,32,60,219,40,14,40,067,26*7F
$GPGSV,3,2,12,19,34,171,38,20,29,237,33,28,22,289,21,22,20,064,19*75
$GPGSV,3,3,12,17,13,318,18,09,05,003,15,03,05,166,22,27,01,353,*70
$GPRMC,181145.000,A,5351.9852,N,01041.1406,E,1.33,20.69,180912,,,A*5A
$GPGGA,181146.000,5351.9856,N,01041.1406,E,1,09,1.0,46.0,M,45.6,M,,0000*6D
$GPGSA,A,3,32,17,01,19,28,11,14,22,20,,,,1.8,1.0,1.5*3D
$GPRMC,181146.000,A,5351.9856,N,01041.1406,E,1.23,3.19,180912,,,A*6A
$GPGGA,181147.000,5351.9859,N,01041.1405,E,1,09,1.0,46.3,M,45.6,M,,0000*63
$GPGSA,A,3,32,17,01,19,28,11,14,22,20,,,,1.8,1.0,1.5*3D
$GPRMC,181147.000,A,5351.9859,N,01041.1405,E,1.31,1.30,180912,,,A*6D
$GPGGA,181148.000,5351.9863,N,01041.1406,E,1,09,1.0,46.6,M,45.6,M,,0000*63
$GPGSA,A,3,32,17,01,19,28,11,14,22,20,,,,1.8,1.0,1.5*3D
$GPRMC,181148.000,A,5351.9863,N,01041.1406,E,1.32,11.08,180912,,,A*51
$GPGGA,181149.000,5351.9866,N,01041.1407,E,1,09,1.0,47.0,M,45.6,M,,0000*61
$GPGSA,A,3,32,17,01,19,28,11,14,22,20,,,,1.8,1.0,1.5*3D
$GPRMC,181149.000,A,5351.9866,N,01041.1407,E,1.14,19.97,180912,,,A*5E
$GPGGA,181150.000,5351.9869,N,01041.1407,E,1,09,1.0,47.3,M,45.6,M,,0000*65
$GPGSA,A,3,32,17,01,19,28,11,14,22,20,,,,1.8,1.0,1.5*3D
$GPGSV,3,1,12,11,78,204,34,01,69,285,40,32,60,219,40,14,40,067,27*7F
$GPGSV,3,2,12,19,34,171,35,20,29,237,26,28,22,289,21,22,20,064,18*7D
$GPGSV,3,3,12,17,13,318,17,09,05,003,14,03,05,166,22,27,01,353,*7E
$GPRMC,181150.000,A,5351.9869,N,01041.1407,E,0.98,11.57,180912,,,A*58
$GPGGA,181151.000,5351.9872,N,01041.1408,E,1,09,1.0,47.8,M,45.6,M,,0000*6A
$GPGSA,A,3,32,17,01,19,28,11,14,22,20,,,,1.8,1.0,1.5*3D
$GPRMC,181151.000,A,5351.9872,N,01041.1408,E,0.99,20.36,180912,,,A*58
$GPGGA,181152.000,5351.9876,N,01041.1413,E,1,09,1.0,48.4,M,45.6,M,,0000*64
$GPGSA,A,3,32,17,01,19,28,11,14,22,20,,,,1.8,1.0,1.5*3D
$GPRMC,181152.000,A,5351.9876,N,01041.1413,E,1.43,40.04,180912,,,A*54
$GPGGA,181153.000,5351.9881,N,01041.1416,E,1,09,1.0,48.8,M,45.6,M,,0000*64
$GPGSA,A,3,32,17,01,19,28,11,14,22,20,,,,1.8,1.0,1.5*3D
$GPRMC,181153.000,A,5351.9881,N,01041.1416,E,1.52,23.37,180912,,,A*5D
$GPGGA,181154.000,5351.9886,N,01041.1419,E,1,09,1.0,49.3,M,45.6,M,,0000*61
$GPGSA,A,3,32,17,01,19,28,11,14,22,20,,,,1.8,1.0,1.5*3D
$GPRMC,181154.000,A,5351.9886,N,01041.1419,E,1.63,19.68,180912,,,A*53
$GPGGA,181155.000,5351.9891,N,01041.1422,E,1,09,1.0,49.5,M,45.6,M,,0000*68
$GPGSA,A,3,32,17,01,19,28,11,14,22,20,,,,1.8,1.0,1.5*3D
$GPGSV,3,1,12,11,78,204,34,01,69,285,39,32,60,219,42,14,40,067,27*73
$GPGSV,3,2,12,19,34,171,33,20,29,237,27,28,22,289,23,22,20,064,18*78
$GPGSV,3,3,12,17,13,318,17,09,05,003,16,03,05,166,26,27,01,353,*78
$GPRMC,181155.000,A,5351.9891,N,01041.1422,E,1.60,18.24,180912,,,A*56
$GPGGA,181156.000,5351.9897,N,01041.1423,E,1,09,1.0,49.7,M,45.6,M,,0000*6E
$GPGSA,A,3,32,17,01,19,28,11,14,22,20,,,,1.8,1.0,1.5*3D
$GPRMC,181156.000,A,5351.9897,N,01041.1423,E,1.44,2.21,180912,,,A*6A
$GPGGA,181157.000,5351.9902,N,01041.1423,E,1,09,1.0,50.1,M,45.6,M,,0000*6C
$GPGSA,A,3,32,17,01,19,28,11,14,22,20,,,,1.8,1.0,1.5*3D
$GPRMC,181157.000,A,5351.9902,N,01041.1423,E,1.23,352.54,180912,,,A*63
$GPGGA,181158.000,5351.9905,N,01041.1422,E,1,09,1.0,50.4,M,45.6,M,,0000*60
$GPGSA,A,3,32,17,01,19,28,11,14,22,20,,,,1.8,1.0,1.5*3D
$GPRMC,181201.000,A,5351.9916,N,01041.1427,E,0.85,43.74,180912,,,A*5E
$GPGGA,181202.000,5351.9922,N,01041.1428,E,1,09,1.0,51.4,M,45.6,M,,0000*62
$GPGSA,A,3,32,17,01,19,28,11,14,22,20,,,,1.8,1.0,1.5*3D
$GPRMC,181202.000,A,5351.9922,N,01041.1428,E,1.08,7.29,180912,,,A*69
$GPGGA,181203.000,5351.9927,N,01041.1428,E,1,09,1.0,51.4,M,45.6,M,,0000*66
$GPGSA,A,3,32,17,01,19,28,11,14,22,20,,,,1.8,1.0,1.5*3D
$GPRMC,181203.000,A,5351.9927,N,01041.1428,E,1.01,8.66,180912,,,A*60
$GPGGA,181204.000,5351.9933,N,01041.1429,E,1,09,1.0,51.3,M,45.6,M,,0000*62
$GPGSA,A,3,32,17,01,19,28,11,14,22,20,,,,1.8,1.0,1.5*3D
$GPRMC,181204.000,A,5351.9933,N,01041.1429,E,1.32,8.03,180912,,,A*60
$GPGGA,181205.000,5351.9938,N,01041.1427,E,1,09,1.0,51.2,M,45.6,M,,0000*67
$GPGSA,A,3,32,17,01,19,28,11,14,22,20,,,,1.8,1.0,1.5*3D
$GPGSV,3,1,12,11,78,204,34,01,69,285,35,32,60,219,42,14,40,067,27*7F
$GPGSV,3,2,12,19,34,171,35,20,29,237,28,28,22,289,26,22,20,064,20*7F
$GPGSV,3,3,12,17,13,318,20,09,05,003,16,03,05,166,24,27,01,353,*7E
$GPRMC,181205.000,A,5351.9938,N,01041.1427,E,0.94,345.35,180912,,,A*66
$GPGGA,181206.000,5351.9942,N,01041.1426,E,1,09,1.0,51.1,M,45.6,M,,0000*6B
$GPGSA,A,3,32,17,01,19,28,11,14,22,20,,,,1.8,1.0,1.5*3D
$GPRMC,181208.000,A,5351.9949,N,01041.1425,E,0.84,11.56,180912,,,A*59
$GPGGA,181209.000,5351.9951,N,01041.1422,E,1,09,1.0,50.8,M,45.6,M,,0000*6A
$GPGSA,A,3,32,17,01,19,28,11,14,22,20,,,,1.8,1.0,1.5*3D
$GPRMC,181214.000,A,5351.9962,N,01041.1414,E,0.90,15.86,180912,,,A*53
$GPGGA,181215.000,5351.9967,N,01041.1413,E,1,09,1.0,48.7,M,45.6,M,,0000*66
$GPGSA,A,3,32,17,01,19,28,11,14,22,20,,,,1.8,1.0,1.5*3D
$GPGSV,3,1,12,11,78,204,28,01,69,285,33,32,60,219,38,14,40,067,20*7E
$GPGSV,3,2,12,19,34,171,32,20,29,237,27,28,22,289,27,22,20,064,17*72
$GPGSV,3,3,12,17,13,318,13,09,05,003,15,03,05,166,17,27,01,353,*7D
$GPRMC,181215.000,A,5351.9967,N,01041.1413,E,1.12,5.17,180912,,,A*62
$GPGGA,181216.000,5351.9972,N,01041.1411,E,1,09,1.0,48.4,M,45.6,M,,0000*60
$GPGSA,A,3,32,17,01,19,28,11,14,22,20,,,,1.8,1.0,1.5*3D
$GPRMC,181216.000,A,5351.9972,N,01041.1411,E,1.38,352.82,180912,,,A*62
$GPGGA,181217.000,5351.9978,N,01041.1406,E,1,09,1.0,47.9,M,45.6,M,,0000*6F
$GPGSA,A,3,32,17,01,19,28,11,14,22,20,,,,1.8,1.0,1.5*3D
$GPRMC,181217.000,A,5351.9978,N,01041.1406,E,1.54,334.79,180912,,,A*61
$GPGGA,181218.000,5351.9981,N,01041.1405,E,1,09,1.0,47.5,M,45.6,M,,0000*69
$GPGSA,A,3,32,17,01,19,28,11,14,22,20,,,,1.8,1.0,1.5*3D
$GPRMC,181220.000,A,5351.9989,N,01041.1399,E,0.83,335.28,180912,,,A*64
$GPGGA,181221.000,5351.9994,N,01041.1397,E,1,09,1.0,46.2,M,45.6,M,,0000*6D
$GPGSA,A,3,32,17,01,19,28,11,14,22,20,,,,1.8,1.0,1.5*3D
$GPRMC,181221.000,A,5351.9994,N,01041.1397,E,1.07,354.00,180912,,,A*67
$GPGGA,181222.000,5351.9999,N,01041.1396,E,1,09,1.0,45.7,M,45.6,M,,0000*64
$GPGSA,A,3,32,17,01,19,28,11,14,22,20,,,,1.8,1.0,1.5*3D
$GPRMC,181222.000,A,5351.9999,N,01041.1396,E,1.23,9.49,180912,,,A*68
$GPGGA,181223.000,5352.0005,N,01041.1396,E,1,09,1.0,45.2,M,45.6,M,,0000*66
$GPGSA,A,3,32,17,01,19,28,11,14,22,20,,,,1.8,1.0,1.5*3D
$GPRMC,181223.000,A,5352.0005,N,01041.1396,E,1.33,25.55,180912,,,A*5D
$GPGGA,181224.000,5352.0011,N,01041.1398,E,1,09,1.0,44.7,M,45.6,M,,0000*6E
$GPGSA,A,3,32,17,01,19,28,11,14,22,20,,,,1.8,1.0,1.5*3D
$GPRMC,181224.000,A,5352.0011,N,01041.1398,E,1.67,22.42,180912,,,A*51
$GPGGA,181225.000,5352.0018,N,01041.1399,E,1,09,1.0,44.2,M,45.6,M,,0000*62
$GPGSA,A,3,32,17,01,19,28,11,14,22,20,,,,1.8,1.0,1.5*3D
$GPGSV,3,1,12,11,78,204,34,01,69,285,41,32,60,219,41,14,40,067,27*7F
$GPGSV,3,2,12,19,34,171,31,20,29,237,26,28,22,289,27,22,20,064,18*7F
$GPGSV,3,3,12,17,13,318,16,09,05,003,16,03,05,166,19,27,01,353,*75
$GPRMC,181225.000,A,5352.0018,N,01041.1399,E,1.72,24.90,180912,,,A*55
$GPGGA,181226.000,5352.0024,N,01041.1400,E,1,09,1.0,43.6,M,45.6,M,,0000*6A
$GPGSA,A,3,32,17,01,19,28,11,14,22,20,,,,1.8,1.0,1.5*3D
$GPRMC,181226.000,A,5352.0024,N,01041.1400,E,1.63,15.37,180912,,,A*51
$GPGGA,181227.000,5352.0030,N,01041.1400,E,1,09,1.0,43.2,M,45.6,M,,0000*6A
$GPGSA,A,3,32,17,01,19,28,11,14,22,20,,,,1.8,1.0,1.5*3D
$GPRMC,181227.000,A,5352.0030,N,01041.1400,E,1.73,9.00,180912,,,A*6D
$GPGGA,181228.000,5352.0037,N,01041.1401,E,1,09,1.0,42.8,M,45.6,M,,0000*68
$GPGSA,A,3,32,17,01,19,28,11,14,22,20,,,,1.8,1.0,1.5*3D
$GPRMC,181228.000,A,5352.0037,N,01041.1401,E,1.66,9.45,180912,,,A*61
$GPGGA,181229.000,5352.0043,N,01041.1402,E,1,09,1.0,42.6,M,45.6,M,,0000*67
$GPGSA,A,3,32,17,01,19,28,11,14,22,20,,,,1.8,1.0,1.5*3D
$GPRMC,181229.000,A,5352.0043,N,01041.1402,E,1.67,7.87,180912,,,A*61
$GPGGA,181230.000,5352.0048,N,01041.1404,E,1,09,1.0,42.3,M,45.6,M,,0000*67
$GPGSA,A,3,32,17,01,19,28,11,14,22,20,,,,1.8,1.0,1.5*3D
$GPGSV,3,1,12,11,78,204,34,01,69,285,41,32,60,219,37,14,40,067,27*7E
$GPGSV,3,2,12,19,34,171,27,20,29,237,33,28,22,289,24,22,20,064,18*7F
$GPGSV,3,3,12,17,13,318,15,09,05,003,15,03,05,166,18,27,01,353,*74
$GPRMC,181230.000,A,5352.0048,N,01041.1404,E,1.30,25.27,180912,,,A*5C
$GPGGA,181231.000,5352.0052,N,01041.1403,E,1,09,1.0,42.2,M,45.6,M,,0000*6B
$GPGSA,A,3,32,17,01,19,28,11,14,22,20,,,,1.8,1.0,1.5*3D
$GPRMC,181231.000,A,5352.0052,N,01041.1403,E,1.29,2.74,180912,,,A*6A
$GPGGA,181232.000,5352.0056,N,01041.1404,E,1,09,1.0,42.1,M,45.6,M,,0000*68
$GPGSA,A,3,32,17,01,19,28,11,14,22,20,,,,1.8,1.0,1.5*3D
$GPRMC,181232.000,A,5352.0056,N,01041.1404,E,1.17,13.71,180912,,,A*52
$GPGGA,181233.000,5352.0060,N,01041.1407,E,1,09,1.0,42.0,M,45.6,M,,0000*6E
$GPGSA,A,3,32,17,01,19,28,11,14,22,20,,,,1.8,1.0,1.5*3D
$GPRMC,181233.000,A,5352.0060,N,01041.1407,E,1.14,34.31,180912,,,A*57
$GPGGA,181234.000,5352.0064,N,01041.1407,E,1,09,1.0,41.9,M,45.6,M,,0000*67
$GPGSA,A,3,32,17,01,19,28,11,14,22,20,,,,1.8,1.0,1.5*3D
$GPRMC,181234.000,A,5352.0064,N,01041.1407,E,1.06,9.01,180912,,,A*6A
$GPGGA,181235.000,5352.0068,N,01041.1408,E,1,09,1.0,41.9,M,45.6,M,,0000*65
$GPGSA,A,3,32,17,01,19,28,11,14,22,20,,,,1.8,1.0,1.5*3D
$GPGSV,3,1,12,11,78,204,34,01,69,285,33,32,60,219,37,14,40,067,22*7E
$GPGSV,3,2,12,19,34,171,27,20,29,237,34,28,22,289,20,22,20,064,20*77
$GPGSV,3,3,12,17,13,318,14,09,05,003,15,03,05,166,17,27,01,353,*7A
$GPRMC,181235.000,A,5352.0068,N,01041.1408,E,1.04,14.56,180912,,,A*54
$GPGGA,181236.000,5352.0073,N,01041.1412,E,1,09,1.0,42.1,M,45.6,M,,0000*6C
$GPGSA,A,3,32,17,01,19,28,11,14,22,20,,,,1.8,1.0,1.5*3D
$GPRMC,181236.000,A,5352.0073,N,01041.1412,E,1.46,37.69,180912,,,A*5D
$GPGGA,181237.000,5352.0077,N,01041.1418,E,1,09,1.0,42.2,M,45.6,M,,0000*60
$GPGSA,A,3,32,17,01,19,28,11,14,22,20,,,,1.8,1.0,1.5*3D
$GPRMC,181237.000,A,5352.0077,N,01041.1418,E,1.56,48.75,180912,,,A*56
$GPGGA,181238.000,5352.0082,N,01041.1424,E,1,09,1.0,42.2,M,45.6,M,,0000*6A
$GPGSA,A,3,32,17,01,19,28,11,14,22,20,,,,1.8,1.0,1.5*3D
$GPRMC,181238.000,A,5352.0082,N,01041.1424,E,1.64,53.56,180912,,,A*56
$GPGGA,181239.000,5352.0084,N,01041.1430,E,1,09,1.0,42.1,M,45.6,M,,0000*6B
$GPGSA,A,3,32,17,01,19,28,11,14,22,20,,,,1.8,1.0,1.5*3D
$GPRMC,181239.000,A,5352.0084,N,01041.1430,E,1.22,62.41,180912,,,A*52
$GPGGA,181240.000,5352.0087,N,01041.1437,E,1,09,1.0,42.0,M,45.6,M,,0000*60
$GPGSA,A,3,32,17,01,19,28,11,14,22,20,,,,1.8,1.0,1.5*3D
$GPGSV,3,1,12,11,78,204,33,01,69,285,28,32,60,219,32,14,40,067,24*70
$GPGSV,3,2,12,19,34,171,28,20,29,237,34,28,22,289,18,22,20,064,21*72
$GPGSV,3,3,12,17,13,318,13,09,05,003,15,03,05,166,16,27,01,353,*7C
$GPRMC,181240.000,A,5352.0087,N,01041.1437,E,1.43,58.57,180912,,,A*51
$GPGGA,181241.000,5352.0091,N,01041.1442,E,1,09,1.0,41.7,M,45.6,M,,0000*60
$GPGSA,A,3,32,17,01,19,28,11,14,22,20,,,,1.8,1.0,1.5*3D
$GPRMC,181241.000,A,5352.0091,N,01041.1442,E,1.11,40.49,180912,,,A*54
$GPGGA,181242.000,5352.0095,N,01041.1446,E,1,09,1.0,41.5,M,45.6,M,,0000*61
$GPGSA,A,3,32,17,01,19,28,11,14,22,20,,,,1.8,1.0,1.5*3D
$GPRMC,181242.000,A,5352.0095,N,01041.1446,E,1.05,43.74,180912,,,A*5F
$GPGGA,181243.000,5352.0099,N,01041.1450,E,1,09,1.0,41.3,M,45.6,M,,0000*6D
$GPGSA,A,3,32,17,01,19,28,11,14,22,20,,,,1.8,1.0,1.5*3D
$GPRMC,181243.000,A,5352.0099,N,01041.1450,E,1.12,49.74,180912,,,A*59
$GPGGA,181244.000,5352.0103,N,01041.1454,E,1,09,1.0,41.0,M,45.6,M,,0000*6F
$GPGSA,A,3,32,17,01,19,28,11,14,22,20,,,,1.8,1.0,1.5*3D
$GPRMC,181244.000,A,5352.0103,N,01041.1454,E,1.25,24.17,180912,,,A*52
$GPGGA,181245.000,5352.0107,N,01041.1458,E,1,08,1.1,40.8,M,45.6,M,,0000*6F
$GPGSA,A,3,32,01,19,28,11,14,22,20,,,,,1.9,1.1,1.6*38
$GPGSV,3,1,12,11,78,204,34,01,69,285,33,32,60,219,30,14,40,067,24*7F
$GPGSV,3,2,12,19,34,171,28,20,29,237,28,28,22,289,17,22,20,064,20*71
$GPGSV,3,3,12,17,13,318,,09,05,003,14,03,05,166,13,27,01,353,*7A
$GPRMC,181245.000,A,5352.0107,N,01041.1458,E,0.96,39.58,180912,,,A*55
$GPGGA,181246.000,5352.0110,N,01041.1461,E,1,08,1.1,40.8,M,45.6,M,,0000*60
$GPGSA,A,3,32,01,19,28,11,14,22,20,,,,,1.9,1.1,1.6*38
$GPRMC,181248.000,A,5352.0115,N,01041.1467,E,0.95,18.99,180912,,,A*5A
$GPGGA,181249.000,5352.0121,N,01041.1468,E,1,08,1.1,41.2,M,45.6,M,,0000*6F
$GPGSA,A,3,32,19,01,28,11,14,22,20,,,,,1.9,1.1,1.6*38
$GPRMC,181249.000,A,5352.0121,N,01041.1468,E,1.28,353.70,180912,,,A*6F
$GPGGA,181250.000,5352.0125,N,01041.1467,E,1,08,1.1,41.4,M,45.6,M,,0000*6A
$GPGSA,A,3,32,19,01,28,11,14,22,20,,,,,1.9,1.1,1.6*38
$GPGSV,3,1,12,11,78,204,34,01,69,285,35,32,60,219,40,14,40,067,24*7E
$GPGSV,3,2,12,19,34,171,32,20,29,237,28,28,22,289,18,22,20,064,19*7F
$GPGSV,3,3,12,17,13,318,,09,05,003,18,03,05,166,14,27,01,353,*71
$GPRMC,181250.000,A,5352.0125,N,01041.1467,E,1.02,342.94,180912,,,A*6E
$GPGGA,181251.000,5352.0129,N,01041.1468,E,1,08,1.1,41.6,M,45.6,M,,0000*6A
$GPGSA,A,3,32,19,01,28,11,14,22,20,,,,,1.9,1.1,1.6*38
$GPRMC,181251.000,A,5352.0129,N,01041.1468,E,1.10,353.83,180912,,,A*69
$GPGGA,181252.000,5352.0133,N,01041.1470,E,1,08,1.1,41.9,M,45.6,M,,0000*64
$GPGSA,A,3,32,19,01,28,11,14,22,20,,,,,1.9,1.1,1.6*38
$GPRMC,181252.000,A,5352.0133,N,01041.1470,E,1.05,10.61,180912,,,A*54
$GPGGA,181253.000,5352.0137,N,01041.1471,E,1,08,1.1,42.2,M,45.6,M,,0000*68
$GPGSA,A,3,32,19,01,28,11,14,22,20,,,,,1.9,1.1,1.6*38
$GPRMC,181253.000,A,5352.0137,N,01041.1471,E,0.99,8.10,180912,,,A*6B
$GPGGA,181254.000,5352.0142,N,01041.1471,E,1,08,1.1,42.5,M,45.6,M,,0000*6A
$GPGSA,A,3,32,19,01,28,11,14,22,20,,,,,1.9,1.1,1.6*38
$GPRMC,181254.000,A,5352.0142,N,01041.1471,E,1.23,358.19,180912,,,A*61
$GPGGA,181255.000,5352.0147,N,01041.1471,E,1,08,1.1,42.8,M,45.6,M,,0000*63
$GPGSA,A,3,32,19,01,28,11,14,22,20,,,,,1.9,1.1,1.6*38
$GPGSV,3,1,12,11,78,204,31,01,69,285,30,32,60,219,27,14,40,067,24*7F
$GPGSV,3,2,12,19,34,171,30,20,29,237,23,28,22,289,18,22,20,064,18*77
$GPGSV,3,3,12,17,13,318,,09,05,003,18,03,05,166,15,27,01,353,*70
$GPRMC,181255.000,A,5352.0147,N,01041.1471,E,1.34,357.90,180912,,,A*6D
$GPGGA,181256.000,5352.0152,N,01041.1472,E,1,08,1.1,43.1,M,45.6,M,,0000*6F
$GPGSA,A,3,32,19,01,28,11,14,22,20,,,,,1.9,1.1,1.6*38
$GPRMC,181256.000,A,5352.0152,N,01041.1472,E,1.12,7.58,180912,,,A*6F
$GPGGA,181257.000,5352.0156,N,01041.1472,E,0,00,,43.4,M,45.6,M,,0000*48
$GPGSA,A,1,,,,,,,,,,,,,,,*1E
$GPRMC,181300.000,A,5352.0170,N,01041.1477,E,1.77,17.68,180912,,,A*59
$GPGGA,181301.000,5352.0176,N,01041.1478,E,1,08,1.1,44.3,M,45.6,M,,0000*65
$GPGSA,A,3,32,19,01,28,11,14,22,20,,,,,1.9,1.1,1.6*38
$GPRMC,181301.000,A,5352.0176,N,01041.1478,E,1.40,358.68,180912,,,A*6D
$GPGGA,181302.000,5352.0181,N,01041.1480,E,1,08,1.1,44.4,M,45.6,M,,0000*6E
$GPGSA,A,3,32,19,01,28,11,14,22,20,,,,,1.9,1.1,1.6*38
$GPRMC,181302.000,A,5352.0181,N,01041.1480,E,1.22,1.31,180912,,,A*66
$GPGGA,181303.000,5352.0186,N,01041.1483,E,1,08,1.1,44.5,M,45.6,M,,0000*6A
$GPGSA,A,3,32,19,01,28,11,14,22,20,,,,,1.9,1.1,1.6*38
$GPRMC,181303.000,A,5352.0186,N,01041.1483,E,1.02,21.24,180912,,,A*57
$GPGGA,181304.000,5352.0190,N,01041.1486,E,1,08,1.1,44.8,M,45.6,M,,0000*62
$GPGSA,A,3,32,19,01,28,11,14,22,20,,,,,1.9,1.1,1.6*38
$GPRMC,181304.000,A,5352.0190,N,01041.1486,E,0.90,11.99,180912,,,A*5D
$GPGGA,181305.000,5352.0195,N,01041.1490,E,1,08,1.1,45.1,M,45.6,M,,0000*69
$GPGSA,A,3,32,19,01,28,11,14,22,20,,,,,1.9,1.1,1.6*38
$GPGSV,3,1,12,11,78,204,33,01,69,285,37,32,60,219,38,14,40,067,24*74
$GPGSV,3,2,12,19,34,171,28,20,29,237,24,28,22,289,17,22,20,064,17*79
$GPGSV,3,3,12,17,13,318,,09,05,003,17,03,05,166,,27,01,353,*7B
$GPRMC,181305.000,A,5352.0195,N,01041.1490,E,1.29,23.46,180912,,,A*5E
$GPGGA,181306.000,5352.0200,N,01041.1495,E,1,08,1.1,45.5,M,45.6,M,,0000*64
$GPGSA,A,3,32,19,01,28,11,14,22,20,,,,,1.9,1.1,1.6*38
$GPRMC,181306.000,A,5352.0200,N,01041.1495,E,1.39,22.88,180912,,,A*55
$GPGGA,181307.000,5352.0206,N,01041.1500,E,1,08,1.1,45.9,M,45.6,M,,0000*62
$GPGSA,A,3,32,19,01,28,11,14,22,20,,,,,1.9,1.1,1.6*38
$GPRMC,181307.000,A,5352.0206,N,01041.1500,E,1.47,17.99,180912,,,A*50
$GPGGA,181308.000,5352.0211,N,01041.1503,E,1,08,1.1,46.2,M,45.6,M,,0000*60
$GPGSA,A,3,32,19,01,28,11,14,22,20,,,,,1.9,1.1,1.6*38
$GPRMC,181308.000,A,5352.0211,N,01041.1503,E,1.15,15.60,180912,,,A*59
$GPGGA,181309.000,5352.0216,N,01041.1507,E,1,08,1.1,46.5,M,45.6,M,,0000*65
$GPGSA,A,3,32,19,01,28,11,14,22,20,,,,,1.9,1.1,1.6*38
$GPRMC,181309.000,A,5352.0216,N,01041.1507,E,0.92,15.72,180912,,,A*56
$GPGGA,181310.000,5352.0223,N,01041.1511,E,1,07,1.7,47.0,M,45.6,M,,0000*61
$GPGSA,A,3,32,01,28,11,14,22,20,,,,,,2.5,1.7,1.8*37
$GPGSV,3,1,12,11,78,204,33,01,69,285,37,32,60,219,38,14,40,067,28*78
$GPGSV,3,2,12,19,34,171,,20,29,237,23,28,22,289,16,22,20,064,17*75
$GPGSV,3,3,12,17,13,318,,09,05,003,17,03,05,166,,27,01,353,*7B
$GPRMC,181310.000,A,5352.0223,N,01041.1511,E,1.67,6.53,180912,,,A*65
$GPGGA,181311.000,5352.0231,N,01041.1511,E,1,07,1.7,47.2,M,45.6,M,,0000*61
$GPGSA,A,3,32,01,28,11,14,22,20,,,,,,2.5,1.7,1.8*37
$GPRMC,181311.000,A,5352.0231,N,01041.1511,E,1.98,349.22,180912,,,A*69
$GPGGA,181312.000,5352.0239,N,01041.1510,E,1,07,1.7,47.4,M,45.6,M,,0000*6D
$GPGSA,A,3,32,01,28,11,14,22,20,,,,,,2.5,1.7,1.8*37
$GPRMC,181312.000,A,5352.0239,N,01041.1510,E,2.06,338.42,180912,,,A*67
$GPGGA,181313.000,5352.0245,N,01041.1510,E,1,08,1.1,47.6,M,45.6,M,,0000*6C
$GPGSA,A,3,19,32,01,28,11,14,22,20,,,,,1.9,1.1,1.6*38
$GPRMC,181313.000,A,5352.0245,N,01041.1510,E,1.33,331.99,180912,,,A*67
$GPGGA,181314.000,5352.0249,N,01041.1515,E,1,08,1.1,48.0,M,45.6,M,,0000*6B
$GPGSA,A,3,19,32,01,28,11,14,22,20,,,,,1.9,1.1,1.6*38
$GPRMC,181314.000,A,5352.0249,N,01041.1515,E,1.00,17.63,180912,,,A*5B
$GPGGA,181315.000,5352.0254,N,01041.1521,E,1,08,1.1,48.6,M,45.6,M,,0000*67
$GPGSA,A,3,19,32,01,28,11,14,22,20,,,,,1.9,1.1,1.6*38
$GPGSV,3,1,12,11,78,204,30,01,69,285,37,32,60,219,33,14,40,067,32*7B
$GPGSV,3,2,12,19,34,171,25,20,29,237,23,28,22,289,17,22,20,064,17*73
$GPGSV,3,3,12,17,13,318,,09,05,003,17,03,05,166,,27,01,353,*7B
$GPRMC,181315.000,A,5352.0254,N,01041.1521,E,0.90,38.18,180912,,,A*58
$GPGGA,181316.000,5352.0256,N,01041.1524,E,1,08,1.1,49.0,M,45.6,M,,0000*64
$GPGSA,A,3,19,32,01,28,11,14,22,20,,,,,1.9,1.1,1.6*38
$GPRMC,181321.000,A,5352.0273,N,01041.1544,E,0.88,18.39,180912,,,A*51
$GPGGA,181322.000,5352.0276,N,01041.1548,E,1,08,1.1,51.5,M,45.6,M,,0000*67
$GPGSA,A,3,19,32,01,28,11,14,22,20,,,,,1.9,1.1,1.6*38
$GPRMC,181322.000,A,5352.0276,N,01041.1548,E,0.81,45.88,180912,,,A*50
$GPGGA,181323.000,5352.0280,N,01041.1552,E,1,08,1.1,51.9,M,45.6,M,,0000*68
$GPGSA,A,3,19,32,01,28,11,14,22,20,,,,,1.9,1.1,1.6*38
$GPRMC,181323.000,A,5352.0280,N,01041.1552,E,0.91,12.72,180912,,,A*55
$GPGGA,181324.000,5352.0285,N,01041.1553,E,1,08,1.1,52.4,M,45.6,M,,0000*65
$GPGSA,A,3,19,32,01,28,11,14,22,20,,,,,1.9,1.1,1.6*38
$GPRMC,181324.000,A,5352.0285,N,01041.1553,E,1.28,354.43,180912,,,A*66
$GPGGA,181325.000,5352.0290,N,01041.1554,E,1,08,1.1,52.7,M,45.6,M,,0000*64
$GPGSA,A,3,19,32,01,28,11,14,22,20,,,,,1.9,1.1,1.6*38
$GPGSV,3,1,12,11,78,204,32,01,69,285,35,32,60,219,40,14,40,067,25*79
$GPGSV,3,2,12,19,34,171,31,20,29,237,24,28,22,289,18,22,20,064,17*7E
$GPGSV,3,3,12,17,13,318,,09,05,003,17,03,05,166,,27,01,353,*7B
$GPRMC,181325.000,A,5352.0290,N,01041.1554,E,0.91,350.76,180912,,,A*65
$GPGGA,181326.000,5352.0293,N,01041.1555,E,1,08,1.1,53.0,M,45.6,M,,0000*63
$GPGSA,A,3,19,32,01,28,11,14,22,20,,,,,1.9,1.1,1.6*38
$GPRMC,181327.000,A,5352.0297,N,01041.1556,E,0.96,354.04,180912,,,A*64
$GPGGA,181328.000,5352.0302,N,01041.1556,E,1,08,1.1,53.3,M,45.6,M,,0000*64
$GPGSA,A,3,19,32,01,28,11,14,22,20,,,,,1.9,1.1,1.6*38
$GPRMC,181328.000,A,5352.0302,N,01041.1556,E,1.13,347.57,180912,,,A*6E
$GPGGA,181329.000,5352.0304,N,01041.1558,E,1,08,1.1,53.1,M,45.6,M,,0000*6F
$GPGSA,A,3,19,32,01,28,11,14,22,20,,,,,1.9,1.1,1.6*38
$GPRMC,181330.000,A,5352.0308,N,01041.1559,E,0.95,2.97,180912,,,A*63
$GPGGA,181331.000,5352.0313,N,01041.1562,E,1,08,1.1,52.7,M,45.6,M,,0000*6E
$GPGSA,A,3,19,32,01,28,11,14,22,20,,,,,1.9,1.1,1.6*38
$GPRMC,181331.000,A,5352.0313,N,01041.1562,E,0.99,3.23,180912,,,A*62
$GPGGA,181332.000,5352.0317,N,01041.1564,E,1,08,1.1,52.4,M,45.6,M,,0000*6C
$GPGSA,A,3,19,32,01,28,11,14,22,20,,,,,1.9,1.1,1.6*38
$GPRMC,181333.000,A,5352.0322,N,01041.1565,E,0.86,354.42,180912,,,A*6D
$GPGGA,181334.000,5352.0325,N,01041.1563,E,1,08,1.1,51.7,M,45.6,M,,0000*6C
$GPGSA,A,3,19,32,01,28,11,14,22,20,,,,,1.9,1.1,1.6*38
$GPRMC,181338.000,A,5352.0343,N,01041.1558,E,1.05,358.18,180912,,,A*66
$GPGGA,181339.000,5352.0348,N,01041.1558,E,1,08,1.1,48.2,M,45.6,M,,0000*6F
$GPGSA,A,3,19,32,01,28,11,14,22,20,,,,,1.9,1.1,1.5*3B
$GPRMC,181339.000,A,5352.0348,N,01041.1558,E,0.87,0.94,180912,,,A*6D
$GPGGA,181340.000,5352.0354,N,01041.1556,E,1,08,1.1,47.6,M,45.6,M,,0000*69
$GPGSA,A,3,19,32,01,28,11,14,22,20,,,,,1.9,1.1,1.5*3B
$GPGSV,3,1,12,11,78,204,33,01,69,285,39,32,60,219,37,14,40,067,23*72
$GPGSV,3,2,12,19,34,171,26,20,29,237,24,28,22,289,23,22,20,064,19*7E
$GPGSV,3,3,12,17,13,318,,09,05,003,,03,05,166,,27,01,353,*7D
$GPRMC,181340.000,A,5352.0354,N,01041.1556,E,1.19,337.85,180912,,,A*61
$GPGGA,181341.000,5352.0358,N,01041.1553,E,1,08,1.1,47.2,M,45.6,M,,0000*65
$GPGSA,A,3,19,32,01,28,11,14,22,20,,,,,1.9,1.1,1.5*3B
$GPRMC,181341.000,A,5352.0358,N,01041.1553,E,0.85,325.77,180912,,,A*63
$GPGGA,181342.000,5352.0362,N,01041.1553,E,1,08,1.1,46.9,M,45.6,M,,0000*65
$GPGSA,A,3,19,32,01,28,11,14,22,20,,,,,1.9,1.1,1.5*3B
$GPRMC,181344.000,A,5352.0370,N,01041.1550,E,0.83,3.42,180912,,,A*68
$GPGGA,181345.000,5352.0376,N,01041.1551,E,1,08,1.1,46.6,M,45.6,M,,0000*6A
$GPGSA,A,3,19,32,01,28,11,14,22,20,,,,,1.9,1.1,1.5*3B
$GPGSV,3,1,12,11,78,204,33,01,69,285,39,32,60,219,33,14,40,067,23*76
$GPGSV,3,2,12,19,34,171,27,20,29,237,29,28,22,289,20,22,20,064,18*70
$GPGSV,3,3,12,17,13,318,,09,05,003,,03,05,166,,27,01,353,*7D
$GPRMC,181345.000,A,5352.0376,N,01041.1551,E,1.31,10.89,180912,,,A*53
$GPGGA,181346.000,5352.0380,N,01041.1553,E,1,08,1.1,46.5,M,45.6,M,,0000*61
$GPGSA,A,3,19,32,01,28,11,14,22,20,,,,,1.9,1.1,1.5*3B
$GPRMC,181346.000,A,5352.0380,N,01041.1553,E,0.85,32.41,180912,,,A*51
$GPGGA,181347.000,5352.0384,N,01041.1553,E,1,08,1.1,46.5,M,45.6,M,,0000*64
$GPGSA,A,3,19,32,01,28,11,14,22,20,,,,,1.9,1.1,1.5*3B
$GPRMC,181348.000,A,5352.0388,N,01041.1553,E,1.03,4.39,180912,,,A*62
$GPGGA,181349.000,5352.0393,N,01041.1555,E,1,08,1.1,46.7,M,45.6,M,,0000*68
$GPGSA,A,3,19,32,01,28,11,14,22,20,,,,,1.9,1.1,1.5*3B
$GPRMC,181349.000,A,5352.0393,N,01041.1555,E,1.22,16.50,180912,,,A*50
$GPGGA,181350.000,5352.0397,N,01041.1558,E,1,08,1.1,46.8,M,45.6,M,,0000*66
$GPGSA,A,3,19,32,01,28,11,14,22,20,,,,,1.9,1.1,1.5*3B
$GPGSV,3,1,12,11,78,204,33,01,69,285,40,32,60,219,35,14,40,067,23*7E
$GPGSV,3,2,12,19,34,171,30,20,29,237,29,28,22,289,16,22,20,064,19*72
$GPGSV,3,3,12,17,13,318,,09,05,003,,03,05,166,,27,01,353,*7D
$GPRMC,181350.000,A,5352.0397,N,01041.1558,E,1.35,33.74,180912,,,A*56
$GPGGA,181351.000,5352.0400,N,01041.1561,E,1,08,1.1,46.9,M,45.6,M,,0000*65
$GPGSA,A,3,19,32,01,28,11,14,22,20,,,,,1.9,1.1,1.5*3B
$GPRMC,181351.000,A,5352.0400,N,01041.1561,E,0.95,33.11,180912,,,A*5C
$GPGGA,181352.000,5352.0404,N,01041.1563,E,1,08,1.1,47.0,M,45.6,M,,0000*68
$GPGSA,A,3,19,32,01,28,11,14,22,20,,,,,1.9,1.1,1.5*3B
$GPRMC,181353.000,A,5352.0408,N,01041.1565,E,1.08,13.33,180912,,,A*55
$GPGGA,181354.000,5352.0413,N,01041.1567,E,1,08,1.1,47.0,M,45.6,M,,0000*6C
$GPGSA,A,3,19,32,01,28,11,14,22,20,,,,,1.9,1.1,1.5*3B
$GPRMC,181354.000,A,5352.0413,N,01041.1567,E,1.35,15.24,180912,,,A*54
$GPGGA,181355.000,5352.0418,N,01041.1570,E,1,08,1.1,46.9,M,45.6,M,,0000*68
$GPGSA,A,3,19,32,01,28,11,14,22,20,,,,,1.9,1.1,1.5*3B
$GPGSV,3,1,12,11,78,204,34,01,69,285,40,32,60,219,36,14,40,067,24*7D
$GPGSV,3,2,12,19,34,171,26,20,29,237,25,28,22,289,17,22,20,064,18*79
$GPGSV,3,3,12,17,13,318,,09,05,003,,03,05,166,,27,01,353,*7D
$GPRMC,181355.000,A,5352.0418,N,01041.1570,E,1.35,16.56,180912,,,A*5E
$GPGGA,181356.000,5352.0424,N,01041.1570,E,1,08,1.1,46.9,M,45.6,M,,0000*64
$GPGSA,A,3,19,32,01,28,11,14,22,20,,,,,1.9,1.1,1.5*3B
$GPRMC,181356.000,A,5352.0424,N,01041.1570,E,1.62,357.90,180912,,,A*6C
$GPGGA,181357.000,5352.0429,N,01041.1568,E,1,08,1.1,46.8,M,45.6,M,,0000*60
$GPGSA,A,3,19,32,01,28,11,14,22,20,,,,,1.9,1.1,1.5*3B
$GPRMC,181357.000,A,5352.0429,N,01041.1568,E,1.17,336.17,180912,,,A*63
$GPGGA,181358.000,5352.0434,N,01041.1566,E,1,08,1.1,46.7,M,45.6,M,,0000*62
$GPGSA,A,3,19,32,01,28,11,14,22,20,,,,,1.9,1.1,1.5*3B
$GPRMC,181358.000,A,5352.0434,N,01041.1566,E,1.42,346.79,180912,,,A*61
