$GPGGA,144633.000,6430.4563,N,02053.9692,W,1,10,0.9,512.9,M,60.5,M,,0000*48
$GPGSA,A,3,18,06,19,07,21,03,30,16,05,13,,,1.5,0.9,1.3*3E
$GPRMC,144633.000,A,6430.4563,N,02053.9692,W,21.97,15.47,290812,,,A*74
$GPGGA,144634.000,6430.4619,N,02053.9653,W,1,10,0.9,513.1,M,60.5,M,,0000*45
$GPGSA,A,3,18,06,19,07,21,03,30,16,05,13,,,1.5,0.9,1.3*3E
$GPRMC,144634.000,A,6430.4619,N,02053.9653,W,21.11,16.74,290812,,,A*7D
$GPGGA,144635.000,6430.4671,N,02053.9614,W,1,10,0.9,513.3,M,60.5,M,,0000*4B
$GPGSA,A,3,18,06,19,07,21,03,30,16,05,13,,,1.5,0.9,1.3*3E
$GPGSV,3,1,12,16,71,181,33,06,65,217,31,03,50,238,34,21,47,081,40*77
$GPGSV,3,2,12,30,43,147,42,07,31,311,36,19,20,240,35,13,14,277,26*73
$GPGSV,3,3,12,18,11,108,32,05,10,003,30,08,03,336,,26,00,026,*72
$GPRMC,144635.000,A,6430.4671,N,02053.9614,W,19.68,17.89,290812,,,A*77
$GPGGA,144636.000,6430.4721,N,02053.9577,W,1,10,0.9,513.5,M,60.5,M,,0000*4C
$GPGSA,A,3,18,06,19,07,21,03,30,16,05,13,,,1.5,0.9,1.3*3E
$GPRMC,144636.000,A,6430.4721,N,02053.9577,W,18.62,18.14,290812,,,A*76
$GPGGA,144637.000,6430.4769,N,02053.9542,W,1,10,0.9,513.7,M,60.5,M,,0000*45
$GPGSA,A,3,18,06,19,07,21,03,30,16,05,13,,,1.5,0.9,1.3*3E
$GPRMC,144637.000,A,6430.4769,N,02053.9542,W,18.03,17.18,290812,,,A*79
$GPGGA,144638.000,6430.4816,N,02053.9511,W,1,10,0.9,514.0,M,60.5,M,,0000*4B
$GPGSA,A,3,18,06,19,07,21,03,30,16,05,13,,,1.5,0.9,1.3*3E
$GPRMC,144638.000,A,6430.4816,N,02053.9511,W,17.76,15.79,290812,,,A*7F
$GPGGA,144639.000,6430.4864,N,02053.9484,W,1,10,0.9,514.3,M,60.5,M,,0000*41
$GPGSA,A,3,18,06,19,07,21,03,30,16,05,13,,,1.5,0.9,1.3*3E
$GPRMC,144639.000,A,6430.4864,N,02053.9484,W,17.47,13.74,290812,,,A*7F
$GPGGA,144640.000,6430.4910,N,02053.9461,W,1,10,0.9,514.7,M,60.5,M,,0000*42
$GPGSA,A,3,18,06,19,07,21,03,30,16,05,13,,,1.5,0.9,1.3*3E
$GPGSV,3,1,12,16,71,181,27,06,65,217,37,03,50,238,23,21,47,081,30*75
$GPGSV,3,2,12,30,43,147,43,07,31,311,36,19,20,240,36,13,14,277,22*75
$GPGSV,3,3,12,18,11,108,32,05,10,003,30,08,03,336,,26,00,026,*72
$GPRMC,144640.000,A,6430.4910,N,02053.9461,W,17.12,12.34,290812,,,A*7D
$GPGGA,144641.000,6430.4955,N,02053.9439,W,1,10,0.9,515.2,M,60.5,M,,0000*4B
$GPGSA,A,3,18,06,19,07,21,03,30,16,05,13,,,1.5,0.9,1.3*3E
$GPRMC,144641.000,A,6430.4955,N,02053.9439,W,16.53,11.40,290812,,,A*74
$GPGGA,144642.000,6430.4999,N,02053.9420,W,1,10,0.9,515.7,M,60.5,M,,0000*45
$GPGSA,A,3,18,06,19,07,21,03,30,16,05,13,,,1.5,0.9,1.3*3E
$GPRMC,144642.000,A,6430.4999,N,02053.9420,W,16.10,10.91,290812,,,A*75
$GPGGA,144643.000,6430.5043,N,02053.9403,W,1,10,0.9,516.3,M,60.5,M,,0000*4D
$GPGSA,A,3,18,06,19,07,21,03,30,16,05,13,,,1.5,0.9,1.3*3E
$GPRMC,144643.000,A,6430.5043,N,02053.9403,W,15.88,9.51,290812,,,A*4C
$GPGGA,144644.000,6430.5086,N,02053.9384,W,1,10,0.9,516.8,M,60.5,M,,0000*40
$GPGSA,A,3,18,06,19,07,21,03,30,16,05,13,,,1.5,0.9,1.3*3E
$GPRMC,144644.000,A,6430.5086,N,02053.9384,W,15.69,11.12,290812,,,A*7B
$GPGGA,144645.000,6430.5127,N,02053.9359,W,1,10,0.9,517.4,M,60.5,M,,0000*46
$GPGSA,A,3,18,06,19,07,21,03,30,16,05,13,,,1.5,0.9,1.3*3E
$GPGSV,3,1,12,16,71,181,36,06,65,217,25,03,50,238,29,21,47,081,37*7B
$GPGSV,3,2,12,30,43,147,42,07,31,311,27,19,20,240,39,13,14,277,34*7C
$GPGSV,3,3,12,18,11,108,32,05,10,003,28,08,03,336,,26,00,026,*7B
$GPRMC,144645.000,A,6430.5127,N,02053.9359,W,15.30,14.98,290812,,,A*7B
$GPGGA,144646.000,6430.5166,N,02053.9326,W,1,10,0.9,517.9,M,60.5,M,,0000*45
$GPGSA,A,3,18,06,19,07,21,03,30,16,05,13,,,1.5,0.9,1.3*3E
$GPRMC,144646.000,A,6430.5166,N,02053.9326,W,14.98,20.43,290812,,,A*77
$GPGGA,144647.000,6430.5203,N,02053.9284,W,1,10,0.9,518.4,M,60.5,M,,0000*4F
$GPGSA,A,3,18,06,19,07,21,03,30,16,05,13,,,1.5,0.9,1.3*3E
$GPRMC,144647.000,A,6430.5203,N,02053.9284,W,14.97,26.07,290812,,,A*76
$GPGGA,144648.000,6430.5239,N,02053.9237,W,1,10,0.9,518.9,M,60.5,M,,0000*4C
$GPGSA,A,3,18,06,19,07,21,03,30,16,05,13,,,1.5,0.9,1.3*3E
$GPRMC,144648.000,A,6430.5239,N,02053.9237,W,14.72,30.73,290812,,,A*77
$GPGGA,144649.000,6430.5272,N,02053.9185,W,1,09,1.1,519.4,M,60.5,M,,0000*45
$GPGSA,A,3,18,06,19,07,21,03,30,16,13,,,,1.7,1.1,1.3*30
$GPRMC,144649.000,A,6430.5272,N,02053.9185,W,14.49,34.25,290812,,,A*7C
$GPGGA,144650.000,6430.5304,N,02053.9130,W,1,10,0.9,519.9,M,60.5,M,,0000*4F
$GPGSA,A,3,18,06,19,07,21,03,30,16,05,13,,,1.5,0.9,1.3*3E
$GPGSV,3,1,12,16,71,181,36,06,65,217,33,03,50,238,36,21,47,081,38*7D
$GPGSV,3,2,12,30,43,147,48,07,31,311,28,19,20,240,33,13,14,277,38*7F
$GPGSV,3,3,12,18,11,108,33,05,10,003,18,08,03,336,,26,00,026,*79
$GPRMC,144650.000,A,6430.5304,N,02053.9130,W,14.40,37.12,290812,,,A*74
$GPGGA,144651.000,6430.5335,N,02053.9073,W,1,10,0.9,520.4,M,60.5,M,,0000*4D
$GPGSA,A,3,18,06,19,07,21,03,30,16,05,13,,,1.5,0.9,1.3*3E
$GPRMC,144651.000,A,6430.5335,N,02053.9073,W,14.31,39.49,290812,,,A*77
$GPGGA,144652.000,6430.5368,N,02053.9017,W,1,10,0.9,520.8,M,60.5,M,,0000*48
$GPGSA,A,3,18,06,19,07,21,03,30,16,05,13,,,1.5,0.9,1.3*3E
$GPRMC,144652.000,A,6430.5368,N,02053.9017,W,14.55,37.43,290812,,,A*78
$GPGGA,144653.000,6430.5402,N,02053.8968,W,1,10,0.9,521.3,M,60.5,M,,0000*48
$GPGSA,A,3,18,06,19,07,21,03,30,16,05,13,,,1.5,0.9,1.3*3E
$GPRMC,144653.000,A,6430.5402,N,02053.8968,W,14.43,32.32,290812,,,A*76
$GPGGA,144654.000,6430.5439,N,02053.8925,W,1,10,0.9,521.7,M,60.5,M,,0000*4A
$GPGSA,A,3,18,06,19,07,21,03,30,16,05,13,,,1.5,0.9,1.3*3E
$GPRMC,144654.000,A,6430.5439,N,02053.8925,W,14.90,26.48,290812,,,A*76
$GPGGA,144655.000,6430.5477,N,02053.8884,W,1,09,1.0,522.1,M,60.5,M,,0000*4E
$GPGSA,A,3,18,06,19,07,03,30,16,05,13,,,,1.6,1.0,1.3*36
$GPGSV,3,1,12,16,71,181,34,06,65,217,35,03,50,238,38,21,47,081,*7C
$GPGSV,3,2,12,30,43,147,47,07,31,311,27,19,20,240,26,13,14,277,28*7A
$GPGSV,3,3,12,18,11,108,27,05,10,003,28,08,03,336,,26,00,026,*7F
$GPRMC,144655.000,A,6430.5477,N,02053.8884,W,15.35,24.87,290812,,,A*78
$GPGGA,144656.000,6430.5516,N,02053.8836,W,1,09,1.1,522.4,M,60.5,M,,0000*46
$GPGSA,A,3,06,19,07,21,03,30,16,05,13,,,,2.1,1.1,1.8*32
$GPRMC,144656.000,A,6430.5516,N,02053.8836,W,15.82,28.34,290812,,,A*7C
$GPGGA,144657.000,6430.5553,N,02053.8782,W,1,09,1.1,522.7,M,60.5,M,,0000*45
$GPGSA,A,3,19,06,07,21,03,30,16,05,13,,,,2.1,1.1,1.8*32
$GPRMC,144657.000,A,6430.5553,N,02053.8782,W,15.79,32.44,290812,,,A*74
$GPGGA,144658.000,6430.5589,N,02053.8720,W,1,09,1.1,523.0,M,60.5,M,,0000*43
$GPGSA,A,3,19,06,07,21,03,30,16,05,13,,,,2.1,1.1,1.8*32
$GPRMC,144658.000,A,6430.5589,N,02053.8720,W,16.27,37.30,290812,,,A*7A
$GPGGA,144659.000,6430.5623,N,02053.8656,W,1,09,1.1,523.3,M,60.5,M,,0000*42
$GPGSA,A,3,19,06,07,21,03,30,16,05,13,,,,2.1,1.1,1.8*32
$GPRMC,144659.000,A,6430.5623,N,02053.8656,W,16.01,38.93,290812,,,A*7A
$GPGGA,144700.000,6430.5656,N,02053.8593,W,1,09,1.1,523.7,M,60.5,M,,0000*43
$GPGSA,A,3,19,06,07,21,03,30,16,05,13,,,,2.1,1.1,1.8*32
$GPGSV,3,1,12,16,71,181,35,06,65,217,32,03,50,238,32,21,47,081,37*74
$GPGSV,3,2,12,30,43,147,47,07,31,311,33,19,20,240,21,13,14,277,35*74
$GPGSV,3,3,12,18,11,108,,05,10,003,32,08,03,336,,26,00,026,*71
$GPRMC,144700.000,A,6430.5656,N,02053.8593,W,15.58,39.42,290812,,,A*7D
$GPGGA,144701.000,6430.5689,N,02053.8531,W,1,09,1.1,524.1,M,60.5,M,,0000*49
$GPGSA,A,3,19,06,07,21,03,30,16,05,13,,,,2.1,1.1,1.8*32
$GPRMC,144701.000,A,6430.5689,N,02053.8531,W,15.19,40.47,290812,,,A*78
$GPGGA,144702.000,6430.5720,N,02053.8469,W,1,10,0.9,524.6,M,60.5,M,,0000*42
$GPGSA,A,3,19,06,18,07,21,03,30,16,05,13,,,1.5,0.9,1.3*3E
$GPRMC,144702.000,A,6430.5720,N,02053.8469,W,14.90,40.76,290812,,,A*77
$GPGGA,144703.000,6430.5752,N,02053.8408,W,1,09,1.0,525.0,M,60.5,M,,0000*46
$GPGSA,A,3,19,06,18,21,03,30,16,05,13,,,,1.6,1.0,1.3*32
$GPRMC,144703.000,A,6430.5752,N,02053.8408,W,15.11,39.44,290812,,,A*73
$GPGGA,144704.000,6430.5785,N,02053.8348,W,1,10,0.9,525.3,M,60.5,M,,0000*4B
$GPGSA,A,3,19,06,18,07,21,03,30,16,05,13,,,1.5,0.9,1.3*3E
$GPRMC,144704.000,A,6430.5785,N,02053.8348,W,15.23,38.37,290812,,,A*79
$GPGGA,144705.000,6430.5819,N,02053.8289,W,1,10,0.9,525.7,M,60.5,M,,0000*48
$GPGSA,A,3,19,06,18,07,21,03,30,16,05,13,,,1.5,0.9,1.3*3E
$GPGSV,3,1,12,16,71,181,35,06,65,217,32,03,50,238,31,21,47,081,38*78
$GPGSV,3,2,12,30,43,147,47,07,31,311,28,19,20,240,30,13,14,277,36*7D
$GPGSV,3,3,12,18,11,108,35,05,10,003,35,08,03,336,,26,00,026,*70
$GPRMC,144705.000,A,6430.5819,N,02053.8289,W,15.35,37.07,290812,,,A*75
$GPGGA,144706.000,6430.5854,N,02053.8233,W,1,10,0.9,526.0,M,60.5,M,,0000*47
$GPGSA,A,3,19,06,18,07,21,03,30,16,05,13,,,1.5,0.9,1.3*3E
$GPRMC,144706.000,A,6430.5854,N,02053.8233,W,15.38,34.85,290812,,,A*7A
$GPGGA,144707.000,6430.5889,N,02053.8179,W,1,10,0.9,526.3,M,60.5,M,,0000*48
$GPGSA,A,3,19,06,18,07,21,03,30,16,05,13,,,1.5,0.9,1.3*3E
$GPRMC,144707.000,A,6430.5889,N,02053.8179,W,15.39,33.86,290812,,,A*73
$GPGGA,144708.000,6430.5925,N,02053.8125,W,1,10,0.9,526.5,M,60.5,M,,0000*4F
$GPGSA,A,3,19,06,18,07,21,03,30,16,05,13,,,1.5,0.9,1.3*3E
$GPRMC,144708.000,A,6430.5925,N,02053.8125,W,15.52,33.11,290812,,,A*71
$GPGGA,144709.000,6430.5962,N,02053.8072,W,1,10,0.9,526.7,M,60.5,M,,0000*4C
$GPGSA,A,3,19,06,18,07,21,03,30,16,05,13,,,1.5,0.9,1.3*3E
$GPRMC,144709.000,A,6430.5962,N,02053.8072,W,15.81,31.24,290812,,,A*7A
$GPGGA,144710.000,6430.6000,N,02053.8023,W,1,10,0.9,526.9,M,60.5,M,,0000*40
$GPGSA,A,3,19,06,18,07,21,03,30,16,05,13,,,1.5,0.9,1.3*3E
$GPGSV,3,1,12,16,71,181,34,06,65,217,28,03,50,238,32,21,47,081,30*79
$GPGSV,3,2,12,30,43,147,47,07,31,311,35,19,20,240,31,13,14,277,31*77
$GPGSV,3,3,12,18,11,108,31,05,10,003,27,08,03,336,,26,00,026,*77
$GPRMC,144710.000,A,6430.6000,N,02053.8023,W,15.99,28.87,290812,,,A*70
$GPGGA,144711.000,6430.6040,N,02053.7976,W,1,10,0.9,527.0,M,60.5,M,,0000*4B
$GPGSA,A,3,19,06,18,07,21,03,30,16,05,13,,,1.5,0.9,1.3*3E
$GPRMC,144711.000,A,6430.6040,N,02053.7976,W,16.09,27.30,290812,,,A*7A
$GPGGA,144712.000,6430.6079,N,02053.7933,W,1,10,0.9,527.2,M,60.5,M,,0000*41
$GPGSA,A,3,19,06,18,07,21,03,30,16,05,13,,,1.5,0.9,1.3*3E
$GPRMC,144712.000,A,6430.6079,N,02053.7933,W,15.87,25.43,290812,,,A*71
$GPGGA,144713.000,6430.6119,N,02053.7892,W,1,10,0.9,527.4,M,60.5,M,,0000*4B
$GPGSA,A,3,19,06,18,07,21,03,30,16,05,13,,,1.5,0.9,1.3*3E
$GPRMC,144713.000,A,6430.6119,N,02053.7892,W,15.78,24.36,290812,,,A*7E
$GPGGA,144714.000,6430.6158,N,02053.7853,W,1,10,0.9,527.7,M,60.5,M,,0000*47
$GPGSA,A,3,19,06,18,07,21,03,30,16,05,13,,,1.5,0.9,1.3*3E
$GPRMC,144714.000,A,6430.6158,N,02053.7853,W,15.77,23.34,290812,,,A*7B
$GPGGA,144715.000,6430.6198,N,02053.7814,W,1,10,0.9,527.9,M,60.5,M,,0000*47
$GPGSA,A,3,19,06,18,07,21,03,30,16,05,13,,,1.5,0.9,1.3*3E
$GPGSV,3,1,12,16,71,181,26,06,65,217,34,03,50,238,37,21,47,081,35*77
$GPGSV,3,2,12,30,43,147,46,07,31,311,24,19,20,240,28,13,14,277,31*7E
$GPGSV,3,3,12,18,11,108,34,05,10,003,25,08,03,336,,26,00,026,*70
$GPRMC,144715.000,A,6430.6198,N,02053.7814,W,15.55,23.11,290812,,,A*72
$GPGGA,144716.000,6430.6238,N,02053.7774,W,1,10,0.9,528.2,M,60.5,M,,0000*40
$GPGSA,A,3,19,06,18,07,21,03,30,16,13,05,,,1.5,0.9,1.3*3E
$GPRMC,144716.000,A,6430.6238,N,02053.7774,W,15.98,23.68,290812,,,A*7E
$GPGGA,144717.000,6430.6279,N,02053.7732,W,1,10,0.9,528.5,M,60.5,M,,0000*41
$GPGSA,A,3,19,06,18,07,21,03,30,16,13,05,,,1.5,0.9,1.3*3E
$GPRMC,144717.000,A,6430.6279,N,02053.7732,W,16.48,23.89,290812,,,A*79
$GPGGA,144718.000,6430.6321,N,02053.7689,W,1,10,0.9,528.7,M,60.5,M,,0000*41
$GPGSA,A,3,19,06,18,07,21,03,30,16,13,05,,,1.5,0.9,1.3*3E
$GPRMC,144718.000,A,6430.6321,N,02053.7689,W,16.68,24.50,290812,,,A*7A
$GPGGA,144719.000,6430.6363,N,02053.7644,W,1,10,0.9,528.8,M,60.5,M,,0000*48
$GPGSA,A,3,19,06,18,07,21,03,30,16,13,05,,,1.5,0.9,1.3*3E
$GPRMC,144719.000,A,6430.6363,N,02053.7644,W,16.77,25.06,290812,,,A*70
$GPGGA,144720.000,6430.6404,N,02053.7598,W,1,10,0.9,528.9,M,60.5,M,,0000*47
$GPGSA,A,3,19,06,18,07,21,03,30,16,13,05,,,1.5,0.9,1.3*3E
$GPGSV,3,1,12,16,71,181,26,06,65,217,28,03,50,238,37,21,47,081,36*79
$GPGSV,3,2,12,30,43,147,45,07,31,311,38,19,20,240,21,13,14,277,32*7A
$GPGSV,3,3,12,18,11,108,25,05,10,003,19,08,03,336,30,26,00,026,*7C
$GPRMC,144720.000,A,6430.6404,N,02053.7598,W,16.83,25.60,290812,,,A*75
$GPGGA,144721.000,6430.6446,N,02053.7552,W,1,10,0.9,529.0,M,60.5,M,,0000*4E
$GPGSA,A,3,19,06,18,07,21,03,30,16,13,05,,,1.5,0.9,1.3*3E
$GPRMC,144721.000,A,6430.6446,N,02053.7552,W,16.85,26.20,290812,,,A*75
$GPGGA,144722.000,6430.6487,N,02053.7504,W,1,10,0.9,529.0,M,60.5,M,,0000*43
$GPGSA,A,3,19,06,18,07,21,03,30,16,13,05,,,1.5,0.9,1.3*3E
$GPRMC,144722.000,A,6430.6487,N,02053.7504,W,16.79,26.72,290812,,,A*7C
$GPGGA,144723.000,6430.6528,N,02053.7455,W,1,10,0.9,528.8,M,60.5,M,,0000*4A
$GPGSA,A,3,19,06,18,07,21,03,30,16,13,05,,,1.6,0.9,1.3*3D
$GPRMC,144723.000,A,6430.6528,N,02053.7455,W,16.88,27.32,290812,,,A*77
$GPGGA,144724.000,6430.6569,N,02053.7404,W,1,09,1.0,528.6,M,60.5,M,,0000*42
$GPGSA,A,3,19,06,18,21,03,30,16,13,05,,,,1.6,1.0,1.3*32
$GPRMC,144724.000,A,6430.6569,N,02053.7404,W,16.99,28.73,290812,,,A*7B
$GPGGA,144725.000,6430.6610,N,02053.7352,W,1,09,1.0,528.4,M,60.5,M,,0000*48
$GPGSA,A,3,19,06,18,07,21,03,30,16,05,,,,1.7,1.0,1.4*31
$GPGSV,3,1,12,16,71,179,32,06,66,216,17,03,50,238,32,21,46,080,36*70
$GPGSV,3,2,12,30,42,147,46,07,31,311,29,19,21,240,30,13,13,277,*7F
$GPGSV,3,3,12,18,11,108,17,05,09,003,25,08,03,336,30,26,01,026,*7B
$GPRMC,144725.000,A,6430.6610,N,02053.7352,W,16.93,28.72,290812,,,A*78
$GPGGA,144726.000,6430.6650,N,02053.7303,W,1,10,0.9,528.1,M,60.5,M,,0000*4E
$GPGSA,A,3,19,06,18,07,21,03,30,16,13,05,,,1.6,0.9,1.3*3D
$GPRMC,144726.000,A,6430.6650,N,02053.7303,W,16.54,27.91,290812,,,A*72
$GPGGA,144727.000,6430.6689,N,02053.7257,W,1,10,0.9,527.7,M,60.5,M,,0000*42
$GPGSA,A,3,19,06,18,07,21,03,30,16,13,05,,,1.6,0.9,1.3*3D
$GPRMC,144727.000,A,6430.6689,N,02053.7257,W,15.87,27.14,290812,,,A*77
$GPGGA,144728.000,6430.6726,N,02053.7212,W,1,10,0.9,527.3,M,60.5,M,,0000*4C
$GPGSA,A,3,19,06,18,07,21,03,30,16,13,05,,,1.6,0.9,1.3*3D
$GPRMC,144728.000,A,6430.6726,N,02053.7212,W,15.36,27.78,290812,,,A*7D
$GPGGA,144729.000,6430.6765,N,02053.7164,W,1,10,0.9,526.9,M,60.5,M,,0000*43
$GPGSA,A,3,19,06,18,07,21,03,30,16,13,05,,,1.6,0.9,1.3*3D
$GPRMC,144729.000,A,6430.6765,N,02053.7164,W,15.87,28.35,290812,,,A*75
$GPGGA,144730.000,6430.6805,N,02053.7114,W,1,10,0.9,526.5,M,60.5,M,,0000*49
$GPGSA,A,3,19,06,18,07,21,03,30,16,13,05,,,1.6,0.9,1.3*3D
$GPGSV,3,1,12,16,71,179,32,06,66,216,26,03,50,238,33,21,46,080,36*73
$GPGSV,3,2,12,30,42,147,46,07,31,311,30,19,21,240,30,13,13,277,26*73
$GPGSV,3,3,12,18,11,108,25,05,09,003,26,08,03,336,30,26,01,026,*79
$GPRMC,144730.000,A,6430.6805,N,02053.7114,W,16.70,28.46,290812,,,A*7C
$GPGGA,144731.000,6430.6848,N,02053.7060,W,1,10,0.9,526.2,M,60.5,M,,0000*44
$GPGSA,A,3,19,06,18,07,21,03,30,16,13,05,,,1.6,0.9,1.3*3D
$GPRMC,144731.000,A,6430.6848,N,02053.7060,W,17.65,28.56,290812,,,A*72
$GPGGA,144732.000,6430.6893,N,02053.7003,W,1,10,0.9,526.0,M,60.5,M,,0000*46
$GPGSA,A,3,19,06,18,07,21,03,30,16,13,05,,,1.6,0.9,1.3*3D
$GPRMC,144732.000,A,6430.6893,N,02053.7003,W,18.79,28.50,290812,,,A*76
$GPGGA,144733.000,6430.6940,N,02053.6944,W,1,10,0.9,525.9,M,60.5,M,,0000*49
$GPGSA,A,3,19,06,18,07,21,03,30,16,13,05,,,1.6,0.9,1.3*3D
$GPRMC,144733.000,A,6430.6940,N,02053.6944,W,19.59,28.79,290812,,,A*7B
$GPGGA,144734.000,6430.6989,N,02053.6883,W,1,10,0.9,525.9,M,60.5,M,,0000*41
$GPGSA,A,3,19,06,18,07,21,03,30,16,13,05,,,1.6,0.9,1.3*3D
$GPRMC,144734.000,A,6430.6989,N,02053.6883,W,20.11,28.36,290812,,,A*7E
$GPGGA,144735.000,6430.7038,N,02053.6823,W,1,10,0.9,526.0,M,60.5,M,,0000*42
$GPGSA,A,3,19,06,18,07,21,03,30,16,13,05,,,1.6,0.9,1.3*3D
$GPGSV,3,1,12,16,71,179,34,06,66,216,33,03,50,238,36,21,46,080,32*70
$GPGSV,3,2,12,30,42,147,47,07,31,311,36,19,21,240,30,13,13,277,26*74
$GPGSV,3,3,12,18,11,108,20,05,09,003,21,08,03,336,31,26,01,026,*7A
$GPRMC,144735.000,A,6430.7038,N,02053.6823,W,20.30,28.07,290812,,,A*76
$GPGGA,144736.000,6430.7085,N,02053.6765,W,1,10,0.9,526.3,M,60.5,M,,0000*49
$GPGSA,A,3,19,06,18,07,21,03,30,16,13,05,,,1.6,0.9,1.3*3D
$GPRMC,144736.000,A,6430.7085,N,02053.6765,W,19.35,27.83,290812,,,A*72
$GPGGA,144737.000,6430.7129,N,02053.6712,W,1,10,0.9,526.8,M,60.5,M,,0000*44
$GPGSA,A,3,19,06,18,07,21,03,30,16,13,05,,,1.6,0.9,1.3*3D
$GPRMC,144737.000,A,6430.7129,N,02053.6712,W,17.95,28.07,290812,,,A*73
$GPGGA,144738.000,6430.7170,N,02053.6660,W,1,10,0.9,527.6,M,60.5,M,,0000*4C
$GPGSA,A,3,19,06,18,07,21,03,30,16,13,05,,,1.6,0.9,1.3*3D
$GPRMC,144738.000,A,6430.7170,N,02053.6660,W,16.74,29.41,290812,,,A*79
$GPGGA,144739.000,6430.7206,N,02053.6613,W,1,10,0.9,528.5,M,60.5,M,,0000*47
$GPGSA,A,3,19,06,18,07,21,03,30,16,13,05,,,1.6,0.9,1.3*3D
$GPRMC,144739.000,A,6430.7206,N,02053.6613,W,15.08,28.97,290812,,,A*7C
$GPGGA,144740.000,6430.7240,N,02053.6570,W,1,10,0.9,529.4,M,60.5,M,,0000*4D
$GPGSA,A,3,19,06,18,07,21,03,30,16,13,05,,,1.6,0.9,1.3*3D
$GPGSV,3,1,12,16,71,179,39,06,66,216,28,03,50,238,30,21,46,080,30*73
$GPGSV,3,2,12,30,42,147,47,07,31,311,34,19,21,240,27,13,13,277,27*71
$GPGSV,3,3,12,18,11,108,22,05,09,003,28,08,03,336,31,26,01,026,*71
$GPRMC,144740.000,A,6430.7240,N,02053.6570,W,13.81,29.44,290812,,,A*7E
$GPGGA,144741.000,6430.7271,N,02053.6531,W,1,10,0.9,530.3,M,60.5,M,,0000*44
$GPGSA,A,3,19,06,18,07,21,03,30,16,13,05,,,1.6,0.9,1.3*3D
$GPRMC,144741.000,A,6430.7271,N,02053.6531,W,12.61,29.00,290812,,,A*77
$GPGGA,144742.000,6430.7298,N,02053.6495,W,1,09,1.1,531.1,M,60.5,M,,0000*4D
$GPGSA,A,3,19,06,18,07,21,03,30,16,13,,,,1.7,1.1,1.3*30
$GPRMC,144742.000,A,6430.7298,N,02053.6495,W,11.44,28.97,290812,,,A*77
$GPGGA,144743.000,6430.7325,N,02053.6463,W,1,10,0.9,531.9,M,60.5,M,,0000*4B
$GPGSA,A,3,19,06,18,07,21,03,30,16,13,05,,,1.6,0.9,1.3*3D
$GPRMC,144743.000,A,6430.7325,N,02053.6463,W,10.65,28.34,290812,,,A*73
$GPGGA,144744.000,6430.7350,N,02053.6431,W,1,10,0.9,532.6,M,60.5,M,,0000*45
$GPGSA,A,3,19,06,18,07,21,03,30,16,13,05,,,1.6,0.9,1.3*3D
$GPRMC,144744.000,A,6430.7350,N,02053.6431,W,10.43,28.14,290812,,,A*77
$GPGGA,144745.000,6430.7376,N,02053.6395,W,1,10,0.9,533.2,M,60.5,M,,0000*4C
$GPGSA,A,3,19,06,18,07,21,03,30,16,13,05,,,1.6,0.9,1.3*3D
$GPGSV,3,1,12,16,71,179,32,06,66,216,31,03,50,238,33,21,46,080,29*7B
$GPGSV,3,2,12,30,42,147,46,07,31,311,34,19,21,240,30,13,13,277,35*75
$GPGSV,3,3,12,18,11,108,23,05,09,003,34,08,03,336,27,26,01,026,*7A
$GPRMC,144745.000,A,6430.7376,N,02053.6395,W,10.98,30.95,290812,,,A*7D
$GPGGA,144746.000,6430.7403,N,02053.6355,W,1,10,0.9,533.7,M,60.5,M,,0000*43
$GPGSA,A,3,19,06,18,07,21,03,30,16,13,05,,,1.6,0.9,1.3*3D
$GPRMC,144746.000,A,6430.7403,N,02053.6355,W,11.34,33.64,290812,,,A*7D
$GPGGA,144747.000,6430.7428,N,02053.6311,W,1,10,0.9,534.2,M,60.5,M,,0000*49
$GPGSA,A,3,19,06,18,07,21,03,30,16,13,05,,,1.6,0.9,1.3*3D
$GPRMC,144747.000,A,6430.7428,N,02053.6311,W,11.53,35.83,290812,,,A*7B
$GPGGA,144748.000,6430.7455,N,02053.6267,W,1,10,0.9,534.7,M,60.5,M,,0000*49
$GPGSA,A,3,19,06,18,07,21,03,30,16,13,05,,,1.6,0.9,1.3*3D
$GPRMC,144748.000,A,6430.7455,N,02053.6267,W,11.80,36.55,290812,,,A*78
$GPGGA,144749.000,6430.7480,N,02053.6218,W,1,10,0.9,535.1,M,60.5,M,,0000*4F
$GPGSA,A,3,19,06,18,07,21,03,30,16,13,05,,,1.6,0.9,1.3*3D
$GPRMC,144749.000,A,6430.7480,N,02053.6218,W,12.07,39.18,290812,,,A*73
$GPGGA,144750.000,6430.7506,N,02053.6169,W,1,10,0.9,535.5,M,60.5,M,,0000*49
$GPGSA,A,3,19,06,18,07,21,03,30,16,13,05,,,1.6,0.9,1.3*3D
$GPGSV,3,1,12,16,71,179,29,06,66,216,32,03,50,238,34,21,46,080,37*7A
$GPGSV,3,2,12,30,42,147,46,07,31,311,28,19,21,240,26,13,13,277,25*7E
$GPGSV,3,3,12,18,11,108,26,05,09,003,26,08,03,336,28,26,01,026,*73
$GPRMC,144750.000,A,6430.7506,N,02053.6169,W,11.99,40.26,290812,,,A*76
$GPGGA,144751.000,6430.7529,N,02053.6117,W,1,10,0.9,535.8,M,60.5,M,,0000*41
$GPGSA,A,3,19,06,18,07,21,03,30,16,13,05,,,1.6,0.9,1.3*3D
$GPRMC,144751.000,A,6430.7529,N,02053.6117,W,11.70,43.47,290812,,,A*70
$GPGGA,144752.000,6430.7551,N,02053.6063,W,1,10,0.9,536.1,M,60.5,M,,0000*45
$GPGSA,A,3,19,06,18,07,21,03,30,16,13,05,,,1.6,0.9,1.3*3D
$GPRMC,144752.000,A,6430.7551,N,02053.6063,W,11.77,46.47,290812,,,A*7C
$GPGGA,144753.000,6430.7573,N,02053.6003,W,1,10,0.9,536.4,M,60.5,M,,0000*47
$GPGSA,A,3,19,06,18,07,21,03,30,16,13,05,,,1.6,0.9,1.3*3D
$GPRMC,144753.000,A,6430.7573,N,02053.6003,W,12.22,49.75,290812,,,A*76
$GPGGA,144754.000,6430.7596,N,02053.5940,W,1,10,0.9,536.5,M,60.5,M,,0000*47
$GPGSA,A,3,19,06,18,07,21,03,30,16,13,05,,,1.6,0.9,1.3*3D
$GPRMC,144754.000,A,6430.7596,N,02053.5940,W,12.94,50.69,290812,,,A*7F
$GPGGA,144755.000,6430.7620,N,02053.5871,W,1,10,0.9,536.7,M,60.5,M,,0000*49
$GPGSA,A,3,19,06,18,07,21,03,30,16,13,05,,,1.6,0.9,1.3*3D
$GPGSV,3,1,12,16,71,179,34,06,66,216,32,03,50,238,35,21,46,080,27*76
$GPGSV,3,2,12,30,42,147,45,07,31,311,35,19,21,240,35,13,13,277,31*76
$GPGSV,3,3,12,18,11,108,21,05,09,003,24,08,03,336,33,26,01,026,*7C
$GPRMC,144755.000,A,6430.7620,N,02053.5871,W,13.94,51.00,290812,,,A*7C
$GPGGA,144756.000,6430.7643,N,02053.5801,W,1,10,0.9,536.7,M,60.5,M,,0000*48
$GPGSA,A,3,19,06,18,07,21,03,30,16,13,05,,,1.6,0.9,1.3*3D
$GPRMC,144756.000,A,6430.7643,N,02053.5801,W,13.87,52.18,290812,,,A*75
$GPGGA,144757.000,6430.7666,N,02053.5732,W,1,10,0.9,536.6,M,60.5,M,,0000*40
$GPGSA,A,3,19,06,18,07,21,03,30,16,13,05,,,1.6,0.9,1.3*3D
$GPRMC,144757.000,A,6430.7666,N,02053.5732,W,13.62,52.31,290812,,,A*7C
$GPGGA,144758.000,6430.7688,N,02053.5663,W,1,10,0.9,536.5,M,60.5,M,,0000*49
$GPGSA,A,3,19,06,18,07,21,03,30,16,13,05,,,1.6,0.9,1.3*3D
$GPRMC,144758.000,A,6430.7688,N,02053.5663,W,13.53,52.51,290812,,,A*72
$GPGGA,144759.000,6430.7710,N,02053.5594,W,1,09,1.0,536.5,M,60.5,M,,0000*43
$GPGSA,A,3,19,06,18,07,03,30,16,13,05,,,,1.7,1.0,1.3*37
$GPGSV,3,1,12,16,71,179,34,06,66,216,26,03,50,238,34,21,46,080,*77
$GPGSV,3,2,12,30,42,147,44,07,31,311,34,19,21,240,23,13,13,277,18*7A
$GPGSV,3,3,12,18,11,108,18,05,09,003,32,08,03,336,31,26,01,026,*73
$GPRMC,144759.000,A,6430.7710,N,02053.5594,W,13.39,53.07,290812,,,A*76
$GPGGA,144800.000,6430.7733,N,02053.5527,W,1,09,1.0,536.4,M,60.5,M,,0000*48
$GPGSA,A,3,19,06,18,07,03,30,16,13,05,,,,1.7,1.0,1.3*37
$GPGSV,3,1,12,16,71,179,34,06,66,216,26,03,50,238,34,21,46,080,*77
$GPGSV,3,2,12,30,42,147,44,07,31,311,34,19,21,240,24,13,13,277,21*77
$GPGSV,3,3,12,18,11,108,17,05,09,003,32,08,03,336,25,26,01,026,*79
$GPRMC,144800.000,A,6430.7733,N,02053.5527,W,13.24,51.88,290812,,,A*75
$GPGGA,144801.000,6430.7755,N,02053.5462,W,1,10,0.9,536.3,M,60.5,M,,0000*4E
$GPGSA,A,3,19,06,18,07,21,03,30,16,13,05,,,1.6,0.9,1.3*3D
$GPRMC,144801.000,A,6430.7755,N,02053.5462,W,13.19,50.58,290812,,,A*76
$GPGGA,144802.000,6430.7779,N,02053.5396,W,1,10,0.9,536.2,M,60.5,M,,0000*4E
$GPGSA,A,3,19,06,18,07,21,03,30,16,13,05,,,1.6,0.9,1.3*3D
$GPRMC,144802.000,A,6430.7779,N,02053.5396,W,13.44,49.36,290812,,,A*7F
$GPGGA,144803.000,6430.7806,N,02053.5329,W,1,10,0.9,535.9,M,60.5,M,,0000*44
$GPGSA,A,3,19,06,18,07,21,03,30,16,13,05,,,1.6,0.9,1.3*3D
$GPRMC,144803.000,A,6430.7806,N,02053.5329,W,14.37,47.36,290812,,,A*70
$GPGGA,144804.000,6430.7834,N,02053.5262,W,1,10,0.9,535.7,M,60.5,M,,0000*42
$GPGSA,A,3,19,06,18,07,21,03,30,16,13,05,,,1.6,0.9,1.3*3D
$GPRMC,144804.000,A,6430.7834,N,02053.5262,W,14.83,44.77,290812,,,A*71
$GPGGA,144805.000,6430.7865,N,02053.5198,W,1,10,0.9,535.3,M,60.5,M,,0000*45
$GPGSA,A,3,19,06,18,07,21,03,30,16,13,05,,,1.6,0.9,1.3*3D
$GPGSV,3,1,12,16,71,179,35,06,66,216,28,03,50,238,32,21,46,080,38*75
$GPGSV,3,2,12,30,42,147,45,07,31,311,35,19,21,240,31,13,13,277,29*7B
$GPGSV,3,3,12,18,11,108,16,05,09,003,30,08,03,336,31,26,01,026,*7F
$GPRMC,144805.000,A,6430.7865,N,02053.5198,W,15.23,41.07,290812,,,A*7B
$GPGGA,144806.000,6430.7900,N,02053.5136,W,1,10,0.9,535.0,M,60.5,M,,0000*43
$GPGSA,A,3,19,06,18,07,21,03,30,16,13,05,,,1.6,0.9,1.3*3D
$GPRMC,144806.000,A,6430.7900,N,02053.5136,W,16.06,36.66,290812,,,A*7D
$GPGGA,144807.000,6430.7938,N,02053.5079,W,1,10,0.9,534.5,M,60.5,M,,0000*47
$GPGSA,A,3,19,06,18,07,21,03,30,16,13,05,,,1.6,0.9,1.3*3D
$GPRMC,144807.000,A,6430.7938,N,02053.5079,W,16.60,32.38,290812,,,A*72
$GPGGA,144808.000,6430.7977,N,02053.5027,W,1,09,0.9,534.1,M,60.5,M,,0000*44
$GPGSA,A,3,19,06,18,07,21,03,30,13,05,,,,1.7,0.9,1.4*3C
$GPRMC,144808.000,A,6430.7977,N,02053.5027,W,16.58,29.19,290812,,,A*7F
$GPGGA,144809.000,6430.8016,N,02053.4981,W,1,10,0.9,533.7,M,60.5,M,,0000*49
$GPGSA,A,3,19,06,18,07,21,03,30,16,13,05,,,1.6,0.9,1.3*3D
$GPRMC,144809.000,A,6430.8016,N,02053.4981,W,15.98,26.72,290812,,,A*76
$GPGGA,144810.000,6430.8053,N,02053.4937,W,1,10,0.9,533.4,M,60.5,M,,0000*4E
$GPGSA,A,3,19,06,18,07,21,03,30,16,13,05,,,1.6,0.9,1.3*3D
$GPGSV,3,1,12,16,71,179,33,06,66,216,30,03,50,238,38,21,46,080,32*7A
$GPGSV,3,2,12,30,42,147,45,07,31,311,35,19,21,240,28,13,13,277,34*7F
$GPGSV,3,3,12,18,11,108,14,05,09,003,25,08,03,336,31,26,01,026,*79
$GPRMC,144810.000,A,6430.8053,N,02053.4937,W,15.41,26.95,290812,,,A*7F
$GPGGA,144811.000,6430.8088,N,02053.4885,W,1,09,1.1,533.2,M,60.5,M,,0000*46
$GPGSA,A,3,06,18,07,21,03,30,16,13,05,,,,1.8,1.1,1.4*35
$GPRMC,144811.000,A,6430.8088,N,02053.4885,W,14.94,32.65,290812,,,A*73
$GPGGA,144812.000,6430.8119,N,02053.4826,W,1,09,1.1,532.9,M,60.5,M,,0000*4F
$GPGSA,A,3,06,18,07,21,03,30,16,13,05,,,,1.8,1.1,1.4*35
$GPRMC,144812.000,A,6430.8119,N,02053.4826,W,14.88,38.98,290812,,,A*75
$GPGGA,144813.000,6430.8149,N,02053.4761,W,1,10,0.9,532.7,M,60.5,M,,0000*48
$GPGSA,A,3,19,06,18,07,21,03,30,16,13,05,,,1.6,0.9,1.3*3D
$GPRMC,144813.000,A,6430.8149,N,02053.4761,W,14.90,43.27,290812,,,A*7C
$GPGGA,144814.000,6430.8176,N,02053.4688,W,1,10,0.9,532.5,M,60.5,M,,0000*47
$GPGSA,A,3,19,06,18,07,21,03,30,16,13,05,,,1.6,0.9,1.3*3D
$GPRMC,144814.000,A,6430.8176,N,02053.4688,W,15.07,49.21,290812,,,A*72
$GPGGA,144815.000,6430.8199,N,02053.4606,W,1,10,0.9,532.3,M,60.5,M,,0000*47
$GPGSA,A,3,19,06,18,07,21,03,30,16,13,05,,,1.6,0.9,1.3*3D
$GPGSV,3,1,12,16,71,179,33,06,66,216,32,03,50,238,36,21,46,080,37*73
$GPGSV,3,2,12,30,42,147,46,07,31,311,27,19,21,240,29,13,13,277,33*79
$GPGSV,3,3,12,18,11,108,14,05,09,003,34,08,03,336,26,26,01,026,*7F
$GPRMC,144815.000,A,6430.8199,N,02053.4606,W,15.57,56.69,290812,,,A*73
$GPGGA,144816.000,6430.8219,N,02053.4517,W,1,09,1.1,532.0,M,60.5,M,,0000*4E
$GPGSA,A,3,19,06,18,07,21,03,30,16,13,,,,1.7,1.1,1.3*30
$GPRMC,144816.000,A,6430.8219,N,02053.4517,W,15.77,62.72,290812,,,A*77
$GPGGA,144817.000,6430.8238,N,02053.4424,W,1,09,1.1,531.8,M,60.5,M,,0000*46
$GPGSA,A,3,19,06,18,07,21,03,30,16,13,,,,1.7,1.1,1.3*30
$GPRMC,144817.000,A,6430.8238,N,02053.4424,W,15.88,65.67,290812,,,A*77
$GPGGA,144818.000,6430.8259,N,02053.4332,W,1,09,1.1,531.5,M,60.5,M,,0000*43
$GPGSA,A,3,19,06,18,07,21,03,30,16,13,,,,1.7,1.1,1.3*30
$GPRMC,144818.000,A,6430.8259,N,02053.4332,W,16.28,62.41,290812,,,A*75
$GPGGA,144819.000,6430.8284,N,02053.4243,W,1,09,1.1,531.1,M,60.5,M,,0000*41
$GPGSA,A,3,19,06,18,07,21,03,30,16,13,,,,1.7,1.1,1.3*30
$GPRMC,144819.000,A,6430.8284,N,02053.4243,W,16.68,57.13,290812,,,A*76
$GPGGA,144820.000,6430.8313,N,02053.4160,W,1,09,1.1,530.5,M,60.5,M,,0000*43
$GPGSA,A,3,19,06,18,07,21,03,30,16,13,,,,1.7,1.1,1.3*30
$GPGSV,3,1,12,16,71,179,34,06,66,216,33,03,50,238,35,21,46,080,30*71
$GPGSV,3,2,12,30,42,147,45,07,31,311,33,19,21,240,37,13,13,277,33*70
$GPGSV,3,3,12,18,11,108,23,05,09,003,32,08,03,336,25,26,01,026,*7E
$GPRMC,144820.000,A,6430.8313,N,02053.4160,W,16.81,50.37,290812,,,A*77
$GPGGA,144821.000,6430.8346,N,02053.4084,W,1,09,1.1,530.0,M,60.5,M,,0000*4C
$GPGSA,A,3,19,06,18,07,21,03,30,16,13,,,,1.7,1.1,1.3*30
$GPRMC,144821.000,A,6430.8346,N,02053.4084,W,16.89,43.92,290812,,,A*78
$GPGGA,144822.000,6430.8383,N,02053.4014,W,1,08,1.3,529.7,M,60.5,M,,0000*43
$GPGSA,A,3,06,18,07,21,03,30,16,13,,,,,2.0,1.3,1.4*39
$GPRMC,144822.000,A,6430.8383,N,02053.4014,W,17.23,39.30,290812,,,A*7F
$GPGGA,144823.000,6430.8421,N,02053.3944,W,1,09,1.1,529.4,M,60.5,M,,0000*46
$GPGSA,A,3,19,06,18,07,21,03,30,16,13,,,,1.7,1.1,1.3*30
$GPRMC,144823.000,A,6430.8421,N,02053.3944,W,17.51,37.95,290812,,,A*7E
$GPGGA,144824.000,6430.8460,N,02053.3876,W,1,09,1.1,529.2,M,60.5,M,,0000*42
$GPGSA,A,3,19,06,18,07,21,03,30,16,13,,,,1.7,1.1,1.3*30
$GPRMC,144824.000,A,6430.8460,N,02053.3876,W,17.77,36.83,290812,,,A*7E
$GPGGA,144825.000,6430.8500,N,02053.3809,W,1,09,1.1,529.2,M,60.5,M,,0000*4C
$GPGSA,A,3,19,06,18,07,21,03,30,16,13,,,,1.7,1.1,1.3*30
$GPGSV,3,1,12,16,71,179,34,06,66,216,28,03,50,238,35,21,46,080,36*7D
$GPGSV,3,2,12,30,42,147,46,07,31,311,23,19,21,240,33,13,13,277,35*70
$GPGSV,3,3,12,18,11,108,34,05,09,003,24,08,03,336,30,26,01,026,*7B
$GPRMC,144825.000,A,6430.8500,N,02053.3809,W,17.87,35.32,290812,,,A*76
$GPGGA,144826.000,6430.8541,N,02053.3744,W,1,09,1.1,529.2,M,60.5,M,,0000*4C
$GPGSA,A,3,19,06,18,07,21,03,30,16,13,,,,1.7,1.1,1.3*30
$GPRMC,144826.000,A,6430.8541,N,02053.3744,W,17.71,34.47,290812,,,A*7C
$GPGGA,144827.000,6430.8580,N,02053.3680,W,1,09,1.1,529.2,M,60.5,M,,0000*49
$GPGSA,A,3,19,06,18,07,21,03,30,16,13,,,,1.7,1.1,1.3*30
$GPRMC,144827.000,A,6430.8580,N,02053.3680,W,17.33,34.78,290812,,,A*73
$GPGGA,144828.000,6430.8618,N,02053.3617,W,1,09,1.1,529.3,M,60.5,M,,0000*4B
$GPGSA,A,3,19,06,18,07,21,03,30,16,13,,,,1.7,1.1,1.3*30
$GPRMC,144828.000,A,6430.8618,N,02053.3617,W,16.89,34.90,290812,,,A*76
$GPGGA,144829.000,6430.8656,N,02053.3557,W,1,09,1.1,529.5,M,60.5,M,,0000*41
$GPGSA,A,3,19,06,18,07,21,03,30,16,13,,,,1.7,1.1,1.3*30
$GPRMC,144829.000,A,6430.8656,N,02053.3557,W,16.47,34.42,290812,,,A*77
$GPGGA,144830.000,6430.8693,N,02053.3499,W,1,09,1.1,529.6,M,60.5,M,,0000*40
$GPGSA,A,3,19,06,18,07,21,03,30,16,13,,,,1.7,1.1,1.3*30
$GPGSV,3,1,12,16,71,179,35,06,66,216,24,03,50,238,34,21,46,080,37*70
$GPGSV,3,2,12,30,42,147,48,07,31,311,27,19,21,240,27,13,13,277,35*7F
$GPGSV,3,3,12,18,11,108,30,05,09,003,25,08,03,336,25,26,01,026,22*7A
$GPRMC,144830.000,A,6430.8693,N,02053.3499,W,16.10,33.66,290812,,,A*76
$GPGGA,144831.000,6430.8729,N,02053.3440,W,1,09,1.1,529.8,M,60.5,M,,0000*4B
$GPGSA,A,3,19,06,18,07,21,03,30,16,13,,,,1.7,1.1,1.3*30
$GPRMC,144831.000,A,6430.8729,N,02053.3440,W,15.84,34.98,290812,,,A*7B
$GPGGA,144832.000,6430.8765,N,02053.3380,W,1,09,1.1,530.0,M,60.5,M,,0000*4B
$GPGSA,A,3,19,06,18,07,21,03,30,16,13,,,,1.7,1.1,1.3*30
$GPRMC,144832.000,A,6430.8765,N,02053.3380,W,15.87,36.02,290812,,,A*79
$GPGGA,144833.000,6430.8801,N,02053.3320,W,1,09,1.1,530.2,M,60.5,M,,0000*4F
$GPGSA,A,3,19,06,18,07,21,03,30,16,13,,,,1.7,1.1,1.3*30
$GPRMC,144833.000,A,6430.8801,N,02053.3320,W,15.96,35.55,290812,,,A*7E
$GPGGA,144834.000,6430.8838,N,02053.3261,W,1,09,1.1,530.3,M,60.5,M,,0000*47
$GPGSA,A,3,19,06,18,07,21,03,30,16,13,,,,1.7,1.1,1.3*30
$GPRMC,144834.000,A,6430.8838,N,02053.3261,W,16.32,34.05,290812,,,A*7E
$GPGGA,144835.000,6430.8876,N,02053.3203,W,1,09,1.1,530.5,M,60.5,M,,0000*4E
$GPGSA,A,3,19,06,18,07,21,03,30,16,13,,,,1.7,1.1,1.3*30
$GPGSV,3,1,12,16,71,179,35,06,66,216,19,03,50,238,34,21,46,080,39*70
$GPGSV,3,2,12,30,42,147,48,07,31,311,27,19,21,240,32,13,13,277,36*78
$GPGSV,3,3,12,18,11,108,23,05,09,003,17,08,03,336,29,26,01,026,30*76
$GPRMC,144835.000,A,6430.8876,N,02053.3203,W,16.36,32.97,290812,,,A*78
$GPGGA,144836.000,6430.8914,N,02053.3144,W,1,09,1.1,530.6,M,60.5,M,,0000*4B
$GPGSA,A,3,19,06,18,07,21,03,30,16,13,,,,1.7,1.1,1.3*30
$GPRMC,144836.000,A,6430.8914,N,02053.3144,W,16.35,34.33,290812,,,A*75
$GPGGA,144837.000,6430.8950,N,02053.3081,W,1,09,1.1,530.7,M,60.5,M,,0000*43
$GPGSA,A,3,19,06,18,07,21,03,30,16,13,,,,1.7,1.1,1.3*30
$GPRMC,144837.000,A,6430.8950,N,02053.3081,W,16.54,36.28,290812,,,A*73
$GPGGA,144838.000,6430.8987,N,02053.3018,W,1,09,1.1,530.8,M,60.5,M,,0000*49
$GPGSA,A,3,19,06,18,07,21,03,30,16,13,,,,1.7,1.1,1.3*30
$GPRMC,144838.000,A,6430.8987,N,02053.3018,W,16.56,36.87,290812,,,A*71
$GPGGA,144839.000,6430.9023,N,02053.2953,W,1,09,1.1,531.0,M,60.5,M,,0000*40
$GPGSA,A,3,19,06,18,07,21,03,30,16,13,,,,1.7,1.1,1.3*30
$GPRMC,144839.000,A,6430.9023,N,02053.2953,W,16.58,37.79,290812,,,A*7F
$GPGGA,144840.000,6430.9058,N,02053.2886,W,1,09,1.1,531.1,M,60.5,M,,0000*4A
$GPGSA,A,3,19,06,18,07,21,03,30,16,13,,,,1.7,1.1,1.3*30
$GPGSV,3,1,12,16,71,179,34,06,66,216,27,03,50,238,34,21,46,080,40*72
$GPGSV,3,2,12,30,42,147,48,07,31,311,37,19,21,240,30,13,13,277,21*7D
$GPGSV,3,3,12,18,11,108,35,05,09,003,29,08,03,336,32,26,01,026,*75
$GPRMC,144840.000,A,6430.9058,N,02053.2886,W,16.51,39.35,290812,,,A*7B
$GPGGA,144841.000,6430.9093,N,02053.2817,W,1,09,1.1,531.3,M,60.5,M,,0000*46
$GPGSA,A,3,19,06,18,07,21,03,30,16,13,,,,1.7,1.1,1.3*30
$GPRMC,144841.000,A,6430.9093,N,02053.2817,W,16.46,40.77,290812,,,A*7B
$GPGGA,144842.000,6430.9126,N,02053.2746,W,1,09,1.1,531.4,M,60.5,M,,0000*46
$GPGSA,A,3,19,06,18,07,21,03,30,16,13,,,,1.7,1.1,1.3*30
$GPRMC,144842.000,A,6430.9126,N,02053.2746,W,16.39,42.22,290812,,,A*76
$GPGGA,144843.000,6430.9159,N,02053.2675,W,1,09,1.1,531.6,M,60.5,M,,0000*4C
$GPGSA,A,3,19,06,18,07,21,03,30,16,13,,,,1.7,1.1,1.3*30
$GPRMC,144843.000,A,6430.9159,N,02053.2675,W,16.36,42.68,290812,,,A*7F
$GPGGA,144844.000,6430.9192,N,02053.2605,W,1,09,1.1,531.8,M,60.5,M,,0000*45
$GPGSA,A,3,19,06,18,07,21,03,30,16,13,,,,1.7,1.1,1.3*30
$GPRMC,144844.000,A,6430.9192,N,02053.2605,W,16.25,42.72,290812,,,A*71
$GPGGA,144845.000,6430.9225,N,02053.2536,W,1,09,1.1,531.9,M,60.5,M,,0000*49
$GPGSA,A,3,19,06,18,07,21,03,30,16,13,,,,1.7,1.1,1.3*30
$GPGSV,3,1,12,16,71,179,34,06,66,216,27,03,50,238,25,21,46,080,40*72
$GPGSV,3,2,12,30,42,147,47,07,31,311,37,19,21,240,32,13,13,277,27*76
$GPGSV,3,3,12,18,11,108,34,05,09,003,25,08,03,336,27,26,01,026,*7C
$GPRMC,144845.000,A,6430.9225,N,02053.2536,W,16.19,41.86,290812,,,A*7B
$GPGGA,144846.000,6430.9260,N,02053.2471,W,1,09,1.1,532.0,M,60.5,M,,0000*43
$GPGSA,A,3,19,06,18,07,21,03,30,16,13,,,,1.7,1.1,1.3*30
$GPRMC,144846.000,A,6430.9260,N,02053.2471,W,16.11,38.61,290812,,,A*74
$GPGGA,144847.000,6430.9297,N,02053.2414,W,1,08,1.6,532.0,M,60.5,M,,0000*4F
$GPGSA,A,3,19,06,18,21,03,30,16,13,,,,,2.1,1.6,1.3*35
$GPRMC,144847.000,A,6430.9297,N,02053.2414,W,16.13,33.21,290812,,,A*73
$GPGGA,144848.000,6430.9336,N,02053.2363,W,1,09,1.1,532.0,M,60.5,M,,0000*4B
$GPGSA,A,3,19,06,18,07,21,03,30,16,13,,,,1.7,1.1,1.3*30
$GPRMC,144848.000,A,6430.9336,N,02053.2363,W,16.40,28.85,290812,,,A*73
$GPGGA,144849.000,6430.9377,N,02053.2316,W,1,09,1.1,531.9,M,60.5,M,,0000*47
$GPGSA,A,3,19,06,18,07,21,03,30,16,13,,,,1.7,1.1,1.3*30
$GPRMC,144849.000,A,6430.9377,N,02053.2316,W,16.54,26.11,290812,,,A*73
$GPGGA,144850.000,6430.9421,N,02053.2270,W,1,09,1.1,531.9,M,60.5,M,,0000*4A
$GPGSA,A,3,19,06,18,07,21,03,30,16,13,,,,1.7,1.1,1.3*30
$GPGSV,3,1,12,16,71,179,29,06,66,216,26,03,50,238,29,21,46,080,37*73
$GPGSV,3,2,12,30,42,147,45,07,31,311,37,19,21,240,28,13,13,277,37*7E
$GPGSV,3,3,12,18,11,108,30,05,09,003,33,08,03,336,31,26,01,026,21*7B
$GPRMC,144850.000,A,6430.9421,N,02053.2270,W,17.40,23.99,290812,,,A*7F
$GPGGA,144851.000,6430.9468,N,02053.2226,W,1,09,1.1,531.8,M,60.5,M,,0000*44
$GPGSA,A,3,19,06,18,07,21,03,30,16,13,,,,1.7,1.1,1.3*30
$GPRMC,144851.000,A,6430.9468,N,02053.2226,W,18.52,21.96,290812,,,A*71
$GPGGA,144852.000,6430.9518,N,02053.2180,W,1,08,1.2,531.7,M,60.5,M,,0000*43
$GPGSA,A,3,19,06,18,07,21,03,30,13,,,,,1.9,1.2,1.4*3D
$GPRMC,144852.000,A,6430.9518,N,02053.2180,W,19.58,21.61,290812,,,A*78
$GPGGA,144853.000,6430.9570,N,02053.2129,W,1,08,1.2,531.6,M,60.5,M,,0000*4E
$GPGSA,A,3,19,06,18,07,21,03,30,13,,,,,1.9,1.2,1.4*3D
$GPRMC,144853.000,A,6430.9570,N,02053.2129,W,20.56,22.66,290812,,,A*74
$GPGGA,144854.000,6430.9624,N,02053.2076,W,1,08,1.2,531.5,M,60.5,M,,0000*43
$GPGSA,A,3,19,06,18,07,21,03,30,13,,,,,1.9,1.2,1.4*3D
$GPRMC,144854.000,A,6430.9624,N,02053.2076,W,21.21,23.40,290812,,,A*7E
$GPGGA,144855.000,6430.9678,N,02053.2019,W,1,08,1.2,531.3,M,60.5,M,,0000*44
$GPGSA,A,3,19,06,18,07,21,03,30,13,,,,,1.9,1.2,1.4*3D
$GPGSV,3,1,12,16,71,179,,06,66,216,23,03,50,238,29,21,46,080,39*73
$GPGSV,3,2,12,30,42,147,44,07,31,311,36,19,21,240,33,13,13,277,35*76
$GPGSV,3,3,12,18,11,108,34,05,09,003,25,08,03,336,28,26,01,026,*73
$GPRMC,144855.000,A,6430.9678,N,02053.2019,W,21.56,24.41,290812,,,A*79
$GPGGA,144856.000,6430.9732,N,02053.1958,W,1,09,1.1,531.2,M,60.5,M,,0000*44
$GPGSA,A,3,19,06,18,07,21,03,30,16,13,,,,1.7,1.1,1.3*30
$GPRMC,144856.000,A,6430.9732,N,02053.1958,W,21.76,26.29,290812,,,A*74
$GPGGA,144857.000,6430.9786,N,02053.1893,W,1,09,1.1,531.0,M,60.5,M,,0000*4E
$GPGSA,A,3,19,06,18,07,21,03,30,16,13,,,,1.7,1.1,1.3*30
$GPRMC,144857.000,A,6430.9786,N,02053.1893,W,22.04,27.50,290812,,,A*75
$GPGGA,144858.000,6430.9841,N,02053.1829,W,1,09,1.1,530.8,M,60.5,M,,0000*4D
$GPGSA,A,3,19,06,18,07,21,03,30,16,13,,,,1.7,1.1,1.3*30
$GPRMC,144858.000,A,6430.9841,N,02053.1829,W,22.25,26.96,290812,,,A*77
$GPGGA,144859.000,6430.9896,N,02053.1773,W,1,09,1.1,530.6,M,60.5,M,,0000*48
$GPGSA,A,3,19,06,18,07,21,03,30,16,13,,,,1.7,1.1,1.3*30
$GPRMC,144859.000,A,6430.9896,N,02053.1773,W,21.92,23.60,290812,,,A*7F
$GPGGA,144900.000,6430.9953,N,02053.1725,W,1,09,1.1,530.5,M,60.5,M,,0000*4D
$GPGSA,A,3,19,06,18,07,21,03,30,16,13,,,,1.7,1.1,1.3*30
$GPGSV,3,1,12,16,71,179,30,06,66,216,31,03,50,238,37,21,46,080,38*7D
$GPGSV,3,2,12,30,42,147,43,07,31,311,34,19,21,240,28,13,13,277,35*79
$GPGSV,3,3,12,18,11,108,34,05,09,003,18,08,03,336,29,26,01,026,*7C
$GPRMC,144900.000,A,6430.9953,N,02053.1725,W,21.94,19.88,290812,,,A*70
$GPGGA,144901.000,6431.0011,N,02053.1681,W,1,09,1.1,530.6,M,60.5,M,,0000*47
$GPGSA,A,3,19,06,18,07,21,03,30,16,13,,,,1.7,1.1,1.3*30
$GPRMC,144901.000,A,6431.0011,N,02053.1681,W,22.08,18.32,290812,,,A*7F
$GPGGA,144902.000,6431.0070,N,02053.1639,W,1,09,1.2,530.6,M,60.5,M,,0000*43
$GPGSA,A,3,19,06,18,07,21,03,30,16,13,,,,1.7,1.2,1.3*33
$GPRMC,144902.000,A,6431.0070,N,02053.1639,W,22.13,17.17,290812,,,A*7A
$GPGGA,144903.000,6431.0128,N,02053.1600,W,1,09,1.2,530.8,M,60.5,M,,0000*4A
$GPGSA,A,3,19,06,18,07,21,03,30,16,13,,,,1.7,1.2,1.3*33
$GPRMC,144903.000,A,6431.0128,N,02053.1600,W,21.99,16.03,290812,,,A*78
$GPGGA,144904.000,6431.0186,N,02053.1563,W,1,09,1.2,530.9,M,60.5,M,,0000*4E
$GPGSA,A,3,19,06,18,07,21,03,30,16,13,,,,1.7,1.2,1.3*33
$GPRMC,144904.000,A,6431.0186,N,02053.1563,W,21.76,15.43,290812,,,A*7B
$GPGGA,144905.000,6431.0244,N,02053.1526,W,1,09,1.2,531.1,M,60.5,M,,0000*4A
$GPGSA,A,3,19,06,18,07,21,03,30,16,13,,,,1.7,1.2,1.3*33
$GPGSV,3,1,12,16,71,179,27,06,66,216,25,03,50,238,32,21,46,080,39*7A
$GPGSV,3,2,12,30,42,147,43,07,31,311,34,19,21,240,38,13,13,277,37*7A
$GPGSV,3,3,12,18,11,108,33,05,09,003,29,08,03,336,26,26,01,026,23*77
$GPRMC,144905.000,A,6431.0244,N,02053.1526,W,21.53,15.62,290812,,,A*72
$GPGGA,144906.000,6431.0300,N,02053.1484,W,1,09,1.2,531.3,M,60.5,M,,0000*43
$GPGSA,A,3,19,06,18,07,21,03,30,16,13,,,,1.7,1.2,1.3*33
$GPRMC,144906.000,A,6431.0300,N,02053.1484,W,21.48,17.99,290812,,,A*75
$GPGGA,144907.000,6431.0356,N,02053.1434,W,1,09,1.2,531.5,M,60.5,M,,0000*4C
$GPGSA,A,3,19,06,18,07,21,03,30,16,13,,,,1.7,1.2,1.3*33
$GPRMC,144907.000,A,6431.0356,N,02053.1434,W,21.58,21.41,290812,,,A*7D
$GPGGA,144908.000,6431.0411,N,02053.1376,W,1,09,1.2,531.7,M,60.5,M,,0000*44
$GPGSA,A,3,19,06,18,07,21,03,30,16,13,,,,1.7,1.2,1.3*33
$GPRMC,144908.000,A,6431.0411,N,02053.1376,W,21.86,24.78,290812,,,A*7B
$GPGGA,144909.000,6431.0467,N,02053.1315,W,1,09,1.2,531.9,M,60.5,M,,0000*4F
$GPGSA,A,3,19,06,18,07,21,03,30,16,13,,,,1.7,1.2,1.3*33
$GPRMC,144909.000,A,6431.0467,N,02053.1315,W,22.21,25.73,290812,,,A*7A
$GPGGA,144910.000,6431.0524,N,02053.1257,W,1,09,1.2,532.0,M,60.5,M,,0000*4C
$GPGSA,A,3,19,06,18,07,21,03,30,16,13,,,,1.7,1.2,1.3*33
$GPGSV,3,1,12,16,71,179,31,06,66,216,25,03,50,238,37,21,46,080,38*79
$GPGSV,3,2,12,30,42,147,43,07,31,311,28,19,21,240,28,13,13,277,30*71
$GPGSV,3,3,12,18,11,108,24,05,09,003,24,08,03,336,29,26,01,026,23*73
$GPRMC,144910.000,A,6431.0524,N,02053.1257,W,22.38,24.01,290812,,,A*7F
$GPGGA,144911.000,6431.0581,N,02053.1204,W,1,09,1.2,532.2,M,60.5,M,,0000*46
$GPGSA,A,3,19,06,18,07,21,03,30,16,13,,,,1.7,1.2,1.3*33
$GPRMC,144911.000,A,6431.0581,N,02053.1204,W,22.35,22.08,290812,,,A*75
$GPGGA,144912.000,6431.0639,N,02053.1154,W,1,09,1.2,532.4,M,60.5,M,,0000*45
$GPGSA,A,3,19,06,18,07,21,03,30,16,13,,,,1.7,1.2,1.3*33
$GPRMC,144912.000,A,6431.0639,N,02053.1154,W,22.31,20.69,290812,,,A*71
$GPGGA,144913.000,6431.0696,N,02053.1107,W,1,09,1.2,532.6,M,60.5,M,,0000*45
$GPGSA,A,3,19,06,18,07,21,03,30,16,13,,,,1.7,1.2,1.3*33
$GPRMC,144913.000,A,6431.0696,N,02053.1107,W,22.14,19.61,290812,,,A*76
$GPGGA,144914.000,6431.0754,N,02053.1063,W,1,09,1.2,532.9,M,60.5,M,,0000*41
$GPGSA,A,3,19,06,18,07,21,03,30,16,13,,,,1.7,1.2,1.3*33
$GPRMC,144914.000,A,6431.0754,N,02053.1063,W,21.89,17.97,290812,,,A*7D
$GPGGA,144915.000,6431.0811,N,02053.1025,W,1,09,1.2,533.1,M,60.5,M,,0000*45
$GPGSA,A,3,19,06,18,07,21,03,30,16,13,,,,1.7,1.2,1.3*33
$GPGSV,3,1,12,16,71,179,23,06,66,216,28,03,50,238,36,21,46,080,38*76
$GPGSV,3,2,12,30,42,147,42,07,31,311,32,19,21,240,35,13,13,277,32*75
$GPGSV,3,3,12,18,11,108,35,05,09,003,23,08,03,336,25,26,01,026,23*78
$GPRMC,144915.000,A,6431.0811,N,02053.1025,W,21.53,16.19,290812,,,A*70
$GPGGA,144916.000,6431.0868,N,02053.0990,W,1,09,1.2,533.3,M,60.5,M,,0000*4C
$GPGSA,A,3,19,06,18,07,21,03,30,16,13,,,,1.7,1.2,1.3*33
$GPRMC,144916.000,A,6431.0868,N,02053.0990,W,21.21,14.97,290812,,,A*7A
$GPGGA,144917.000,6431.0924,N,02053.0955,W,1,09,1.2,533.6,M,60.5,M,,0000*48
$GPGSA,A,3,19,06,18,07,21,03,30,16,13,,,,1.7,1.2,1.3*33
$GPRMC,144917.000,A,6431.0924,N,02053.0955,W,21.04,15.32,290812,,,A*72
$GPGGA,144918.000,6431.0980,N,02053.0918,W,1,09,1.2,533.7,M,60.5,M,,0000*41
$GPGSA,A,3,19,06,18,07,21,03,30,16,13,,,,1.7,1.2,1.3*33
$GPRMC,144918.000,A,6431.0980,N,02053.0918,W,21.17,15.65,290812,,,A*7A
$GPGGA,144919.000,6431.1037,N,02053.0883,W,1,09,1.2,533.9,M,60.5,M,,0000*49
$GPGSA,A,3,19,06,18,07,21,03,30,16,13,,,,1.7,1.2,1.3*33
$GPRMC,144919.000,A,6431.1037,N,02053.0883,W,21.21,15.18,290812,,,A*73
$GPGGA,144920.000,6431.1093,N,02053.0848,W,1,08,1.2,534.0,M,60.5,M,,0000*45
$GPGSA,A,3,19,06,18,07,21,03,30,16,,,,,1.9,1.2,1.5*39
$GPGSV,3,1,12,16,71,179,23,06,66,216,32,03,50,238,32,21,46,080,38*79
$GPGSV,3,2,12,30,42,147,41,07,31,311,34,19,21,240,37,13,13,277,*73
$GPGSV,3,3,12,18,11,108,35,05,09,003,26,08,03,336,26,26,01,026,23*7E
$GPRMC,144920.000,A,6431.1093,N,02053.0848,W,20.99,15.04,290812,,,A*7F
$GPGGA,144921.000,6431.1149,N,02053.0815,W,1,09,1.2,534.1,M,60.5,M,,0000*4A
$GPGSA,A,3,19,06,18,07,21,03,30,16,13,,,,1.7,1.2,1.3*33
$GPRMC,144921.000,A,6431.1149,N,02053.0815,W,20.77,14.56,290812,,,A*76
$GPGGA,144922.000,6431.1204,N,02053.0783,W,1,09,1.2,534.1,M,60.5,M,,0000*43
$GPGSA,A,3,19,06,18,07,21,03,30,16,13,,,,1.7,1.2,1.3*33
$GPRMC,144922.000,A,6431.1204,N,02053.0783,W,20.33,14.35,290812,,,A*7A
$GPGGA,144923.000,6431.1257,N,02053.0753,W,1,08,1.2,534.2,M,60.5,M,,0000*4B
$GPGSA,A,3,19,06,18,07,21,03,30,16,,,,,1.9,1.2,1.5*39
$GPRMC,144923.000,A,6431.1257,N,02053.0753,W,19.68,13.96,290812,,,A*7A
$GPGGA,144924.000,6431.1309,N,02053.0727,W,1,09,1.2,534.2,M,60.5,M,,0000*44
$GPGSA,A,3,19,06,18,07,21,03,30,16,13,,,,1.7,1.2,1.3*33
$GPRMC,144924.000,A,6431.1309,N,02053.0727,W,19.25,11.84,290812,,,A*7C
$GPGGA,144925.000,6431.1360,N,02053.0703,W,1,09,1.2,534.2,M,60.5,M,,0000*4C
$GPGSA,A,3,19,06,18,07,21,03,30,16,13,,,,1.7,1.2,1.3*33
$GPGSV,3,1,12,16,71,179,22,06,66,216,33,03,50,238,33,21,46,080,38*78
$GPGSV,3,2,12,30,42,147,41,07,31,311,35,19,21,240,32,13,13,277,26*73
$GPGSV,3,3,12,18,11,108,35,05,09,003,25,08,03,336,,26,01,026,12*7B
$GPRMC,144925.000,A,6431.1360,N,02053.0703,W,18.65,11.80,290812,,,A*75
$GPGGA,144926.000,6431.1409,N,02053.0677,W,1,09,1.2,534.3,M,60.5,M,,0000*44
$GPGSA,A,3,19,06,18,07,21,03,30,16,13,,,,1.7,1.2,1.3*33
$GPRMC,144926.000,A,6431.1409,N,02053.0677,W,18.16,13.19,290812,,,A*7A
$GPGGA,144927.000,6431.1457,N,02053.0650,W,1,09,1.2,534.4,M,60.5,M,,0000*4C
$GPGSA,A,3,19,06,18,07,21,03,30,16,13,,,,1.7,1.2,1.3*33
$GPRMC,144927.000,A,6431.1457,N,02053.0650,W,17.80,13.99,290812,,,A*7D
$GPGGA,144928.000,6431.1505,N,02053.0619,W,1,09,1.2,534.5,M,60.5,M,,0000*49
$GPGSA,A,3,19,06,18,07,21,03,30,16,13,,,,1.7,1.2,1.3*33
$GPRMC,144928.000,A,6431.1505,N,02053.0619,W,17.93,15.59,290812,,,A*71
$GPGGA,144929.000,6431.1553,N,02053.0583,W,1,09,1.2,534.7,M,60.5,M,,0000*49
$GPGSA,A,3,19,06,18,07,21,03,30,16,13,,,,1.7,1.2,1.3*33
$GPRMC,144929.000,A,6431.1553,N,02053.0583,W,18.20,18.16,290812,,,A*72
$GPGGA,144930.000,6431.1601,N,02053.0542,W,1,09,1.2,534.8,M,60.5,M,,0000*47
$GPGSA,A,3,19,06,18,07,21,03,30,16,13,,,,1.7,1.2,1.3*33
$GPGSV,3,1,12,16,71,179,32,06,66,216,33,03,50,238,31,21,46,080,38*7B
$GPGSV,3,2,12,30,42,147,43,07,31,311,31,19,21,240,26,13,13,277,31*76
$GPGSV,3,3,12,18,11,108,32,05,09,003,21,08,03,336,29,26,01,026,*70
$GPRMC,144930.000,A,6431.1601,N,02053.0542,W,18.44,20.78,290812,,,A*72
$GPGGA,144931.000,6431.1648,N,02053.0496,W,1,09,1.2,535.0,M,60.5,M,,0000*4A
$GPGSA,A,3,19,06,18,07,21,03,30,16,13,,,,1.7,1.2,1.3*33
$GPRMC,144931.000,A,6431.1648,N,02053.0496,W,18.74,22.86,290812,,,A*76
$GPGGA,144932.000,6431.1696,N,02053.0447,W,1,09,1.2,535.1,M,60.5,M,,0000*47
$GPGSA,A,3,19,06,18,07,21,03,30,16,13,,,,1.7,1.2,1.3*33
$GPRMC,144932.000,A,6431.1696,N,02053.0447,W,18.87,24.64,290812,,,A*7C
$GPGGA,144933.000,6431.1743,N,02053.0393,W,1,09,1.2,535.3,M,60.5,M,,0000*43
$GPGSA,A,3,19,06,18,07,21,03,30,16,13,,,,1.7,1.2,1.3*33
$GPRMC,144933.000,A,6431.1743,N,02053.0393,W,18.90,26.75,290812,,,A*7E
$GPGGA,144934.000,6431.1789,N,02053.0334,W,1,09,1.2,535.5,M,60.5,M,,0000*49
$GPGSA,A,3,19,06,18,07,21,03,30,16,13,,,,1.7,1.2,1.3*33
$GPRMC,144934.000,A,6431.1789,N,02053.0334,W,19.12,29.35,290812,,,A*72
$GPGGA,144935.000,6431.1835,N,02053.0273,W,1,09,1.2,535.7,M,60.5,M,,0000*40
$GPGSA,A,3,19,06,18,07,21,03,30,16,13,,,,1.7,1.2,1.3*33
$GPGSV,3,1,12,16,71,179,31,06,66,216,24,03,50,238,36,21,46,080,39*78
$GPGSV,3,2,12,30,42,147,45,07,31,311,35,19,21,240,26,13,13,277,33*76
$GPGSV,3,3,12,18,11,108,33,05,09,003,22,08,03,336,27,26,01,026,32*7D
$GPRMC,144935.000,A,6431.1835,N,02053.0273,W,19.38,30.46,290812,,,A*7D
$GPGGA,144936.000,6431.1881,N,02053.0208,W,1,09,1.2,535.8,M,60.5,M,,0000*4F
$GPGSA,A,3,19,06,18,07,21,03,30,16,13,,,,1.7,1.2,1.3*33
$GPRMC,144936.000,A,6431.1881,N,02053.0208,W,19.47,31.40,290812,,,A*72
$GPGGA,144937.000,6431.1927,N,02053.0143,W,1,09,1.2,535.8,M,60.5,M,,0000*4F
$GPGSA,A,3,19,06,18,07,21,03,30,16,13,,,,1.7,1.2,1.3*33
$GPRMC,144937.000,A,6431.1927,N,02053.0143,W,19.50,32.22,290812,,,A*73
$GPGGA,144938.000,6431.1972,N,02053.0076,W,1,09,1.2,535.8,M,60.5,M,,0000*47
$GPGSA,A,3,19,06,18,07,21,03,30,16,13,,,,1.7,1.2,1.3*33
$GPRMC,144938.000,A,6431.1972,N,02053.0076,W,19.45,32.95,290812,,,A*73
$GPGGA,144939.000,6431.2017,N,02053.0008,W,1,09,1.2,535.7,M,60.5,M,,0000*49
$GPGSA,A,3,19,06,18,07,21,03,30,16,13,,,,1.7,1.2,1.3*33
$GPRMC,144939.000,A,6431.2017,N,02053.0008,W,19.38,33.15,290812,,,A*71
$GPGGA,144940.000,6431.2062,N,02052.9941,W,1,09,1.2,535.6,M,60.5,M,,0000*48
$GPGSA,A,3,19,06,18,07,21,03,30,16,13,,,,1.7,1.2,1.3*33
$GPGSV,3,1,12,16,71,179,30,06,66,216,25,03,50,238,36,21,46,080,39*78
$GPGSV,3,2,12,30,42,147,46,07,31,311,26,19,21,240,24,13,13,277,34*72
$GPGSV,3,3,12,18,11,108,19,05,09,003,22,08,03,336,27,26,01,026,32*75
$GPRMC,144940.000,A,6431.2062,N,02052.9941,W,19.31,33.41,290812,,,A*79
$GPGGA,144941.000,6431.2107,N,02052.9873,W,1,09,1.2,535.4,M,60.5,M,,0000*49
$GPGSA,A,3,19,06,18,07,21,03,30,16,13,,,,1.7,1.2,1.3*33
$GPRMC,144941.000,A,6431.2107,N,02052.9873,W,19.32,33.46,290812,,,A*7E
$GPGGA,144942.000,6431.2152,N,02052.9805,W,1,09,1.2,535.1,M,60.5,M,,0000*4E
$GPGSA,A,3,19,06,18,07,21,03,30,16,13,,,,1.7,1.2,1.3*33
$GPRMC,144942.000,A,6431.2152,N,02052.9805,W,19.42,33.45,290812,,,A*78
$GPGGA,144943.000,6431.2197,N,02052.9736,W,1,09,1.2,534.9,M,60.5,M,,0000*40
$GPGSA,A,3,19,06,18,07,21,03,30,16,13,,,,1.7,1.2,1.3*33
$GPRMC,144943.000,A,6431.2197,N,02052.9736,W,19.49,33.77,290812,,,A*75
$GPGGA,144944.000,6431.2241,N,02052.9666,W,1,09,1.2,534.7,M,60.5,M,,0000*45
$GPGSA,A,3,19,06,18,07,21,03,30,16,13,,,,1.7,1.2,1.3*33
$GPRMC,144944.000,A,6431.2241,N,02052.9666,W,19.31,34.45,290812,,,A*77
$GPGGA,144945.000,6431.2284,N,02052.9595,W,1,09,1.2,534.6,M,60.5,M,,0000*43
$GPGSA,A,3,19,06,18,07,21,03,30,16,13,,,,1.7,1.2,1.3*33
$GPGSV,3,1,12,16,71,179,30,06,66,216,26,03,50,238,35,21,46,080,40*76
$GPGSV,3,2,12,30,42,147,47,07,31,311,22,19,21,240,34,13,13,277,33*71
$GPGSV,3,3,12,18,11,108,31,05,09,003,22,08,03,336,25,26,01,026,23*7D
$GPRMC,144945.000,A,6431.2284,N,02052.9595,W,19.26,35.80,290812,,,A*7E
$GPGGA,144946.000,6431.2329,N,02052.9526,W,1,09,1.2,534.6,M,60.5,M,,0000*4E
$GPGSA,A,3,19,06,18,07,21,03,30,16,13,,,,1.7,1.2,1.3*33
$GPRMC,144946.000,A,6431.2329,N,02052.9526,W,19.28,33.88,290812,,,A*73
$GPGGA,144947.000,6431.2375,N,02052.9462,W,1,09,1.2,534.5,M,60.5,M,,0000*44
$GPGSA,A,3,19,06,18,07,21,03,30,16,13,,,,1.7,1.2,1.3*33
$GPRMC,144947.000,A,6431.2375,N,02052.9462,W,19.43,31.01,290812,,,A*74
$GPGGA,144948.000,6431.2423,N,02052.9403,W,1,09,1.2,534.5,M,60.5,M,,0000*48
$GPGSA,A,3,19,06,18,07,21,03,30,16,13,,,,1.7,1.2,1.3*33
$GPRMC,144948.000,A,6431.2423,N,02052.9403,W,19.77,27.47,290812,,,A*7A
$GPGGA,144949.000,6431.2473,N,02052.9349,W,1,08,1.2,534.3,M,60.5,M,,0000*42
$GPGSA,A,3,19,06,18,07,21,30,16,13,,,,,1.8,1.2,1.3*3F
$GPRMC,144949.000,A,6431.2473,N,02052.9349,W,19.85,24.72,290812,,,A*7F
$GPGGA,144950.000,6431.2524,N,02052.9303,W,1,09,1.2,534.1,M,60.5,M,,0000*44
$GPGSA,A,3,19,06,18,07,21,03,30,16,13,,,,1.7,1.2,1.3*33
$GPGSV,3,1,12,16,71,179,24,06,66,216,27,03,50,238,39,21,46,080,36*7F
$GPGSV,3,2,12,30,42,147,45,07,31,311,30,19,21,240,31,13,13,277,30*76
$GPGSV,3,3,12,18,11,108,29,05,09,003,32,08,03,336,32,26,01,026,16*75
$GPRMC,144950.000,A,6431.2524,N,02052.9303,W,19.71,21.35,290812,,,A*77
$GPGGA,144951.000,6431.2577,N,02052.9262,W,1,09,1.2,534.1,M,60.5,M,,0000*45
$GPGSA,A,3,19,06,18,07,21,03,30,16,13,,,,1.7,1.2,1.3*33
$GPRMC,144951.000,A,6431.2577,N,02052.9262,W,19.82,18.19,290812,,,A*7E
$GPGGA,144952.000,6431.2629,N,02052.9228,W,1,09,1.2,534.1,M,60.5,M,,0000*40
$GPGSA,A,3,19,06,18,07,21,03,30,16,13,,,,1.7,1.2,1.3*33
$GPRMC,144952.000,A,6431.2629,N,02052.9228,W,19.59,15.82,290812,,,A*72
$GPGGA,144953.000,6431.2679,N,02052.9194,W,1,09,1.2,534.1,M,60.5,M,,0000*40
$GPGSA,A,3,19,06,18,07,21,03,30,16,13,,,,1.7,1.2,1.3*33
$GPRMC,144953.000,A,6431.2679,N,02052.9194,W,18.76,15.85,290812,,,A*79
$GPGGA,144954.000,6431.2728,N,02052.9158,W,1,09,1.2,534.2,M,60.5,M,,0000*41
$GPGSA,A,3,19,06,18,07,21,03,30,16,13,,,,1.7,1.2,1.3*33
$GPRMC,144954.000,A,6431.2728,N,02052.9158,W,18.52,17.56,290812,,,A*71
$GPGGA,144955.000,6431.2775,N,02052.9110,W,1,09,1.2,534.4,M,60.5,M,,0000*42
$GPGSA,A,3,19,06,18,07,21,03,30,16,13,,,,1.7,1.2,1.3*33
$GPGSV,3,1,12,16,71,179,34,06,66,216,26,03,50,238,32,21,46,080,38*7A
$GPGSV,3,2,12,30,42,147,42,07,31,311,31,19,21,240,32,13,13,277,36*75
$GPGSV,3,3,12,18,11,108,33,05,09,003,25,08,03,336,29,26,01,026,*75
$GPRMC,144955.000,A,6431.2775,N,02052.9110,W,18.54,23.87,290812,,,A*79
$GPGGA,144956.000,6431.2821,N,02052.9051,W,1,09,1.2,534.5,M,60.5,M,,0000*4A
$GPGSA,A,3,19,06,18,07,21,03,30,16,13,,,,1.7,1.2,1.3*33
$GPRMC,144956.000,A,6431.2821,N,02052.9051,W,18.71,29.66,290812,,,A*72
$GPGGA,144957.000,6431.2865,N,02052.8985,W,1,09,1.2,534.7,M,60.5,M,,0000*48
$GPGSA,A,3,19,06,18,07,21,03,30,16,13,,,,1.7,1.2,1.3*33
$GPRMC,144957.000,A,6431.2865,N,02052.8985,W,18.93,33.55,290812,,,A*75
$GPGGA,144958.000,6431.2907,N,02052.8913,W,1,09,1.2,534.9,M,60.5,M,,0000*43
$GPGSA,A,3,19,06,18,07,21,03,30,16,13,,,,1.7,1.2,1.3*33
$GPRMC,144958.000,A,6431.2907,N,02052.8913,W,19.06,36.55,290812,,,A*78
$GPGGA,144959.000,6431.2948,N,02052.8836,W,1,09,1.2,535.2,M,60.5,M,,0000*45
$GPGSA,A,3,19,06,18,07,21,03,30,16,13,,,,1.7,1.2,1.3*33
$GPRMC,144959.000,A,6431.2948,N,02052.8836,W,19.06,39.01,290812,,,A*7A
$GPGGA,145000.000,6431.2988,N,02052.8757,W,1,09,1.2,535.4,M,60.5,M,,0000*43
$GPGSA,A,3,19,06,18,07,21,03,30,16,13,,,,1.7,1.2,1.3*33
$GPGSV,3,1,12,16,71,179,34,06,66,216,32,03,50,238,35,21,46,080,40*77
$GPGSV,3,2,12,30,42,147,47,07,31,311,36,19,21,240,34,13,13,277,20*76
$GPGSV,3,3,12,18,11,108,32,05,09,003,30,08,03,336,29,26,01,026,24*76
$GPRMC,145000.000,A,6431.2988,N,02052.8757,W,19.03,40.99,290812,,,A*70
$GPGGA,145001.000,6431.3026,N,02052.8672,W,1,09,1.2,535.8,M,60.5,M,,0000*44
$GPGSA,A,3,19,06,18,07,21,03,30,16,13,,,,1.7,1.2,1.3*33
$GPRMC,145001.000,A,6431.3026,N,02052.8672,W,19.07,44.40,290812,,,A*7F
$GPGGA,145002.000,6431.3062,N,02052.8583,W,1,09,1.2,536.1,M,60.5,M,,0000*40
$GPGSA,A,3,19,06,18,07,21,03,30,16,13,,,,1.7,1.2,1.3*33
$GPRMC,145002.000,A,6431.3062,N,02052.8583,W,18.99,47.19,290812,,,A*78
$GPGGA,145003.000,6431.3097,N,02052.8493,W,1,09,1.2,536.4,M,60.5,M,,0000*4E
$GPGSA,A,3,19,06,18,07,21,03,30,16,13,,,,1.7,1.2,1.3*33
$GPRMC,145003.000,A,6431.3097,N,02052.8493,W,19.07,48.40,290812,,,A*76
$GPGGA,145004.000,6431.3134,N,02052.8407,W,1,09,1.2,536.7,M,60.5,M,,0000*4F
$GPGSA,A,3,19,06,18,07,21,03,30,16,13,,,,1.7,1.2,1.3*33
$GPRMC,145004.000,A,6431.3134,N,02052.8407,W,18.74,45.44,290812,,,A*78
$GPGGA,145005.000,6431.3171,N,02052.8333,W,1,09,1.2,537.0,M,60.5,M,,0000*49
$GPGSA,A,3,19,06,18,07,21,03,30,16,13,,,,1.7,1.2,1.3*33
$GPGSV,3,1,12,16,71,179,35,06,66,216,31,03,50,238,32,21,46,080,34*71
$GPGSV,3,2,12,30,42,147,46,07,31,311,33,19,21,240,27,13,13,277,30*71
$GPGSV,3,3,12,18,11,108,37,05,09,003,27,08,03,336,27,26,01,026,21*7E
$GPRMC,145005.000,A,6431.3171,N,02052.8333,W,17.97,40.52,290812,,,A*78
$GPGGA,145006.000,6431.3212,N,02052.8270,W,1,08,1.2,537.2,M,60.5,M,,0000*49
$GPGSA,A,3,19,06,18,07,21,03,30,13,,,,,1.9,1.2,1.5*3C
$GPRMC,145006.000,A,6431.3212,N,02052.8270,W,17.63,33.20,290812,,,A*71
$GPGGA,145007.000,6431.3255,N,02052.8221,W,1,08,1.3,537.4,M,60.5,M,,0000*48
$GPGSA,A,3,06,18,07,21,03,30,16,13,,,,,2.0,1.3,1.4*39
$GPRMC,145007.000,A,6431.3255,N,02052.8221,W,17.47,25.62,290812,,,A*70
$GPGGA,145008.000,6431.3299,N,02052.8180,W,1,08,1.3,537.5,M,60.5,M,,0000*4E
$GPGSA,A,3,06,18,07,21,03,30,16,13,,,,,2.0,1.3,1.4*39
$GPRMC,145008.000,A,6431.3299,N,02052.8180,W,17.10,21.79,290812,,,A*7B
$GPGGA,145009.000,6431.3342,N,02052.8138,W,1,09,1.2,537.5,M,60.5,M,,0000*4B
$GPGSA,A,3,19,06,18,07,21,03,30,16,13,,,,1.7,1.2,1.3*33
$GPRMC,145009.000,A,6431.3342,N,02052.8138,W,16.77,22.32,290812,,,A*72
$GPGGA,145010.000,6431.3382,N,02052.8092,W,1,08,1.3,537.5,M,60.5,M,,0000*4E
$GPGSA,A,3,06,18,07,21,03,30,16,13,,,,,2.0,1.3,1.4*39
$GPGSV,3,1,12,16,71,179,30,06,66,216,26,03,50,238,33,21,46,080,39*7E
$GPGSV,3,2,12,30,42,147,45,07,31,311,34,19,21,240,,13,13,277,33*73
$GPGSV,3,3,12,18,11,108,33,05,09,003,17,08,03,336,29,26,01,026,*74
$GPRMC,145010.000,A,6431.3382,N,02052.8092,W,16.14,26.29,290812,,,A*7C
$GPGGA,145011.000,6431.3420,N,02052.8036,W,1,09,1.2,537.4,M,60.5,M,,0000*4F
$GPGSA,A,3,19,06,18,07,21,03,30,16,13,,,,1.7,1.2,1.3*33
$GPRMC,145011.000,A,6431.3420,N,02052.8036,W,16.30,32.76,290812,,,A*75
$GPGGA,145012.000,6431.3455,N,02052.7973,W,1,09,1.2,537.3,M,60.5,M,,0000*4E
$GPGSA,A,3,19,06,18,07,21,03,30,16,13,,,,1.7,1.2,1.3*33
$GPRMC,145012.000,A,6431.3455,N,02052.7973,W,16.16,37.63,290812,,,A*76
$GPGGA,145013.000,6431.3488,N,02052.7904,W,1,09,1.2,537.1,M,60.5,M,,0000*4D
$GPGSA,A,3,19,06,18,07,21,03,30,16,13,,,,1.7,1.2,1.3*33
$GPRMC,145013.000,A,6431.3488,N,02052.7904,W,16.10,41.85,290812,,,A*78
$GPGGA,145014.000,6431.3520,N,02052.7832,W,1,09,1.2,536.9,M,60.5,M,,0000*44
$GPGSA,A,3,19,06,18,07,21,03,30,16,13,,,,1.7,1.2,1.3*33
$GPRMC,145014.000,A,6431.3520,N,02052.7832,W,15.96,44.52,290812,,,A*7A
$GPGGA,145015.000,6431.3551,N,02052.7759,W,1,09,1.2,536.7,M,60.5,M,,0000*4F
$GPGSA,A,3,19,06,18,07,21,03,30,16,13,,,,1.7,1.2,1.3*33
$GPGSV,3,1,12,16,71,179,38,06,66,216,30,03,50,238,33,21,46,080,39*71
$GPGSV,3,2,12,30,42,147,46,07,31,311,35,19,21,240,33,13,13,277,36*74
$GPGSV,3,3,12,18,11,108,29,05,09,003,33,08,03,336,28,26,01,026,24*7E
$GPRMC,145015.000,A,6431.3551,N,02052.7759,W,15.96,45.48,290812,,,A*75
$GPGGA,145016.000,6431.3582,N,02052.7687,W,1,09,1.2,536.4,M,60.5,M,,0000*43
$GPGSA,A,3,19,06,18,07,21,03,30,16,13,,,,1.7,1.2,1.3*33
$GPRMC,145016.000,A,6431.3582,N,02052.7687,W,16.03,44.99,290812,,,A*78
$GPGGA,145017.000,6431.3615,N,02052.7615,W,1,09,1.2,536.1,M,60.5,M,,0000*41
$GPGSA,A,3,19,06,18,07,21,03,30,16,13,,,,1.7,1.2,1.3*33
$GPRMC,145017.000,A,6431.3615,N,02052.7615,W,16.19,43.23,290812,,,A*72
$GPGGA,145018.000,6431.3649,N,02052.7545,W,1,08,1.2,535.7,M,60.5,M,,0000*45
$GPGSA,A,3,19,18,07,21,03,30,16,13,,,,,1.8,1.2,1.4*3D
$GPRMC,145018.000,A,6431.3649,N,02052.7545,W,16.56,41.63,290812,,,A*7F
$GPGGA,145019.000,6431.3684,N,02052.7472,W,1,09,1.2,535.3,M,60.5,M,,0000*45
$GPGSA,A,3,19,06,18,07,21,03,30,16,13,,,,1.7,1.2,1.3*33
$GPRMC,145019.000,A,6431.3684,N,02052.7472,W,16.82,42.09,290812,,,A*7C
$GPGGA,145020.000,6431.3719,N,02052.7399,W,1,09,1.2,534.9,M,60.5,M,,0000*43
$GPGSA,A,3,19,06,18,07,21,03,30,16,13,,,,1.7,1.2,1.3*33
$GPGSV,3,1,12,16,71,179,38,06,66,216,24,03,50,238,31,21,46,080,40*78
$GPGSV,3,2,12,30,42,147,47,07,31,311,35,19,21,240,34,13,13,277,32*76
$GPGSV,3,3,12,18,11,108,32,05,09,003,29,08,03,336,22,26,01,026,22*73
$GPRMC,145020.000,A,6431.3719,N,02052.7399,W,17.00,42.06,290812,,,A*75
$GPGGA,145021.000,6431.3754,N,02052.7328,W,1,09,1.2,534.5,M,60.5,M,,0000*4D
$GPGSA,A,3,19,06,18,07,21,03,30,16,13,,,,1.7,1.2,1.3*33
$GPRMC,145021.000,A,6431.3754,N,02052.7328,W,17.01,40.48,290812,,,A*7E
$GPGGA,145022.000,6431.3791,N,02052.7259,W,1,09,1.2,534.2,M,60.5,M,,0000*47
$GPGSA,A,3,19,06,18,07,21,03,30,16,13,,,,1.7,1.2,1.3*33
$GPRMC,145022.000,A,6431.3791,N,02052.7259,W,16.83,38.99,290812,,,A*7B
$GPGGA,145023.000,6431.3828,N,02052.7194,W,1,09,1.2,533.9,M,60.5,M,,0000*45
$GPGSA,A,3,19,06,18,07,21,03,30,16,13,,,,1.7,1.2,1.3*33
$GPRMC,145023.000,A,6431.3828,N,02052.7194,W,16.71,37.25,290812,,,A*70
$GPGGA,145024.000,6431.3865,N,02052.7130,W,1,09,1.2,533.7,M,60.5,M,,0000*4B
$GPGSA,A,3,19,06,18,07,21,03,30,16,13,,,,1.7,1.2,1.3*33
$GPRMC,145024.000,A,6431.3865,N,02052.7130,W,16.77,36.18,290812,,,A*79
$GPGGA,145025.000,6431.3903,N,02052.7067,W,1,09,1.2,533.4,M,60.5,M,,0000*4B
$GPGSA,A,3,19,06,18,07,21,03,30,16,13,,,,1.7,1.2,1.3*33
$GPGSV,3,1,12,16,70,176,37,06,67,215,28,03,52,238,31,21,46,079,39*7D
$GPGSV,3,2,12,30,41,147,48,07,32,310,36,19,22,240,30,13,12,276,34*7A
$GPGSV,3,3,12,18,12,107,28,05,09,002,28,08,05,335,12,26,02,025,30*71
$GPRMC,145025.000,A,6431.3903,N,02052.7067,W,16.86,35.06,290812,,,A*78
$GPGGA,145026.000,6431.3943,N,02052.7008,W,1,08,1.2,533.2,M,60.5,M,,0000*42
$GPGSA,A,3,19,18,07,21,03,30,16,13,,,,,1.8,1.2,1.4*3D
$GPRMC,145026.000,A,6431.3943,N,02052.7008,W,16.95,33.17,290812,,,A*72
$GPGGA,145027.000,6431.3983,N,02052.6950,W,1,09,1.2,533.0,M,60.5,M,,0000*49
$GPGSA,A,3,19,06,18,07,21,03,30,16,13,,,,1.7,1.2,1.3*33
$GPRMC,145027.000,A,6431.3983,N,02052.6950,W,16.96,31.93,290812,,,A*77
$GPGGA,145028.000,6431.4023,N,02052.6891,W,1,09,1.2,532.8,M,60.5,M,,0000*47
$GPGSA,A,3,19,06,18,07,21,03,30,16,13,,,,1.7,1.2,1.3*33
$GPRMC,145028.000,A,6431.4023,N,02052.6891,W,17.18,31.87,290812,,,A*72
$GPGGA,145029.000,6431.4065,N,02052.6836,W,1,09,1.2,532.6,M,60.5,M,,0000*47
$GPGSA,A,3,19,06,18,07,21,03,30,16,13,,,,1.7,1.2,1.3*33
$GPRMC,145029.000,A,6431.4065,N,02052.6836,W,17.30,29.57,290812,,,A*72
$GPGGA,145030.000,6431.4108,N,02052.6783,W,1,08,1.2,532.4,M,60.5,M,,0000*47
$GPGSA,A,3,19,06,18,07,21,30,16,13,,,,,1.8,1.2,1.3*3F
$GPGSV,3,1,12,16,70,176,31,06,67,215,27,03,52,238,,21,46,079,30*7F
$GPGSV,3,2,12,30,41,147,47,07,32,310,34,19,22,240,32,13,12,276,35*74
$GPGSV,3,3,12,18,12,107,27,05,09,002,27,08,05,335,25,26,02,025,37*72
$GPRMC,145030.000,A,6431.4108,N,02052.6783,W,17.42,27.90,290812,,,A*71
$GPGGA,145031.000,6431.4151,N,02052.6734,W,1,09,1.2,532.2,M,60.5,M,,0000*41
$GPGSA,A,3,19,06,18,07,21,03,30,16,13,,,,1.7,1.2,1.3*33
$GPRMC,145031.000,A,6431.4151,N,02052.6734,W,17.53,25.66,290812,,,A*7B
$GPGGA,145032.000,6431.4195,N,02052.6685,W,1,09,1.2,532.0,M,60.5,M,,0000*43
$GPGSA,A,3,19,06,18,07,21,03,30,16,13,,,,1.7,1.2,1.3*33
$GPRMC,145032.000,A,6431.4195,N,02052.6685,W,17.59,25.59,290812,,,A*7D
$GPGGA,145033.000,6431.4238,N,02052.6631,W,1,07,1.5,531.9,M,60.5,M,,0000*4A
$GPGSA,A,3,06,18,07,21,03,30,16,,,,,,2.5,1.5,2.0*3F
$GPRMC,145033.000,A,6431.4238,N,02052.6631,W,17.27,28.69,290812,,,A*70
