$GPGGA,152159.000,5229.6495,N,01319.5380,E,1,05,5.2,191.2,M,44.8,M,,0000*50
$GPGSA,A,3,06,18,21,03,07,,,,,,,,6.8,5.2,4.4*33
$GPGSV,3,1,12,06,80,268,40,03,63,286,27,18,52,099,33,21,38,069,37*7C
$GPGSV,3,2,12,07,14,307,29,16,52,214,,22,40,163,32,19,33,290,26*77
$GPGSV,3,3,12,30,25,189,29,15,14,055,38,26,08,020,24,08,08,344,*74
$GPRMC,152159.000,A,5229.6495,N,01319.5380,E,1.09,24.82,070912,,,A*5A
$GPGGA,152200.000,5229.6483,N,01319.5367,E,1,05,5.3,183.1,M,44.8,M,,0000*50
$GPGSA,A,3,06,18,21,03,07,,,,,,,,6.8,5.3,4.4*32
$GPRMC,152200.000,A,5229.6483,N,01319.5367,E,2.37,19.28,070912,,,A*5B
$GPGGA,152201.000,5229.6474,N,01319.5354,E,1,05,5.3,175.6,M,44.8,M,,0000*57
$GPGSA,A,3,06,18,21,03,07,,,,,,,,6.8,5.3,4.4*32
$GPRMC,152201.000,A,5229.6474,N,01319.5354,E,2.50,10.00,070912,,,A*50
$GPGGA,152202.000,5229.6468,N,01319.5341,E,1,05,5.3,168.6,M,44.8,M,,0000*51
$GPGSA,A,3,06,18,21,03,07,,,,,,,,6.8,5.3,4.4*32
$GPRMC,152202.000,A,5229.6468,N,01319.5341,E,3.20,8.88,070912,,,A*65
$GPGGA,152203.000,5229.6459,N,01319.5327,E,1,05,5.3,161.8,M,44.8,M,,0000*55
$GPGSA,A,3,06,18,21,03,07,,,,,,,,6.8,5.3,4.4*32
$GPRMC,152203.000,A,5229.6459,N,01319.5327,E,1.90,11.24,070912,,,A*51
$GPGGA,152204.000,5229.6448,N,01319.5315,E,1,05,5.3,155.0,M,44.8,M,,0000*5C
$GPGSA,A,3,06,18,21,03,07,,,,,,,,6.8,5.3,4.4*32
$GPGSV,3,1,12,06,80,268,40,03,63,286,39,18,52,099,28,21,38,069,29*76
$GPGSV,3,2,12,07,14,307,29,16,52,214,35,22,40,163,29,19,33,290,25*78
$GPGSV,3,3,12,30,25,189,36,15,14,055,32,26,08,020,32,08,08,344,20*75
$GPRMC,152204.000,A,5229.6448,N,01319.5315,E,1.40,27.29,070912,,,A*52
$GPGGA,152205.000,5229.6436,N,01319.5302,E,1,05,5.3,148.2,M,44.8,M,,0000*5C
$GPGSA,A,3,06,18,21,03,07,,,,,,,,6.9,5.3,4.4*33
$GPRMC,152207.000,A,5229.6410,N,01319.5267,E,1.13,204.25,070912,,,A*61
$GPGGA,152208.000,5229.6400,N,01319.5253,E,1,05,5.3,130.3,M,44.8,M,,0000*5F
$GPGSA,A,3,06,18,21,03,07,,,,,,,,6.9,5.3,4.4*33
$GPRMC,152212.000,A,5229.6367,N,01319.5200,E,1.78,180.22,070912,,,A*66
$GPGGA,152213.000,5229.6361,N,01319.5191,E,1,05,5.3,108.5,M,44.8,M,,0000*55
$GPGSA,A,3,06,18,21,03,07,,,,,,,,6.9,5.3,4.4*33
$GPRMC,152213.000,A,5229.6361,N,01319.5191,E,1.12,118.05,070912,,,A*62
$GPGGA,152214.000,5229.6357,N,01319.5180,E,1,05,5.3,105.4,M,44.8,M,,0000*5B
$GPGSA,A,3,06,18,21,03,07,,,,,,,,6.9,5.3,4.4*33
$GPGSV,3,1,12,06,80,268,41,03,63,286,40,18,52,099,28,21,38,069,31*70
$GPGSV,3,2,12,07,14,307,27,16,52,214,39,22,40,163,23,19,33,290,*77
$GPGSV,3,3,12,30,25,189,32,15,14,055,37,26,08,020,27,08,08,344,23*73
$GPRMC,152215.000,A,5229.6352,N,01319.5167,E,1.17,197.88,070912,,,A*6A
$GPGGA,152216.000,5229.6348,N,01319.5155,E,1,05,5.3,100.1,M,44.8,M,,0000*5F
$GPGSA,A,3,06,18,21,03,07,,,,,,,,6.9,5.3,4.4*33
$GPRMC,152216.000,A,5229.6348,N,01319.5155,E,1.15,194.51,070912,,,A*66
$GPGGA,152217.000,5229.6345,N,01319.5144,E,1,05,5.3,98.0,M,44.8,M,,0000*62
$GPGSA,A,3,06,18,21,03,07,,,,,,,,6.9,5.3,4.4*33
$GPRMC,152217.000,A,5229.6345,N,01319.5144,E,0.99,194.13,070912,,,A*69
$GPGGA,152218.000,5229.6343,N,01319.5133,E,1,05,5.3,96.2,M,44.8,M,,0000*67
$GPGSA,A,3,06,18,21,03,07,,,,,,,,6.9,5.3,4.4*33
$GPRMC,152259.000,A,5229.6169,N,01319.4965,E,0.97,78.00,070912,,,A*5A
$GPGGA,152300.000,5229.6169,N,01319.4972,E,1,08,1.0,42.2,M,44.8,M,,0000*6A
$GPGSA,A,3,06,18,21,03,07,30,15,16,,,,,1.7,1.0,1.4*38
$GPRMC,152300.000,A,5229.6169,N,01319.4972,E,1.25,64.93,070912,,,A*5E
$GPGGA,152301.000,5229.6170,N,01319.4980,E,1,08,1.0,41.6,M,44.8,M,,0000*69
$GPGSA,A,3,06,18,21,03,07,30,15,16,,,,,1.7,1.0,1.4*38
$GPRMC,152301.000,A,5229.6170,N,01319.4980,E,1.36,58.89,070912,,,A*5C
$GPGGA,152302.000,5229.6172,N,01319.4989,E,1,08,1.0,41.1,M,44.8,M,,0000*66
$GPGSA,A,3,06,18,21,03,07,30,15,16,,,,,1.7,1.0,1.4*38
$GPRMC,152302.000,A,5229.6172,N,01319.4989,E,1.64,64.17,070912,,,A*5B
$GPGGA,152303.000,5229.6174,N,01319.4998,E,1,08,1.0,40.8,M,44.8,M,,0000*69
$GPGSA,A,3,06,18,21,03,07,30,15,16,,,,,1.7,1.0,1.4*38
$GPRMC,152303.000,A,5229.6174,N,01319.4998,E,1.58,52.69,070912,,,A*5F
$GPGGA,152304.000,5229.6175,N,01319.5007,E,1,08,1.0,40.4,M,44.8,M,,0000*6D
$GPGSA,A,3,06,18,21,03,07,30,15,16,,,,,1.7,1.0,1.4*38
$GPGSV,3,1,12,06,80,267,40,03,63,285,42,18,52,098,27,16,52,213,31*76
$GPGSV,3,2,12,22,40,163,23,21,38,069,23,19,33,290,43,30,25,189,24*7A
$GPGSV,3,3,12,07,14,307,38,15,14,055,39,08,08,344,18,26,08,019,31*70
$GPRMC,152304.000,A,5229.6175,N,01319.5007,E,1.61,70.33,070912,,,A*52
$GPGGA,152305.000,5229.6176,N,01319.5017,E,1,07,1.1,40.2,M,44.8,M,,0000*66
$GPGSA,A,3,06,18,03,07,30,15,16,,,,,,1.8,1.1,1.4*35
$GPRMC,152305.000,A,5229.6176,N,01319.5017,E,1.74,71.23,070912,,,A*55
$GPGGA,152306.000,5229.6178,N,01319.5027,E,1,06,1.9,39.9,M,44.8,M,,0000*64
$GPGSA,A,3,06,18,03,07,15,16,,,,,,,2.8,1.9,2.2*38
$GPRMC,152306.000,A,5229.6178,N,01319.5027,E,1.63,70.54,070912,,,A*5C
$GPGGA,152307.000,5229.6181,N,01319.5036,E,1,08,1.0,39.7,M,44.8,M,,0000*6A
$GPGSA,A,3,06,18,03,07,21,30,15,16,,,,,1.7,1.0,1.4*38
$GPRMC,152307.000,A,5229.6181,N,01319.5036,E,1.85,51.57,070912,,,A*53
$GPGGA,152308.000,5229.6184,N,01319.5045,E,1,08,1.0,39.5,M,44.8,M,,0000*66
$GPGSA,A,3,06,18,03,07,21,30,15,16,,,,,1.7,1.0,1.4*38
$GPRMC,152308.000,A,5229.6184,N,01319.5045,E,1.67,49.91,070912,,,A*52
$GPGGA,152309.000,5229.6187,N,01319.5054,E,1,08,1.0,39.3,M,44.8,M,,0000*62
$GPGSA,A,3,06,18,03,07,21,30,15,16,,,,,1.7,1.0,1.4*38
$GPGSV,3,1,12,06,80,267,37,03,63,285,43,18,52,098,27,16,52,213,26*71
$GPGSV,3,2,12,22,40,163,22,21,38,069,26,19,33,290,38,30,25,189,19*7C
$GPGSV,3,3,12,07,14,307,37,15,14,055,38,08,08,344,,26,08,019,28*7F
$GPRMC,152309.000,A,5229.6187,N,01319.5054,E,1.68,58.44,070912,,,A*57
$GPGGA,152310.000,5229.6189,N,01319.5063,E,1,08,1.0,39.2,M,44.8,M,,0000*61
$GPGSA,A,3,06,18,03,07,21,30,15,16,,,,,1.7,1.0,1.4*38
$GPRMC,152310.000,A,5229.6189,N,01319.5063,E,1.67,73.37,070912,,,A*57
$GPGGA,152311.000,5229.6191,N,01319.5073,E,1,08,1.0,39.0,M,44.8,M,,0000*6A
$GPGSA,A,3,06,18,03,07,21,30,15,16,,,,,1.7,1.0,1.4*38
$GPRMC,152311.000,A,5229.6191,N,01319.5073,E,1.67,68.86,070912,,,A*5E
$GPGGA,152312.000,5229.6194,N,01319.5082,E,1,08,1.0,38.8,M,44.8,M,,0000*6B
$GPGSA,A,3,06,18,03,07,21,30,15,16,,,,,1.7,1.0,1.4*38
$GPRMC,152312.000,A,5229.6194,N,01319.5082,E,1.63,71.38,070912,,,A*5F
$GPGGA,152313.000,5229.6196,N,01319.5090,E,1,08,1.0,38.6,M,44.8,M,,0000*65
$GPGSA,A,3,06,18,03,07,21,30,15,16,,,,,1.7,1.0,1.4*38
$GPRMC,152313.000,A,5229.6196,N,01319.5090,E,1.55,66.00,070912,,,A*57
$GPGGA,152314.000,5229.6199,N,01319.5098,E,1,08,1.0,38.3,M,44.8,M,,0000*60
$GPGSA,A,3,06,18,03,07,21,30,15,16,,,,,1.7,1.0,1.4*38
$GPGSV,3,1,12,06,80,267,38,03,63,285,44,18,52,098,27,16,52,213,27*78
$GPGSV,3,2,12,22,40,163,23,21,38,069,26,19,33,290,30,30,25,189,21*7E
$GPGSV,3,3,12,07,14,307,35,15,14,055,39,08,08,344,,26,08,019,33*76
$GPRMC,152314.000,A,5229.6199,N,01319.5098,E,1.56,71.73,070912,,,A*56
$GPGGA,152315.000,5229.6202,N,01319.5106,E,1,08,1.0,38.0,M,44.8,M,,0000*65
$GPGSA,A,3,06,18,03,07,21,30,15,16,,,,,1.7,1.0,1.4*38
$GPRMC,152315.000,A,5229.6202,N,01319.5106,E,1.53,68.05,070912,,,A*5C
$GPGGA,152316.000,5229.6206,N,01319.5114,E,1,08,1.0,37.7,M,44.8,M,,0000*69
$GPGSA,A,3,06,18,03,07,21,30,15,16,,,,,1.7,1.0,1.4*38
$GPRMC,152316.000,A,5229.6206,N,01319.5114,E,1.64,62.30,070912,,,A*50
$GPGGA,152317.000,5229.6209,N,01319.5122,E,1,07,1.1,37.6,M,44.8,M,,0000*6D
$GPGSA,A,3,06,03,07,21,30,15,16,,,,,,1.8,1.1,1.4*3F
$GPRMC,152317.000,A,5229.6209,N,01319.5122,E,1.42,71.66,070912,,,A*5E
$GPGGA,152318.000,5229.6212,N,01319.5129,E,1,08,1.0,37.4,M,44.8,M,,0000*6F
$GPGSA,A,3,06,18,03,07,21,30,15,16,,,,,1.7,1.0,1.4*38
$GPRMC,152318.000,A,5229.6212,N,01319.5129,E,1.37,76.50,070912,,,A*50
$GPGGA,152319.000,5229.6215,N,01319.5138,E,1,07,1.1,37.2,M,44.8,M,,0000*61
$GPGSA,A,3,06,03,07,21,30,15,16,,,,,,1.8,1.1,1.4*3F
$GPGSV,3,1,12,06,80,266,35,03,63,285,42,18,52,098,,16,52,213,28*78
$GPGSV,3,2,12,22,41,162,23,21,38,069,26,19,33,290,32,30,25,189,21*7C
$GPGSV,3,3,12,07,14,307,32,15,14,055,39,08,08,344,22,26,08,019,30*72
$GPRMC,152319.000,A,5229.6215,N,01319.5138,E,1.56,77.20,070912,,,A*57
$GPGGA,152320.000,5229.6218,N,01319.5146,E,1,08,1.0,37.1,M,44.8,M,,0000*62
$GPGSA,A,3,06,18,03,07,21,30,15,16,,,,,1.7,1.0,1.4*38
$GPRMC,152320.000,A,5229.6218,N,01319.5146,E,1.37,72.91,070912,,,A*51
$GPGGA,152321.000,5229.6222,N,01319.5157,E,1,08,1.0,37.2,M,44.8,M,,0000*69
$GPGSA,A,3,06,18,03,07,21,30,15,16,,,,,1.7,1.0,1.4*38
$GPRMC,152321.000,A,5229.6222,N,01319.5157,E,2.05,81.85,070912,,,A*52
$GPGGA,152322.000,5229.6227,N,01319.5167,E,1,08,1.0,37.3,M,44.8,M,,0000*6D
$GPGSA,A,3,06,18,03,07,21,30,15,16,,,,,1.7,1.0,1.4*38
$GPRMC,152322.000,A,5229.6227,N,01319.5167,E,1.77,64.13,070912,,,A*55
$GPGGA,152323.000,5229.6234,N,01319.5174,E,1,08,1.0,37.5,M,44.8,M,,0000*6A
$GPGSA,A,3,06,18,03,07,21,30,15,16,,,,,1.7,1.0,1.4*38
$GPRMC,152323.000,A,5229.6234,N,01319.5174,E,1.61,41.93,070912,,,A*5C
$GPGGA,152324.000,5229.6241,N,01319.5182,E,1,07,1.6,37.8,M,44.8,M,,0000*62
$GPGSA,A,3,06,18,03,21,30,15,16,,,,,,2.5,1.6,2.0*3F
$GPGSV,3,1,12,06,80,266,39,03,63,285,37,18,52,098,25,16,52,213,27*7E
$GPGSV,3,2,12,22,41,162,23,21,38,069,26,19,33,290,38,30,25,189,20*77
$GPGSV,3,3,12,07,14,307,,15,14,055,39,08,08,344,21,26,08,019,32*72
$GPRMC,152324.000,A,5229.6241,N,01319.5182,E,1.71,46.35,070912,,,A*5A
$GPGGA,152325.000,5229.6248,N,01319.5192,E,1,08,1.0,38.2,M,44.8,M,,0000*67
$GPGSA,A,3,06,18,03,07,21,30,15,16,,,,,1.7,1.0,1.4*38
$GPRMC,152325.000,A,5229.6248,N,01319.5192,E,1.69,60.95,070912,,,A*54
$GPGGA,152326.000,5229.6254,N,01319.5201,E,1,08,1.0,38.7,M,44.8,M,,0000*65
$GPGSA,A,3,06,18,03,07,21,30,15,16,,,,,1.7,1.0,1.4*38
$GPRMC,152326.000,A,5229.6254,N,01319.5201,E,1.57,62.20,070912,,,A*52
$GPGGA,152327.000,5229.6261,N,01319.5210,E,1,08,1.0,39.1,M,44.8,M,,0000*65
$GPGSA,A,3,06,18,03,07,21,30,15,16,,,,,1.7,1.0,1.4*38
$GPRMC,152327.000,A,5229.6261,N,01319.5210,E,1.70,58.61,070912,,,A*5C
$GPGGA,152328.000,5229.6267,N,01319.5219,E,1,08,1.0,39.4,M,44.8,M,,0000*60
$GPGSA,A,3,06,18,03,07,21,30,15,16,,,,,1.7,1.0,1.4*38
$GPRMC,152328.000,A,5229.6267,N,01319.5219,E,1.54,65.56,070912,,,A*50
$GPGGA,152329.000,5229.6273,N,01319.5225,E,1,08,1.0,39.6,M,44.8,M,,0000*69
$GPGSA,A,3,06,18,03,07,21,30,15,16,,,,,1.7,1.0,1.4*38
$GPGSV,3,1,12,06,80,266,39,03,63,285,40,18,52,098,26,16,52,213,23*79
$GPGSV,3,2,12,22,41,162,23,21,38,069,26,19,33,290,39,30,25,189,19*7C
$GPGSV,3,3,12,07,14,307,29,15,14,055,40,08,08,344,21,26,08,019,25*71
$GPRMC,152329.000,A,5229.6273,N,01319.5225,E,1.22,47.82,070912,,,A*53
$GPGGA,152330.000,5229.6278,N,01319.5229,E,1,08,1.0,39.7,M,44.8,M,,0000*67
$GPGSA,A,3,06,18,03,07,21,30,15,16,,,,,1.7,1.0,1.4*38
$GPRMC,152335.000,A,5229.6303,N,01319.5247,E,0.94,54.32,070912,,,A*59
$GPGGA,152336.000,5229.6309,N,01319.5254,E,1,09,1.0,42.9,M,44.8,M,,0000*6F
$GPGSA,A,3,06,19,18,03,07,21,30,15,16,,,,1.7,1.0,1.4*30
$GPRMC,152336.000,A,5229.6309,N,01319.5254,E,1.44,54.69,070912,,,A*50
$GPGGA,152337.000,5229.6314,N,01319.5263,E,1,09,1.0,43.4,M,44.8,M,,0000*6A
$GPGSA,A,3,06,19,18,03,07,21,30,15,16,,,,1.7,1.0,1.4*30
$GPRMC,152337.000,A,5229.6314,N,01319.5263,E,1.55,65.80,070912,,,A*5C
$GPGGA,152338.000,5229.6320,N,01319.5273,E,1,09,1.0,43.9,M,44.8,M,,0000*6E
$GPGSA,A,3,06,19,18,03,07,21,30,15,16,,,,1.7,1.0,1.4*30
$GPRMC,152338.000,A,5229.6320,N,01319.5273,E,1.90,65.50,070912,,,A*51
$GPGGA,152339.000,5229.6325,N,01319.5283,E,1,09,1.0,44.4,M,44.8,M,,0000*6F
$GPGSA,A,3,06,19,18,03,07,21,30,15,16,,,,1.7,1.0,1.4*30
$GPGSV,3,1,12,06,80,266,39,03,63,285,38,18,52,098,25,16,51,213,27*72
$GPGSV,3,2,12,22,41,162,21,21,38,070,26,19,33,290,43,30,25,189,18*7A
$GPGSV,3,3,12,07,14,307,35,15,14,055,40,08,08,343,22,26,08,019,29*74
$GPRMC,152339.000,A,5229.6325,N,01319.5283,E,1.91,66.01,070912,,,A*5C
$GPGGA,152340.000,5229.6332,N,01319.5292,E,1,09,1.0,44.8,M,44.8,M,,0000*6B
$GPGSA,A,3,06,19,18,03,07,21,30,15,16,,,,1.7,1.0,1.4*30
$GPRMC,152340.000,A,5229.6332,N,01319.5292,E,1.73,56.94,070912,,,A*57
$GPGGA,152341.000,5229.6337,N,01319.5302,E,1,09,1.0,45.2,M,44.8,M,,0000*6C
$GPGSA,A,3,06,19,18,03,07,21,30,15,16,,,,1.7,1.0,1.4*30
$GPRMC,152341.000,A,5229.6337,N,01319.5302,E,1.91,64.88,070912,,,A*5B
$GPGGA,152342.000,5229.6342,N,01319.5312,E,1,09,1.0,45.5,M,44.8,M,,0000*6B
$GPGSA,A,3,06,19,18,03,07,21,30,15,16,,,,1.7,1.0,1.4*30
$GPRMC,152342.000,A,5229.6342,N,01319.5312,E,1.96,73.11,070912,,,A*5A
$GPGGA,152343.000,5229.6348,N,01319.5322,E,1,09,1.0,45.9,M,44.8,M,,0000*6F
$GPGSA,A,3,06,19,18,03,07,21,30,15,16,,,,1.7,1.0,1.4*30
$GPRMC,152343.000,A,5229.6348,N,01319.5322,E,1.84,67.38,070912,,,A*5F
$GPGGA,152344.000,5229.6353,N,01319.5332,E,1,09,1.0,46.3,M,44.8,M,,0000*6A
$GPGSA,A,3,06,19,18,03,07,21,30,15,16,,,,1.7,1.0,1.4*30
$GPGSV,3,1,12,06,80,266,39,03,63,285,40,18,52,098,25,16,51,213,27*7D
$GPGSV,3,2,12,22,41,162,22,21,38,070,26,19,33,290,42,30,25,189,18*78
$GPGSV,3,3,12,07,14,307,30,15,14,055,40,08,08,343,21,26,08,019,31*7B
$GPRMC,152344.000,A,5229.6353,N,01319.5332,E,1.72,73.17,070912,,,A*52
$GPGGA,152345.000,5229.6357,N,01319.5340,E,1,09,1.0,46.6,M,44.8,M,,0000*6F
$GPGSA,A,3,06,19,18,03,07,21,30,15,16,,,,1.7,1.0,1.4*30
$GPRMC,152345.000,A,5229.6357,N,01319.5340,E,1.37,76.08,070912,,,A*58
$GPGGA,152346.000,5229.6363,N,01319.5348,E,1,09,1.0,46.9,M,44.8,M,,0000*6C
$GPGSA,A,3,06,19,18,03,07,21,30,15,16,,,,1.7,1.0,1.4*30
$GPRMC,152346.000,A,5229.6363,N,01319.5348,E,1.71,63.05,070912,,,A*5F
$GPGGA,152347.000,5229.6368,N,01319.5357,E,1,09,1.0,47.1,M,44.8,M,,0000*61
$GPGSA,A,3,06,19,18,03,07,21,30,15,16,,,,1.7,1.0,1.4*30
$GPRMC,152347.000,A,5229.6368,N,01319.5357,E,1.75,62.17,070912,,,A*5D
$GPGGA,152348.000,5229.6372,N,01319.5366,E,1,09,1.0,47.2,M,44.8,M,,0000*64
$GPGSA,A,3,06,19,18,03,07,21,30,15,16,,,,1.7,1.0,1.4*30
$GPRMC,152348.000,A,5229.6372,N,01319.5366,E,1.50,77.56,070912,,,A*5D
$GPGGA,152349.000,5229.6375,N,01319.5374,E,1,09,1.0,47.1,M,44.8,M,,0000*62
$GPGSA,A,3,06,19,18,03,07,21,30,15,16,,,,1.7,1.0,1.4*30
$GPGSV,3,1,12,06,80,265,36,03,64,285,33,18,52,098,25,16,51,213,27*72
$GPGSV,3,2,12,22,41,162,23,21,37,070,28,19,34,290,38,30,25,189,19*73
$GPGSV,3,3,12,07,14,307,37,15,14,055,38,08,08,343,21,26,08,019,34*76
$GPRMC,152349.000,A,5229.6375,N,01319.5374,E,1.35,82.78,070912,,,A*5D
$GPGGA,152350.000,5229.6377,N,01319.5382,E,1,09,1.0,47.0,M,44.8,M,,0000*60
$GPGSA,A,3,06,19,18,03,07,21,30,15,16,,,,1.7,1.0,1.4*30
$GPRMC,152350.000,A,5229.6377,N,01319.5382,E,1.44,91.27,070912,,,A*50
$GPGGA,152351.000,5229.6378,N,01319.5390,E,1,09,1.0,46.7,M,44.8,M,,0000*6B
$GPGSA,A,3,06,19,18,03,07,21,30,15,16,,,,1.7,1.0,1.4*30
$GPRMC,152351.000,A,5229.6378,N,01319.5390,E,1.29,101.74,070912,,,A*68
$GPGGA,152352.000,5229.6380,N,01319.5398,E,1,09,1.0,46.4,M,44.8,M,,0000*64
$GPGSA,A,3,06,19,18,03,07,21,30,15,16,,,,1.7,1.0,1.4*30
$GPRMC,152352.000,A,5229.6380,N,01319.5398,E,1.26,85.64,070912,,,A*57
$GPGGA,152353.000,5229.6383,N,01319.5405,E,1,09,1.0,46.1,M,44.8,M,,0000*60
$GPGSA,A,3,06,19,18,03,07,21,30,15,16,,,,1.7,1.0,1.4*30
$GPRMC,152353.000,A,5229.6383,N,01319.5405,E,1.31,79.98,070912,,,A*50
$GPGGA,152354.000,5229.6386,N,01319.5414,E,1,09,1.0,45.9,M,44.8,M,,0000*69
$GPGSA,A,3,06,19,18,03,07,21,30,15,16,,,,1.7,1.0,1.4*30
$GPGSV,3,1,12,06,80,265,39,03,64,285,40,18,52,098,30,16,51,213,27*7D
$GPGSV,3,2,12,22,41,162,23,21,37,070,26,19,34,290,31,30,25,189,19*74
$GPGSV,3,3,12,07,14,307,40,15,14,055,42,08,08,343,21,26,08,019,26*78
$GPRMC,152354.000,A,5229.6386,N,01319.5414,E,1.51,76.19,070912,,,A*52
$GPGGA,152355.000,5229.6387,N,01319.5422,E,1,09,1.0,45.7,M,44.8,M,,0000*62
$GPGSA,A,3,06,19,18,03,07,21,30,15,16,,,,1.7,1.0,1.4*30
$GPRMC,152355.000,A,5229.6387,N,01319.5422,E,1.48,89.32,070912,,,A*56
$GPGGA,152356.000,5229.6388,N,01319.5430,E,1,09,1.0,45.4,M,44.8,M,,0000*6E
$GPGSA,A,3,06,19,18,03,07,21,30,15,16,,,,1.7,1.0,1.4*30
$GPRMC,152356.000,A,5229.6388,N,01319.5430,E,1.33,102.85,070912,,,A*6B
$GPGGA,152357.000,5229.6389,N,01319.5437,E,1,09,1.0,45.0,M,44.8,M,,0000*6D
$GPGSA,A,3,06,19,18,03,07,21,30,15,16,,,,1.7,1.0,1.4*30
$GPRMC,152357.000,A,5229.6389,N,01319.5437,E,1.32,105.53,070912,,,A*61
$GPGGA,152358.000,5229.6388,N,01319.5444,E,1,09,1.0,44.6,M,44.8,M,,0000*60
$GPGSA,A,3,06,19,18,03,07,21,30,15,16,,,,1.7,1.0,1.4*30
$GPRMC,152358.000,A,5229.6388,N,01319.5444,E,1.38,109.65,070912,,,A*68
$GPGGA,152359.000,5229.6388,N,01319.5451,E,1,09,1.0,44.1,M,44.8,M,,0000*62
$GPGSA,A,3,06,19,18,03,07,21,30,15,16,,,,1.7,1.0,1.4*30
$GPGSV,3,1,12,06,80,265,39,03,64,285,41,18,52,098,25,16,51,213,27*78
$GPGSV,3,2,12,22,41,162,24,21,37,070,28,19,34,290,37,30,25,189,18*7A
$GPGSV,3,3,12,07,14,307,43,15,14,055,40,08,08,343,20,26,08,019,26*78
$GPRMC,152359.000,A,5229.6388,N,01319.5451,E,1.34,116.12,070912,,,A*6F
$GPGGA,152400.000,5229.6389,N,01319.5458,E,1,09,1.0,43.6,M,44.8,M,,0000*61
$GPGSA,A,3,06,19,18,03,07,21,30,15,16,,,,1.7,1.0,1.4*30
$GPRMC,152400.000,A,5229.6389,N,01319.5458,E,1.04,96.42,070912,,,A*53
$GPGGA,152401.000,5229.6389,N,01319.5465,E,1,09,1.0,43.1,M,44.8,M,,0000*69
$GPGSA,A,3,06,19,18,03,07,21,30,15,16,,,,1.7,1.0,1.4*30
$GPRMC,152401.000,A,5229.6389,N,01319.5465,E,1.21,95.14,070912,,,A*5B
$GPGGA,152402.000,5229.6389,N,01319.5471,E,1,09,1.0,42.7,M,44.8,M,,0000*68
$GPGSA,A,3,06,19,18,03,07,21,30,15,16,,,,1.7,1.0,1.4*30
$GPRMC,152402.000,A,5229.6389,N,01319.5471,E,1.02,113.94,070912,,,A*6B
$GPGGA,152403.000,5229.6390,N,01319.5478,E,1,09,1.0,42.3,M,44.8,M,,0000*6C
$GPGSA,A,3,06,19,18,03,07,21,30,15,16,,,,1.7,1.0,1.4*30
$GPRMC,152403.000,A,5229.6390,N,01319.5478,E,1.22,95.52,070912,,,A*5C
$GPGGA,152404.000,5229.6391,N,01319.5485,E,1,09,1.0,42.0,M,44.8,M,,0000*6B
$GPGSA,A,3,06,19,18,03,07,21,30,15,16,,,,1.7,1.0,1.4*30
$GPGSV,3,1,12,06,80,265,39,03,64,285,41,18,52,098,28,16,51,213,27*75
$GPGSV,3,2,12,22,41,162,23,21,37,070,28,19,34,290,34,30,25,189,19*7F
$GPGSV,3,3,12,07,14,307,42,15,14,055,34,08,08,343,21,26,08,019,26*7B
$GPRMC,152404.000,A,5229.6391,N,01319.5485,E,1.24,92.14,070912,,,A*5B
$GPGGA,152405.000,5229.6392,N,01319.5493,E,1,09,1.0,41.6,M,44.8,M,,0000*6B
$GPGSA,A,3,06,19,18,03,07,21,30,15,16,,,,1.7,1.0,1.4*30
$GPRMC,152405.000,A,5229.6392,N,01319.5493,E,1.38,95.86,070912,,,A*5F
$GPGGA,152406.000,5229.6393,N,01319.5502,E,1,08,1.0,41.4,M,44.8,M,,0000*63
$GPGSA,A,3,06,18,03,07,21,30,15,16,,,,,1.7,1.0,1.4*38
$GPRMC,152406.000,A,5229.6393,N,01319.5502,E,1.54,95.65,070912,,,A*53
$GPGGA,152407.000,5229.6394,N,01319.5511,E,1,09,1.0,41.0,M,44.8,M,,0000*62
$GPGSA,A,3,06,19,18,03,07,21,30,15,16,,,,1.7,1.0,1.4*30
$GPRMC,152407.000,A,5229.6394,N,01319.5511,E,1.77,93.24,070912,,,A*55
$GPGGA,152408.000,5229.6395,N,01319.5521,E,1,09,1.0,40.7,M,44.8,M,,0000*69
$GPGSA,A,3,06,19,18,03,07,21,30,15,16,,,,1.7,1.0,1.4*30
$GPRMC,152408.000,A,5229.6395,N,01319.5521,E,1.67,93.86,070912,,,A*51
$GPGGA,152409.000,5229.6396,N,01319.5530,E,1,09,1.0,40.4,M,44.8,M,,0000*68
$GPGSA,A,3,06,19,18,03,07,21,30,15,16,,,,1.7,1.0,1.4*30
$GPGSV,3,1,12,06,80,265,39,03,64,285,43,18,52,098,29,16,51,213,27*76
$GPGSV,3,2,12,22,41,162,24,21,37,070,35,19,34,290,34,30,25,189,19*74
$GPGSV,3,3,12,07,14,307,36,15,14,055,38,08,08,343,27,26,08,019,26*72
$GPRMC,152409.000,A,5229.6396,N,01319.5530,E,1.69,98.40,070912,,,A*5C
$GPGGA,152410.000,5229.6396,N,01319.5539,E,1,09,1.0,40.1,M,44.8,M,,0000*6C
$GPGSA,A,3,06,19,18,03,07,21,30,15,16,,,,1.7,1.0,1.4*30
$GPRMC,152410.000,A,5229.6396,N,01319.5539,E,1.55,104.69,070912,,,A*6D
$GPGGA,152411.000,5229.6395,N,01319.5549,E,1,09,1.0,39.6,M,44.8,M,,0000*60
$GPGSA,A,3,06,19,18,03,07,21,30,15,16,,,,1.7,1.0,1.4*30
$GPRMC,152411.000,A,5229.6395,N,01319.5549,E,1.76,110.57,070912,,,A*61
$GPGGA,152412.000,5229.6395,N,01319.5558,E,1,08,1.0,39.1,M,44.8,M,,0000*65
$GPGSA,A,3,06,19,03,07,21,30,15,16,,,,,1.7,1.0,1.4*39
$GPRMC,152412.000,A,5229.6395,N,01319.5558,E,1.62,105.21,070912,,,A*62
$GPGGA,152413.000,5229.6394,N,01319.5568,E,1,09,1.0,38.6,M,44.8,M,,0000*61
$GPGSA,A,3,06,19,18,03,07,21,30,15,16,,,,1.7,1.0,1.4*30
$GPRMC,152413.000,A,5229.6394,N,01319.5568,E,1.75,108.51,070912,,,A*6D
$GPGGA,152414.000,5229.6393,N,01319.5577,E,1,09,1.0,38.0,M,44.8,M,,0000*69
$GPGSA,A,3,06,19,18,03,07,21,30,15,16,,,,1.7,1.0,1.4*30
$GPGSV,3,1,12,06,80,265,40,03,64,285,39,18,52,098,33,16,51,213,27*7E
$GPGSV,3,2,12,22,41,162,24,21,37,070,35,19,34,290,34,30,25,189,21*7F
$GPGSV,3,3,12,07,14,307,43,15,14,055,29,08,08,343,26,26,08,019,26*71
$GPRMC,152414.000,A,5229.6393,N,01319.5577,E,1.60,115.11,070912,,,A*6F
$GPGGA,152415.000,5229.6392,N,01319.5585,E,1,09,1.0,37.5,M,44.8,M,,0000*6E
$GPGSA,A,3,06,19,18,03,07,21,30,15,16,,,,1.7,1.0,1.4*30
$GPRMC,152415.000,A,5229.6392,N,01319.5585,E,1.47,119.42,070912,,,A*6D
$GPGGA,152416.000,5229.6390,N,01319.5593,E,1,09,1.0,37.1,M,44.8,M,,0000*6C
$GPGSA,A,3,06,19,18,03,07,21,30,15,16,,,,1.7,1.0,1.4*30
$GPRMC,152416.000,A,5229.6390,N,01319.5593,E,1.46,125.08,070912,,,A*6B
$GPGGA,152417.000,5229.6388,N,01319.5601,E,1,09,1.0,36.7,M,44.8,M,,0000*6B
$GPGSA,A,3,06,19,18,03,07,21,30,15,16,,,,1.7,1.0,1.4*30
$GPRMC,152417.000,A,5229.6388,N,01319.5601,E,1.61,121.25,070912,,,A*65
$GPGGA,152418.000,5229.6388,N,01319.5609,E,1,09,1.0,36.4,M,44.8,M,,0000*6F
$GPGSA,A,3,06,19,18,03,07,21,30,15,16,,,,1.7,1.0,1.4*30
$GPRMC,152418.000,A,5229.6388,N,01319.5609,E,1.05,101.79,070912,,,A*6B
$GPGGA,152419.000,5229.6389,N,01319.5618,E,1,09,1.0,36.2,M,44.8,M,,0000*69
$GPGSA,A,3,06,19,18,03,07,21,30,15,16,,,,1.7,1.0,1.4*30
$GPGSV,3,1,12,06,80,265,40,03,64,285,41,18,52,098,43,16,51,213,26*77
$GPGSV,3,2,12,22,41,162,25,21,37,070,41,19,34,290,35,30,25,189,21*7C
$GPGSV,3,3,12,07,14,307,38,15,14,055,25,08,08,343,27,26,08,019,24*72
$GPRMC,152419.000,A,5229.6389,N,01319.5618,E,1.47,89.21,070912,,,A*51
$GPGGA,152420.000,5229.6387,N,01319.5626,E,1,09,1.0,36.0,M,44.8,M,,0000*62
$GPGSA,A,3,06,19,18,03,07,21,30,15,16,,,,1.7,1.0,1.4*30
$GPRMC,152420.000,A,5229.6387,N,01319.5626,E,1.62,117.42,070912,,,A*6C
$GPGGA,152421.000,5229.6384,N,01319.5635,E,1,09,1.0,35.7,M,44.8,M,,0000*66
$GPGSA,A,3,06,19,18,03,07,21,30,15,16,,,,1.7,1.0,1.4*30
$GPRMC,152421.000,A,5229.6384,N,01319.5635,E,1.89,126.71,070912,,,A*6B
$GPGGA,152422.000,5229.6383,N,01319.5645,E,1,09,1.0,35.3,M,44.8,M,,0000*61
$GPGSA,A,3,06,19,18,03,07,21,30,15,16,,,,1.7,1.0,1.4*30
$GPRMC,152422.000,A,5229.6383,N,01319.5645,E,1.75,111.44,070912,,,A*69
$GPGGA,152423.000,5229.6381,N,01319.5654,E,1,09,1.0,34.9,M,44.8,M,,0000*69
$GPGSA,A,3,06,19,18,03,07,21,30,15,16,,,,1.7,1.0,1.4*30
$GPRMC,152423.000,A,5229.6381,N,01319.5654,E,1.74,115.60,070912,,,A*69
$GPGGA,152424.000,5229.6379,N,01319.5664,E,1,09,1.0,34.6,M,44.8,M,,0000*65
$GPGSA,A,3,06,19,18,03,07,21,30,15,16,,,,1.7,1.0,1.4*30
$GPGSV,3,1,12,06,80,265,40,03,64,285,40,18,52,098,43,16,51,213,26*76
$GPGSV,3,2,12,22,41,162,34,21,37,070,41,19,34,290,37,30,25,189,21*7E
$GPGSV,3,3,12,07,14,307,32,15,14,055,25,08,08,343,21,26,08,019,24*7E
$GPRMC,152424.000,A,5229.6379,N,01319.5664,E,1.78,109.46,070912,,,A*6F
$GPGGA,152425.000,5229.6379,N,01319.5673,E,1,09,1.0,34.3,M,44.8,M,,0000*67
$GPGSA,A,3,06,19,18,03,07,21,30,15,16,,,,1.7,1.0,1.4*30
$GPRMC,152425.000,A,5229.6379,N,01319.5673,E,1.64,94.99,070912,,,A*52
$GPGGA,152426.000,5229.6378,N,01319.5683,E,1,09,1.0,34.0,M,44.8,M,,0000*69
$GPGSA,A,3,06,19,18,03,07,21,30,15,16,,,,1.7,1.0,1.4*30
$GPRMC,152426.000,A,5229.6378,N,01319.5683,E,1.73,105.17,070912,,,A*66
$GPGGA,152427.000,5229.6376,N,01319.5692,E,1,09,1.0,33.7,M,44.8,M,,0000*66
$GPGSA,A,3,06,19,18,03,07,21,30,15,16,,,,1.7,1.0,1.4*30
$GPRMC,152427.000,A,5229.6376,N,01319.5692,E,1.69,105.03,070912,,,A*67
$GPGGA,152428.000,5229.6377,N,01319.5699,E,1,08,1.0,33.4,M,44.8,M,,0000*61
$GPGSA,A,3,06,19,18,03,07,21,30,15,,,,,1.7,1.0,1.4*37
$GPRMC,152428.000,A,5229.6377,N,01319.5699,E,1.21,81.40,070912,,,A*54
$GPGGA,152429.000,5229.6378,N,01319.5707,E,1,08,1.0,33.0,M,44.8,M,,0000*6D
$GPGSA,A,3,06,19,18,03,07,21,30,15,,,,,1.7,1.0,1.4*37
$GPGSV,3,1,12,06,80,265,40,03,64,285,40,18,52,098,41,16,51,213,*70
$GPGSV,3,2,12,22,41,162,27,21,37,070,41,19,34,290,40,30,25,189,25*78
$GPGSV,3,3,12,07,14,307,39,15,14,055,25,08,08,343,21,26,08,019,25*74
$GPRMC,152429.000,A,5229.6378,N,01319.5707,E,1.32,79.15,070912,,,A*59
$GPGGA,152430.000,5229.6379,N,01319.5714,E,1,09,1.0,32.6,M,44.8,M,,0000*60
$GPGSA,A,3,06,19,18,03,07,21,30,15,16,,,,1.7,1.0,1.4*30
$GPRMC,152430.000,A,5229.6379,N,01319.5714,E,1.37,72.74,070912,,,A*5B
$GPGGA,152431.000,5229.6379,N,01319.5719,E,1,08,1.0,32.2,M,44.8,M,,0000*69
$GPGSA,A,3,06,19,18,03,07,21,30,15,,,,,1.7,1.0,1.4*37
$GPRMC,152432.000,A,5229.6380,N,01319.5726,E,1.24,75.40,070912,,,A*5C
$GPGGA,152433.000,5229.6382,N,01319.5735,E,1,09,1.0,31.6,M,44.8,M,,0000*67
$GPGSA,A,3,06,19,18,03,07,21,30,15,16,,,,1.7,1.0,1.4*30
$GPRMC,152433.000,A,5229.6382,N,01319.5735,E,1.56,75.44,070912,,,A*5C
$GPGGA,152434.000,5229.6382,N,01319.5742,E,1,09,1.0,31.3,M,44.8,M,,0000*65
$GPGSA,A,3,06,19,18,03,07,21,30,15,16,,,,1.7,1.0,1.4*30
$GPGSV,3,1,12,06,80,265,40,03,64,285,41,18,52,098,39,16,51,213,29*75
$GPGSV,3,2,12,22,41,162,30,21,37,070,40,19,34,290,41,30,25,189,25*7E
$GPGSV,3,3,12,07,14,307,33,15,14,055,25,08,08,343,22,26,08,019,29*71
$GPRMC,152434.000,A,5229.6382,N,01319.5742,E,1.32,93.74,070912,,,A*52
$GPGGA,152435.000,5229.6382,N,01319.5749,E,1,09,1.0,31.0,M,44.8,M,,0000*6C
$GPGSA,A,3,06,19,18,03,07,21,30,15,16,,,,1.7,1.0,1.4*30
$GPRMC,152435.000,A,5229.6382,N,01319.5749,E,1.30,84.91,070912,,,A*57
$GPGGA,152436.000,5229.6384,N,01319.5756,E,1,08,1.0,30.8,M,44.8,M,,0000*6F
$GPGSA,A,3,06,19,18,03,07,21,30,15,,,,,1.7,1.0,1.4*37
$GPRMC,152436.000,A,5229.6384,N,01319.5756,E,1.33,71.55,070912,,,A*5D
$GPGGA,152437.000,5229.6384,N,01319.5762,E,1,08,1.0,30.6,M,44.8,M,,0000*67
$GPGSA,A,3,06,19,18,03,07,21,30,15,,,,,1.7,1.0,1.4*37
$GPRMC,152437.000,A,5229.6384,N,01319.5762,E,1.07,83.95,070912,,,A*5D
$GPGGA,152438.000,5229.6386,N,01319.5768,E,1,09,1.0,30.5,M,44.8,M,,0000*62
$GPGSA,A,3,06,19,18,03,07,21,30,15,16,,,,1.7,1.0,1.4*30
$GPRMC,152438.000,A,5229.6386,N,01319.5768,E,1.12,67.30,070912,,,A*5B
$GPGGA,152439.000,5229.6388,N,01319.5773,E,1,09,1.0,30.5,M,44.8,M,,0000*67
$GPGSA,A,3,06,19,18,03,07,21,30,15,16,,,,1.7,1.0,1.4*30
$GPGSV,3,1,12,06,80,265,39,03,64,285,42,18,52,098,39,16,51,213,35*75
$GPGSV,3,2,12,22,41,162,30,21,37,070,28,19,34,290,42,30,25,189,26*70
$GPGSV,3,3,12,07,14,307,33,15,14,055,25,08,08,343,22,26,08,019,27*7F
$GPRMC,152439.000,A,5229.6388,N,01319.5773,E,0.98,70.83,070912,,,A*53
$GPGGA,152440.000,5229.6389,N,01319.5777,E,1,09,1.0,30.6,M,44.8,M,,0000*6F
$GPGSA,A,3,06,19,18,03,07,21,30,15,16,,,,1.7,1.0,1.4*30
$GPRMC,152441.000,A,5229.6392,N,01319.5782,E,1.01,55.52,070912,,,A*53
$GPGGA,152442.000,5229.6396,N,01319.5788,E,1,08,1.0,30.9,M,44.8,M,,0000*6D
$GPGSA,A,3,06,19,18,03,07,30,15,16,,,,,1.7,1.0,1.4*33
$GPRMC,152442.000,A,5229.6396,N,01319.5788,E,1.14,60.67,070912,,,A*5A
$GPGGA,152443.000,5229.6399,N,01319.5792,E,1,09,1.0,31.1,M,44.8,M,,0000*60
$GPGSA,A,3,06,19,18,03,07,21,30,15,16,,,,1.7,1.0,1.4*30
$GPRMC,152443.000,A,5229.6399,N,01319.5792,E,0.92,63.47,070912,,,A*51
$GPGGA,152444.000,5229.6403,N,01319.5796,E,1,09,1.0,31.3,M,44.8,M,,0000*65
$GPGSA,A,3,06,19,18,03,07,21,30,15,16,,,,1.7,1.0,1.4*30
$GPGSV,3,1,12,06,80,265,39,03,64,285,42,18,52,098,35,16,51,213,36*7A
$GPGSV,3,2,12,22,41,162,36,21,37,070,25,19,34,290,42,30,25,189,26*7B
$GPGSV,3,3,12,07,14,307,33,15,14,055,25,08,08,343,22,26,08,019,35*7C
$GPRMC,152444.000,A,5229.6403,N,01319.5796,E,0.91,42.12,070912,,,A*56
$GPGGA,152445.000,5229.6406,N,01319.5799,E,1,09,1.0,31.5,M,44.8,M,,0000*68
$GPGSA,A,3,06,19,18,03,07,21,30,15,16,,,,1.7,1.0,1.4*30
$GPRMC,152446.000,A,5229.6410,N,01319.5804,E,1.25,47.74,070912,,,A*59
$GPGGA,152447.000,5229.6415,N,01319.5808,E,1,09,1.0,32.0,M,44.8,M,,0000*69
$GPGSA,A,3,06,19,18,03,07,21,30,15,16,,,,1.7,1.0,1.4*30
$GPRMC,152447.000,A,5229.6415,N,01319.5808,E,1.23,47.91,070912,,,A*5C
$GPGGA,152448.000,5229.6419,N,01319.5812,E,1,09,1.0,32.2,M,44.8,M,,0000*63
$GPGSA,A,3,06,19,18,03,07,21,30,15,16,,,,1.7,1.0,1.4*30
$GPRMC,152448.000,A,5229.6419,N,01319.5812,E,1.21,39.61,070912,,,A*50
$GPGGA,152449.000,5229.6424,N,01319.5817,E,1,09,1.0,32.5,M,44.8,M,,0000*6E
$GPGSA,A,3,06,19,18,03,07,21,30,15,16,,,,1.7,1.0,1.4*30
$GPGSV,3,1,12,06,80,265,39,03,64,285,42,18,52,098,35,16,51,213,37*7B
$GPGSV,3,2,12,22,41,162,29,21,37,070,37,19,34,290,43,30,25,189,32*72
$GPGSV,3,3,12,07,14,307,32,15,14,055,26,08,08,343,22,26,08,019,30*7B
$GPRMC,152449.000,A,5229.6424,N,01319.5817,E,1.24,42.55,070912,,,A*54
$GPGGA,152450.000,5229.6429,N,01319.5821,E,1,09,1.0,32.7,M,44.8,M,,0000*6C
$GPGSA,A,3,06,19,18,03,07,21,30,15,16,,,,1.7,1.0,1.4*30
$GPRMC,152450.000,A,5229.6429,N,01319.5821,E,1.30,37.42,070912,,,A*55
$GPGGA,152451.000,5229.6433,N,01319.5824,E,1,09,1.0,32.8,M,44.8,M,,0000*6C
$GPGSA,A,3,06,19,18,03,07,21,30,15,16,,,,1.7,1.0,1.4*30
$GPRMC,152451.000,A,5229.6433,N,01319.5824,E,1.07,41.74,070912,,,A*5A
$GPGGA,152452.000,5229.6437,N,01319.5829,E,1,08,1.1,33.0,M,44.8,M,,0000*6F
$GPGSA,A,3,06,19,18,03,21,30,15,16,,,,,2.0,1.1,1.6*30
$GPRMC,152452.000,A,5229.6437,N,01319.5829,E,1.22,54.83,070912,,,A*5B
$GPGGA,152453.000,5229.6441,N,01319.5834,E,1,09,1.0,33.2,M,44.8,M,,0000*61
$GPGSA,A,3,06,19,18,03,07,21,30,15,16,,,,1.7,1.0,1.4*30
$GPRMC,152453.000,A,5229.6441,N,01319.5834,E,1.30,55.77,070912,,,A*5E
$GPGGA,152454.000,5229.6446,N,01319.5839,E,1,09,1.0,33.4,M,44.8,M,,0000*6A
$GPGSA,A,3,06,19,18,03,07,21,30,15,16,,,,1.7,1.0,1.4*30
$GPGSV,3,1,12,06,80,265,39,03,64,285,43,18,52,098,36,16,51,213,36*78
$GPGSV,3,2,12,22,41,162,,21,37,070,39,19,34,290,38,30,25,189,36*7F
$GPGSV,3,3,12,07,14,307,30,15,14,055,25,08,08,343,24,26,08,019,30*7C
$GPRMC,152454.000,A,5229.6446,N,01319.5839,E,1.33,44.02,070912,,,A*52
$GPGGA,152455.000,5229.6450,N,01319.5843,E,1,09,1.0,33.6,M,44.8,M,,0000*63
$GPGSA,A,3,06,19,18,03,07,21,30,15,16,,,,1.7,1.0,1.4*30
$GPRMC,152455.000,A,5229.6450,N,01319.5843,E,1.21,39.36,070912,,,A*57
$GPGGA,152456.000,5229.6455,N,01319.5847,E,1,09,1.0,33.8,M,44.8,M,,0000*6F
$GPGSA,A,3,06,19,18,03,07,21,30,15,16,,,,1.7,1.0,1.4*30
$GPRMC,152456.000,A,5229.6455,N,01319.5847,E,1.25,38.67,070912,,,A*54
$GPGGA,152457.000,5229.6460,N,01319.5851,E,1,09,1.0,34.0,M,44.8,M,,0000*60
$GPGSA,A,3,06,19,18,03,07,21,30,15,16,,,,1.7,1.0,1.4*30
$GPRMC,152457.000,A,5229.6460,N,01319.5851,E,1.39,33.44,070912,,,A*53
$GPGGA,152458.000,5229.6465,N,01319.5855,E,1,09,1.0,34.2,M,44.8,M,,0000*6C
$GPGSA,A,3,06,19,18,03,07,21,30,15,16,,,,1.7,1.0,1.4*30
$GPRMC,152458.000,A,5229.6465,N,01319.5855,E,1.39,34.68,070912,,,A*54
$GPGGA,152459.000,5229.6471,N,01319.5859,E,1,09,1.0,34.4,M,44.8,M,,0000*62
$GPGSA,A,3,06,19,18,03,07,21,30,15,16,,,,1.7,1.0,1.4*30
$GPGSV,3,1,12,06,80,265,39,03,64,285,43,18,52,098,43,16,51,213,31*7D
$GPGSV,3,2,12,22,41,162,33,21,37,070,31,19,34,290,38,30,25,189,27*77
$GPGSV,3,3,12,07,14,307,31,15,14,055,30,08,08,343,,26,08,019,29*77
$GPRMC,152459.000,A,5229.6471,N,01319.5859,E,1.54,27.56,070912,,,A*58
$GPGGA,152500.000,5229.6474,N,01319.5861,E,1,09,1.0,34.5,M,44.8,M,,0000*60
$GPGSA,A,3,06,19,18,03,07,21,30,15,16,,,,1.7,1.0,1.4*30
$GPRMC,152502.000,A,5229.6480,N,01319.5868,E,0.81,48.57,070912,,,A*5A
$GPGGA,152503.000,5229.6483,N,01319.5870,E,1,09,1.0,34.8,M,44.8,M,,0000*66
$GPGSA,A,3,06,19,18,03,07,21,30,15,16,,,,1.7,1.0,1.4*30
$GPRMC,152509.000,A,5229.6503,N,01319.5887,E,0.91,40.96,070912,,,A*5E
$GPGGA,152510.000,5229.6507,N,01319.5891,E,1,09,1.0,35.4,M,44.8,M,,0000*6B
$GPGSA,A,3,06,19,18,03,07,21,30,15,16,,,,1.7,1.0,1.4*30
$GPRMC,152510.000,A,5229.6507,N,01319.5891,E,1.16,42.90,070912,,,A*5F
$GPGGA,152511.000,5229.6510,N,01319.5894,E,1,09,1.0,35.3,M,44.8,M,,0000*6E
$GPGSA,A,3,06,19,18,03,07,21,30,15,16,,,,1.7,1.0,1.4*30
$GPRMC,152511.000,A,5229.6510,N,01319.5894,E,0.82,57.41,070912,,,A*59
$GPGGA,152512.000,5229.6513,N,01319.5897,E,1,09,1.0,35.3,M,44.8,M,,0000*6D
$GPGSA,A,3,06,19,18,03,07,21,30,15,16,,,,1.7,1.0,1.4*30
$GPRMC,152635.000,A,5229.6580,N,01319.5931,E,1.51,98.40,070912,,,A*56
$GPGGA,152636.000,5229.6579,N,01319.5937,E,1,09,1.2,36.0,M,44.8,M,,0000*6D
$GPGSA,A,3,06,19,18,03,22,07,21,15,16,,,,2.1,1.2,1.7*37
$GPRMC,152636.000,A,5229.6579,N,01319.5937,E,1.43,105.23,070912,,,A*66
$GPGGA,152637.000,5229.6577,N,01319.5942,E,1,10,0.9,35.9,M,44.8,M,,0000*68
$GPGSA,A,3,06,19,18,30,03,22,07,21,15,16,,,1.6,0.9,1.4*39
$GPRMC,152637.000,A,5229.6577,N,01319.5942,E,1.45,118.83,070912,,,A*6B
$GPGGA,152638.000,5229.6575,N,01319.5945,E,1,10,0.9,35.6,M,44.8,M,,0000*6D
$GPGSA,A,3,06,19,18,30,03,22,07,21,15,16,,,1.6,0.9,1.4*39
$GPRMC,152638.000,A,5229.6575,N,01319.5945,E,1.10,139.75,070912,,,A*6B
$GPGGA,152639.000,5229.6572,N,01319.5947,E,1,10,0.9,35.2,M,44.8,M,,0000*6D
$GPGSA,A,3,06,19,18,30,03,22,07,21,15,16,,,1.6,0.9,1.4*39
$GPGSV,3,1,12,06,81,259,41,03,65,284,40,18,53,096,33,16,50,212,40*71
$GPGSV,3,2,12,22,42,162,42,21,36,070,25,19,35,291,30,30,23,189,35*7B
$GPGSV,3,3,12,15,14,053,40,07,14,305,28,08,08,342,27,26,07,018,27*78
$GPRMC,152639.000,A,5229.6572,N,01319.5947,E,1.11,160.03,070912,,,A*63
$GPGGA,152640.000,5229.6568,N,01319.5949,E,1,10,0.9,34.7,M,44.8,M,,0000*62
$GPGSA,A,3,06,19,18,30,03,22,07,21,15,16,,,1.6,0.9,1.4*39
$GPRMC,152640.000,A,5229.6568,N,01319.5949,E,1.17,156.59,070912,,,A*64
$GPGGA,152641.000,5229.6565,N,01319.5952,E,1,10,0.9,34.2,M,44.8,M,,0000*61
$GPGSA,A,3,06,19,18,30,03,22,07,21,15,16,,,1.6,0.9,1.4*39
$GPRMC,152641.000,A,5229.6565,N,01319.5952,E,1.17,140.36,070912,,,A*6C
$GPGGA,152642.000,5229.6564,N,01319.5956,E,1,10,0.9,33.6,M,44.8,M,,0000*64
$GPGSA,A,3,06,19,18,30,03,22,07,21,15,16,,,1.6,0.9,1.4*39
$GPRMC,152642.000,A,5229.6564,N,01319.5956,E,1.03,114.18,070912,,,A*62
$GPGGA,152643.000,5229.6563,N,01319.5961,E,1,10,0.9,33.1,M,44.8,M,,0000*61
$GPGSA,A,3,06,19,18,30,03,22,07,21,15,16,,,1.6,0.9,1.4*39
$GPRMC,152643.000,A,5229.6563,N,01319.5961,E,1.19,94.41,070912,,,A*5E
$GPGGA,152644.000,5229.6562,N,01319.5967,E,1,09,1.0,32.6,M,44.8,M,,0000*67
$GPGSA,A,3,06,19,18,30,03,22,21,15,16,,,,1.9,1.0,1.6*3B
$GPGSV,3,1,12,06,81,259,41,03,65,284,41,18,53,096,26,16,50,212,37*74
$GPGSV,3,2,12,22,42,162,34,21,36,070,26,19,35,291,31,30,23,189,36*7B
$GPGSV,3,3,12,15,14,053,35,07,14,305,,08,08,342,28,26,07,018,27*7F
$GPRMC,152644.000,A,5229.6562,N,01319.5967,E,1.40,91.33,070912,,,A*52
$GPGGA,152645.000,5229.6561,N,01319.5974,E,1,10,0.9,32.3,M,44.8,M,,0000*62
$GPGSA,A,3,06,19,18,30,03,22,07,21,15,16,,,1.6,0.9,1.4*39
$GPRMC,152645.000,A,5229.6561,N,01319.5974,E,1.40,86.77,070912,,,A*54
$GPGGA,152646.000,5229.6562,N,01319.5979,E,1,10,0.9,32.1,M,44.8,M,,0000*6D
$GPGSA,A,3,06,19,18,30,03,22,07,21,15,16,,,1.6,0.9,1.4*39
$GPRMC,152646.000,A,5229.6562,N,01319.5979,E,1.32,65.28,070912,,,A*5B
$GPGGA,152647.000,5229.6562,N,01319.5986,E,1,10,0.9,32.0,M,44.8,M,,0000*6D
$GPGSA,A,3,06,19,18,30,03,22,07,21,15,16,,,1.6,0.9,1.4*39
$GPRMC,152647.000,A,5229.6562,N,01319.5986,E,1.44,71.55,070912,,,A*54
$GPGGA,152648.000,5229.6562,N,01319.5993,E,1,10,0.9,32.0,M,44.8,M,,0000*66
$GPGSA,A,3,06,19,18,30,03,22,07,21,15,16,,,1.6,0.9,1.4*39
$GPRMC,152648.000,A,5229.6562,N,01319.5993,E,1.46,68.30,070912,,,A*56
$GPGGA,152649.000,5229.6563,N,01319.5999,E,1,10,0.9,31.9,M,44.8,M,,0000*66
$GPGSA,A,3,06,19,18,30,03,22,07,21,15,16,,,1.6,0.9,1.4*39
$GPGSV,3,1,12,06,81,259,37,03,65,284,39,18,53,096,27,16,50,212,40*7B
$GPGSV,3,2,12,22,42,162,23,21,36,070,26,19,35,291,37,30,23,189,30*7D
$GPGSV,3,3,12,15,14,053,35,07,14,305,33,08,08,342,28,26,07,018,27*7F
$GPRMC,152649.000,A,5229.6563,N,01319.5999,E,1.45,59.94,070912,,,A*53
$GPGGA,152650.000,5229.6564,N,01319.6005,E,1,10,0.9,31.9,M,44.8,M,,0000*66
$GPGSA,A,3,06,19,18,30,03,22,07,21,15,16,,,1.6,0.9,1.4*39
$GPRMC,152650.000,A,5229.6564,N,01319.6005,E,1.36,62.18,070912,,,A*5B
$GPGGA,152651.000,5229.6564,N,01319.6011,E,1,09,0.9,31.9,M,44.8,M,,0000*6A
$GPGSA,A,3,06,19,30,03,22,07,21,15,16,,,,1.7,0.9,1.4*31
$GPRMC,152651.000,A,5229.6564,N,01319.6011,E,1.32,64.52,070912,,,A*53
$GPGGA,152652.000,5229.6565,N,01319.6017,E,1,10,0.9,31.9,M,44.8,M,,0000*66
$GPGSA,A,3,06,19,18,30,03,22,07,21,15,16,,,1.6,0.9,1.4*39
$GPRMC,152652.000,A,5229.6565,N,01319.6017,E,1.39,61.75,070912,,,A*5C
$GPGGA,152653.000,5229.6566,N,01319.6023,E,1,10,0.9,32.1,M,44.8,M,,0000*68
$GPGSA,A,3,06,19,18,30,03,22,07,21,15,16,,,1.6,0.9,1.4*39
$GPRMC,152653.000,A,5229.6566,N,01319.6023,E,1.12,64.18,070912,,,A*5E
$GPGGA,152654.000,5229.6566,N,01319.6029,E,1,10,0.9,32.1,M,44.8,M,,0000*65
$GPGSA,A,3,06,19,18,30,03,22,07,21,15,16,,,1.6,0.9,1.4*39
$GPGSV,3,1,12,06,81,259,39,03,65,284,40,18,53,096,29,16,50,212,38*7A
$GPGSV,3,2,12,22,42,162,24,21,36,070,26,19,35,291,37,30,23,189,25*7E
$GPGSV,3,3,12,15,14,053,32,07,14,305,39,08,08,342,27,26,07,018,27*7D
$GPRMC,152654.000,A,5229.6566,N,01319.6029,E,1.22,61.21,070912,,,A*5F
$GPGGA,152655.000,5229.6567,N,01319.6034,E,1,10,0.9,32.2,M,44.8,M,,0000*6A
$GPGSA,A,3,06,19,18,30,03,22,07,21,15,16,,,1.6,0.9,1.4*39
$GPRMC,152655.000,A,5229.6567,N,01319.6034,E,1.26,58.63,070912,,,A*5B
$GPGGA,152656.000,5229.6568,N,01319.6039,E,1,10,0.9,32.2,M,44.8,M,,0000*6B
$GPGSA,A,3,06,19,18,30,03,22,07,21,15,16,,,1.6,0.9,1.4*39
$GPRMC,152656.000,A,5229.6568,N,01319.6039,E,0.98,61.84,070912,,,A*5D
$GPGGA,152657.000,5229.6568,N,01319.6044,E,1,09,1.2,32.3,M,44.8,M,,0000*63
$GPGSA,A,3,06,19,18,03,22,07,21,15,16,,,,2.1,1.2,1.7*37
$GPRMC,152658.000,A,5229.6568,N,01319.6050,E,1.21,74.52,070912,,,A*50
$GPGGA,152659.000,5229.6570,N,01319.6055,E,1,09,1.2,32.5,M,44.8,M,,0000*62
$GPGSA,A,3,06,19,18,03,22,07,21,15,16,,,,2.1,1.2,1.7*37
$GPGSV,3,1,12,06,81,259,39,03,65,284,36,18,53,096,29,16,50,212,31*72
$GPGSV,3,2,12,22,42,162,24,21,36,070,26,19,35,291,37,30,23,189,*79
$GPGSV,3,3,12,15,14,053,30,07,14,305,44,08,08,342,27,26,07,018,27*75
$GPRMC,152659.000,A,5229.6570,N,01319.6055,E,1.10,59.86,070912,,,A*59
$GPGGA,152700.000,5229.6572,N,01319.6061,E,1,08,1.2,32.6,M,44.8,M,,0000*68
$GPGSA,A,3,06,19,18,03,22,07,15,16,,,,,2.1,1.2,1.7*34
$GPRMC,152700.000,A,5229.6572,N,01319.6061,E,1.29,57.64,070912,,,A*59
$GPGGA,152701.000,5229.6575,N,01319.6067,E,1,08,1.2,32.7,M,44.8,M,,0000*69
$GPGSA,A,3,06,19,18,03,22,07,15,16,,,,,2.1,1.2,1.7*34
$GPRMC,152701.000,A,5229.6575,N,01319.6067,E,1.19,61.62,070912,,,A*59
$GPGGA,152702.000,5229.6577,N,01319.6072,E,1,09,1.2,32.8,M,44.8,M,,0000*62
$GPGSA,A,3,06,19,18,03,22,07,21,15,16,,,,2.1,1.2,1.7*37
$GPRMC,152702.000,A,5229.6577,N,01319.6072,E,0.90,57.61,070912,,,A*5A
$GPGGA,152703.000,5229.6578,N,01319.6077,E,1,09,1.2,32.9,M,44.8,M,,0000*68
$GPGSA,A,3,06,19,18,03,22,07,21,15,16,,,,2.1,1.2,1.7*37
$GPRMC,152703.000,A,5229.6578,N,01319.6077,E,0.92,72.73,070912,,,A*57
$GPGGA,152704.000,5229.6580,N,01319.6082,E,1,09,1.2,33.0,M,44.8,M,,0000*6A
$GPGSA,A,3,06,19,18,03,22,07,21,15,16,,,,2.1,1.2,1.7*37
$GPGSV,3,1,12,06,81,259,37,03,65,284,41,18,53,096,26,16,50,212,31*73
$GPGSV,3,2,12,22,42,162,24,21,36,070,26,19,35,291,38,30,23,189,*76
$GPGSV,3,3,12,15,14,053,34,07,14,305,43,08,08,342,26,26,07,018,26*76
$GPRMC,152704.000,A,5229.6580,N,01319.6082,E,0.96,66.17,070912,,,A*5E
$GPGGA,152705.000,5229.6583,N,01319.6088,E,1,09,1.2,33.0,M,44.8,M,,0000*62
$GPGSA,A,3,06,19,18,03,22,07,21,15,16,,,,2.1,1.2,1.7*37
$GPRMC,152705.000,A,5229.6583,N,01319.6088,E,1.39,62.05,070912,,,A*55
$GPGGA,152706.000,5229.6584,N,01319.6094,E,1,10,0.9,33.0,M,44.8,M,,0000*69
$GPGSA,A,3,06,19,18,30,03,22,07,21,15,16,,,1.6,0.9,1.4*39
$GPRMC,152706.000,A,5229.6584,N,01319.6094,E,1.02,85.45,070912,,,A*59
$GPGGA,152707.000,5229.6586,N,01319.6101,E,1,09,1.2,33.0,M,44.8,M,,0000*65
$GPGSA,A,3,06,19,18,03,22,07,21,15,16,,,,2.1,1.2,1.7*37
$GPRMC,152707.000,A,5229.6586,N,01319.6101,E,1.19,76.47,070912,,,A*53
$GPGGA,152708.000,5229.6586,N,01319.6106,E,1,08,1.2,32.9,M,44.8,M,,0000*64
$GPGSA,A,3,06,19,18,03,22,07,21,16,,,,,2.3,1.2,1.9*3F
$GPRMC,152708.000,A,5229.6586,N,01319.6106,E,1.09,107.79,070912,,,A*60
$GPGGA,152709.000,5229.6586,N,01319.6110,E,1,09,1.2,33.0,M,44.8,M,,0000*6B
$GPGSA,A,3,06,19,18,15,03,22,07,21,16,,,,2.1,1.2,1.7*37
$GPGSV,3,1,12,06,81,259,36,03,65,284,41,18,53,096,28,16,50,212,31*7C
$GPGSV,3,2,12,22,42,162,24,21,36,070,26,19,35,291,39,30,23,189,*77
$GPGSV,3,3,12,15,14,053,34,07,14,305,40,08,08,342,26,26,07,018,26*75
$GPRMC,152709.000,A,5229.6586,N,01319.6110,E,0.82,110.00,070912,,,A*6C
$GPGGA,152710.000,5229.6588,N,01319.6116,E,1,09,1.2,33.0,M,44.8,M,,0000*6B
$GPGSA,A,3,06,19,18,15,03,22,07,21,16,,,,2.1,1.2,1.7*37
$GPRMC,152710.000,A,5229.6588,N,01319.6116,E,1.30,89.58,070912,,,A*58
$GPGGA,152711.000,5229.6589,N,01319.6122,E,1,09,1.2,33.0,M,44.8,M,,0000*6C
$GPGSA,A,3,06,19,18,15,03,22,07,21,16,,,,2.1,1.2,1.7*37
$GPRMC,152711.000,A,5229.6589,N,01319.6122,E,1.22,86.54,070912,,,A*5F
$GPGGA,152712.000,5229.6591,N,01319.6128,E,1,08,1.2,32.9,M,44.8,M,,0000*65
$GPGSA,A,3,06,19,15,03,22,07,21,16,,,,,2.1,1.2,1.8*31
$GPRMC,152712.000,A,5229.6591,N,01319.6128,E,1.36,71.44,070912,,,A*53
$GPGGA,152713.000,5229.6593,N,01319.6135,E,1,08,1.2,32.9,M,44.8,M,,0000*6A
$GPGSA,A,3,06,19,15,03,22,07,21,16,,,,,2.1,1.2,1.8*31
$GPRMC,152713.000,A,5229.6593,N,01319.6135,E,1.69,78.06,070912,,,A*59
$GPGGA,152714.000,5229.6596,N,01319.6141,E,1,08,1.2,32.9,M,44.8,M,,0000*6B
$GPGSA,A,3,06,19,15,03,22,07,21,16,,,,,2.1,1.2,1.8*31
$GPGSV,3,1,12,06,81,259,40,03,65,284,40,18,53,096,,16,50,212,32*75
$GPGSV,3,2,12,22,42,162,24,21,36,070,26,19,35,291,35,30,23,189,*7B
$GPGSV,3,3,12,15,14,053,35,07,14,305,35,08,08,342,27,26,07,018,22*73
$GPRMC,152714.000,A,5229.6596,N,01319.6141,E,1.39,70.03,070912,,,A*50
$GPGGA,152715.000,5229.6598,N,01319.6147,E,1,09,1.2,32.9,M,44.8,M,,0000*63
$GPGSA,A,3,06,19,18,15,03,22,07,21,16,,,,2.1,1.2,1.7*37
$GPRMC,152715.000,A,5229.6598,N,01319.6147,E,1.28,65.98,070912,,,A*5F
$GPGGA,152716.000,5229.6601,N,01319.6153,E,1,10,0.9,33.0,M,44.8,M,,0000*6C
$GPGSA,A,3,06,19,18,15,03,22,07,21,30,16,,,1.6,0.9,1.3*3E
$GPRMC,152716.000,A,5229.6601,N,01319.6153,E,1.31,70.58,070912,,,A*5A
$GPGGA,152717.000,5229.6604,N,01319.6159,E,1,10,0.9,33.2,M,44.8,M,,0000*60
$GPGSA,A,3,06,19,18,15,03,22,07,21,30,16,,,1.6,0.9,1.3*3E
$GPRMC,152717.000,A,5229.6604,N,01319.6159,E,1.34,71.44,070912,,,A*5D
$GPGGA,152718.000,5229.6606,N,01319.6164,E,1,10,0.9,33.3,M,44.8,M,,0000*62
$GPGSA,A,3,06,19,18,15,03,22,07,21,30,16,,,1.6,0.9,1.3*3E
$GPRMC,152718.000,A,5229.6606,N,01319.6164,E,0.82,83.99,070912,,,A*5F
$GPGGA,152719.000,5229.6608,N,01319.6168,E,1,10,0.9,33.6,M,44.8,M,,0000*64
$GPGSA,A,3,06,19,18,15,03,22,07,21,30,16,,,1.6,0.9,1.3*3E
$GPGSV,3,1,12,06,82,257,39,03,65,284,34,18,53,095,25,16,50,211,29*78
$GPGSV,3,2,12,22,42,162,24,21,36,070,26,19,35,291,29,30,23,189,22*76
$GPGSV,3,3,12,15,14,053,34,07,13,305,38,08,08,342,25,26,07,018,22*7A
$GPRMC,152720.000,A,5229.6610,N,01319.6174,E,1.15,96.80,070912,,,A*51
$GPGGA,152721.000,5229.6614,N,01319.6180,E,1,10,0.9,34.2,M,44.8,M,,0000*67
$GPGSA,A,3,06,19,18,15,03,22,07,21,30,16,,,1.6,0.9,1.3*3E
$GPRMC,152721.000,A,5229.6614,N,01319.6180,E,1.22,74.05,070912,,,A*5A
$GPGGA,152722.000,5229.6617,N,01319.6186,E,1,10,0.9,34.4,M,44.8,M,,0000*67
$GPGSA,A,3,06,19,18,15,03,22,07,21,30,16,,,1.6,0.9,1.3*3E
$GPRMC,152722.000,A,5229.6617,N,01319.6186,E,0.92,76.11,070912,,,A*51
$GPGGA,152723.000,5229.6620,N,01319.6192,E,1,10,0.9,34.6,M,44.8,M,,0000*65
$GPGSA,A,3,06,19,18,15,03,22,07,21,30,16,,,1.6,0.9,1.3*3E
$GPRMC,152723.000,A,5229.6620,N,01319.6192,E,1.07,82.54,070912,,,A*56
$GPGGA,152724.000,5229.6622,N,01319.6198,E,1,10,0.9,34.8,M,44.8,M,,0000*64
$GPGSA,A,3,06,19,18,15,03,22,07,21,30,16,,,1.6,0.9,1.3*3E
$GPGSV,3,1,12,06,82,257,38,03,65,284,43,18,53,095,26,16,50,211,30*72
$GPGSV,3,2,12,22,42,162,24,21,36,070,26,19,35,291,32,30,23,189,21*7F
$GPGSV,3,3,12,15,14,053,33,07,13,305,38,08,08,342,24,26,07,018,22*7C
$GPRMC,152724.000,A,5229.6622,N,01319.6198,E,0.86,86.75,070912,,,A*56
$GPGGA,152725.000,5229.6624,N,01319.6203,E,1,10,0.9,34.9,M,44.8,M,,0000*63
$GPGSA,A,3,06,19,18,15,03,22,07,21,30,16,,,1.6,0.9,1.3*3E
$GPRMC,152725.000,A,5229.6624,N,01319.6203,E,0.81,97.86,070912,,,A*5B
$GPGGA,152726.000,5229.6627,N,01319.6208,E,1,10,0.9,35.0,M,44.8,M,,0000*60
$GPGSA,A,3,06,19,18,15,03,22,07,21,30,16,,,1.6,0.9,1.3*3E
$GPRMC,152726.000,A,5229.6627,N,01319.6208,E,0.87,75.47,070912,,,A*57
$GPGGA,152727.000,5229.6631,N,01319.6213,E,1,09,1.0,35.1,M,44.8,M,,0000*6D
$GPGSA,A,3,06,19,18,03,22,07,21,30,16,,,,1.8,1.0,1.6*39
$GPRMC,152727.000,A,5229.6631,N,01319.6213,E,0.98,40.37,070912,,,A*54
$GPGGA,152728.000,5229.6634,N,01319.6217,E,1,09,1.0,35.2,M,44.8,M,,0000*60
$GPGSA,A,3,06,19,18,03,22,07,21,30,16,,,,1.8,1.0,1.6*39
$GPRMC,152731.000,A,5229.6641,N,01319.6233,E,1.24,69.17,070912,,,A*59
$GPGGA,152732.000,5229.6644,N,01319.6239,E,1,10,0.9,35.3,M,44.8,M,,0000*61
$GPGSA,A,3,06,19,18,15,03,22,07,21,30,16,,,1.6,0.9,1.3*3E
$GPRMC,152732.000,A,5229.6644,N,01319.6239,E,0.85,76.42,070912,,,A*51
$GPGGA,152733.000,5229.6645,N,01319.6244,E,1,10,0.9,35.3,M,44.8,M,,0000*6B
$GPGSA,A,3,06,19,18,15,03,22,07,21,30,16,,,1.6,0.9,1.3*3E
$GPRMC,152734.000,A,5229.6647,N,01319.6250,E,0.81,81.97,070912,,,A*5F
$GPGGA,152735.000,5229.6649,N,01319.6255,E,1,10,0.9,35.1,M,44.8,M,,0000*63
$GPGSA,A,3,06,19,18,15,03,22,07,21,30,16,,,1.6,0.9,1.3*3E
$GPRMC,152739.000,A,5229.6660,N,01319.6271,E,0.86,65.93,070912,,,A*5D
$GPGGA,152740.000,5229.6661,N,01319.6275,E,1,10,0.9,34.0,M,44.8,M,,0000*69
$GPGSA,A,3,06,19,18,15,03,22,07,21,30,16,,,1.6,0.9,1.3*3E
$GPRMC,152740.000,A,5229.6661,N,01319.6275,E,0.81,97.39,070912,,,A*5C
$GPGGA,152741.000,5229.6664,N,01319.6279,E,1,10,0.9,33.7,M,44.8,M,,0000*61
$GPGSA,A,3,06,19,18,15,03,22,07,21,30,16,,,1.6,0.9,1.3*3E
$GPRMC,152741.000,A,5229.6664,N,01319.6279,E,0.88,71.29,070912,,,A*54
$GPGGA,152742.000,5229.6667,N,01319.6282,E,1,10,0.9,33.4,M,44.8,M,,0000*66
$GPGSA,A,3,06,19,18,15,03,22,07,21,30,16,,,1.6,0.9,1.3*3E
$GPRMC,152750.000,A,5229.6691,N,01319.6293,E,0.81,49.92,070912,,,A*58
$GPGGA,152751.000,5229.6694,N,01319.6295,E,1,10,0.9,31.7,M,44.8,M,,0000*6F
$GPGSA,A,3,06,19,18,15,03,22,07,21,30,16,,,1.6,0.9,1.3*3E
$GPRMC,152753.000,A,5229.6700,N,01319.6303,E,1.01,72.19,070912,,,A*58
$GPGGA,152754.000,5229.6703,N,01319.6308,E,1,10,0.9,31.5,M,44.8,M,,0000*62
$GPGSA,A,3,06,19,18,15,03,22,07,21,30,16,,,1.6,0.9,1.3*3E
$GPGSV,3,1,12,06,82,256,39,03,65,284,43,18,53,095,38,16,50,211,33*7E
$GPGSV,3,2,12,22,43,161,32,21,36,070,37,19,35,291,43,30,23,189,27*7A
$GPGSV,3,3,12,15,14,053,37,07,13,305,33,08,08,342,23,26,07,017,25*7C
$GPRMC,152754.000,A,5229.6703,N,01319.6308,E,1.19,71.15,070912,,,A*51
$GPGGA,152755.000,5229.6706,N,01319.6313,E,1,09,1.0,31.4,M,44.8,M,,0000*6D
$GPGSA,A,3,06,19,18,15,03,07,21,30,16,,,,1.6,1.0,1.3*36
$GPRMC,152755.000,A,5229.6706,N,01319.6313,E,1.14,71.55,070912,,,A*56
$GPGGA,152756.000,5229.6709,N,01319.6317,E,1,10,0.9,31.3,M,44.8,M,,0000*62
$GPGSA,A,3,06,19,18,15,03,22,07,21,30,16,,,1.6,0.9,1.3*3E
$GPRMC,152756.000,A,5229.6709,N,01319.6317,E,1.08,62.73,070912,,,A*55
$GPGGA,152757.000,5229.6713,N,01319.6322,E,1,10,0.9,31.2,M,44.8,M,,0000*6F
$GPGSA,A,3,06,19,18,15,03,22,07,21,30,16,,,1.6,0.9,1.3*3E
$GPRMC,152757.000,A,5229.6713,N,01319.6322,E,1.18,54.36,070912,,,A*5C
$GPGGA,152758.000,5229.6717,N,01319.6327,E,1,10,0.9,31.2,M,44.8,M,,0000*61
$GPGSA,A,3,06,19,18,15,03,22,07,21,30,16,,,1.6,0.9,1.3*3E
$GPRMC,152758.000,A,5229.6717,N,01319.6327,E,1.33,65.40,070912,,,A*58
$GPGGA,152759.000,5229.6719,N,01319.6333,E,1,10,0.9,31.2,M,44.8,M,,0000*6B
$GPGSA,A,3,06,19,18,15,03,22,07,21,30,16,,,1.6,0.9,1.3*3E
$GPGSV,3,1,12,06,82,256,39,03,65,284,42,18,53,095,39,16,50,211,39*74
$GPGSV,3,2,12,22,43,161,35,21,36,070,34,19,35,291,41,30,23,189,27*7C
$GPGSV,3,3,12,15,14,053,37,07,13,305,34,08,08,342,27,26,07,017,25*7F
$GPRMC,152759.000,A,5229.6719,N,01319.6333,E,1.31,72.54,070912,,,A*53
$GPGGA,152800.000,5229.6722,N,01319.6339,E,1,10,0.9,31.2,M,44.8,M,,0000*6A
$GPGSA,A,3,06,19,18,15,03,22,07,21,30,16,,,1.6,0.9,1.3*3E
$GPRMC,152800.000,A,5229.6722,N,01319.6339,E,1.37,71.58,070912,,,A*5B
$GPGGA,152801.000,5229.6726,N,01319.6344,E,1,09,1.2,31.2,M,44.8,M,,0000*67
$GPGSA,A,3,06,19,18,15,03,22,07,21,16,,,,2.1,1.2,1.7*37
$GPRMC,152801.000,A,5229.6726,N,01319.6344,E,1.47,55.88,070912,,,A*58
$GPGGA,152802.000,5229.6730,N,01319.6349,E,1,10,0.9,31.2,M,44.8,M,,0000*6C
$GPGSA,A,3,06,19,18,15,03,22,07,21,30,16,,,1.6,0.9,1.3*3E
$GPRMC,152802.000,A,5229.6730,N,01319.6349,E,1.40,55.49,070912,,,A*5B
$GPGGA,152803.000,5229.6734,N,01319.6355,E,1,10,0.9,31.2,M,44.8,M,,0000*64
$GPGSA,A,3,06,19,18,15,03,22,07,21,30,16,,,1.6,0.9,1.3*3E
$GPRMC,152803.000,A,5229.6734,N,01319.6355,E,1.35,62.26,070912,,,A*5C
$GPGGA,152804.000,5229.6737,N,01319.6360,E,1,10,0.9,31.2,M,44.8,M,,0000*66
$GPGSA,A,3,06,19,18,15,03,22,07,21,30,16,,,1.6,0.9,1.3*3E
$GPGSV,3,1,12,06,82,256,39,03,65,284,42,18,53,095,40,16,50,211,39*7A
$GPGSV,3,2,12,22,43,161,36,21,36,070,40,19,35,291,41,30,23,189,25*7E
$GPGSV,3,3,12,15,14,053,36,07,13,305,42,08,08,342,25,26,07,017,25*7D
$GPRMC,152804.000,A,5229.6737,N,01319.6360,E,1.29,57.03,070912,,,A*52
$GPGGA,152805.000,5229.6740,N,01319.6365,E,1,10,0.9,31.2,M,44.8,M,,0000*62
$GPGSA,A,3,06,19,18,15,03,22,07,21,30,16,,,1.6,0.9,1.3*3E
$GPRMC,152805.000,A,5229.6740,N,01319.6365,E,1.14,64.92,070912,,,A*50
$GPGGA,152806.000,5229.6743,N,01319.6371,E,1,10,0.9,31.2,M,44.8,M,,0000*67
$GPGSA,A,3,06,19,18,15,03,22,07,21,30,16,,,1.6,0.9,1.3*3E
$GPRMC,152806.000,A,5229.6743,N,01319.6371,E,1.15,76.98,070912,,,A*5D
$GPGGA,152807.000,5229.6745,N,01319.6376,E,1,10,0.9,31.1,M,44.8,M,,0000*64
$GPGSA,A,3,06,19,18,15,03,22,07,21,30,16,,,1.6,0.9,1.3*3E
$GPRMC,152807.000,A,5229.6745,N,01319.6376,E,0.93,84.79,070912,,,A*50
$GPGGA,152808.000,5229.6746,N,01319.6379,E,1,10,0.9,31.1,M,44.8,M,,0000*67
$GPGSA,A,3,06,19,18,15,03,22,07,21,30,16,,,1.6,0.9,1.3*3E
$GPRMC,152809.000,A,5229.6748,N,01319.6385,E,1.23,77.51,070912,,,A*53
$GPGGA,152810.000,5229.6750,N,01319.6389,E,1,09,1.2,31.0,M,44.8,M,,0000*65
$GPGSA,A,3,06,19,18,15,03,22,07,21,16,,,,2.1,1.2,1.7*37
$GPRMC,152810.000,A,5229.6750,N,01319.6389,E,0.85,74.30,070912,,,A*57
$GPGGA,152811.000,5229.6751,N,01319.6389,E,1,09,1.2,31.0,M,44.8,M,,0000*65
$GPGSA,A,3,06,19,18,15,03,22,07,21,16,,,,2.1,1.2,1.7*37
$GPRMC,152812.000,A,5229.6751,N,01319.6385,E,0.92,249.92,070912,,,A*6A
$GPGGA,152813.000,5229.6752,N,01319.6379,E,1,10,0.9,30.9,M,44.8,M,,0000*61
$GPGSA,A,3,06,19,18,15,03,22,07,21,30,16,,,1.6,0.9,1.3*3E
$GPRMC,152813.000,A,5229.6752,N,01319.6379,E,1.61,266.88,070912,,,A*60
$GPGGA,152814.000,5229.6752,N,01319.6372,E,1,10,0.9,30.9,M,44.8,M,,0000*6D
$GPGSA,A,3,06,19,18,15,03,22,07,21,30,16,,,1.6,0.9,1.3*3E
$GPGSV,3,1,12,06,82,255,40,03,65,283,36,18,53,095,45,16,50,211,36*79
$GPGSV,3,2,12,22,43,161,36,21,36,070,35,19,35,291,39,30,23,188,30*76
$GPGSV,3,3,12,15,14,053,41,07,13,305,41,08,08,342,33,26,07,017,24*78
$GPRMC,152814.000,A,5229.6752,N,01319.6372,E,1.60,263.93,070912,,,A*62
$GPGGA,152815.000,5229.6751,N,01319.6368,E,1,10,0.9,31.1,M,44.8,M,,0000*6D
$GPGSA,A,3,06,19,18,15,03,22,07,21,30,16,,,1.6,0.9,1.3*3E
$GPRMC,152815.000,A,5229.6751,N,01319.6368,E,1.12,237.78,070912,,,A*6A
$GPGGA,152816.000,5229.6751,N,01319.6365,E,1,10,0.9,31.3,M,44.8,M,,0000*61
$GPGSA,A,3,06,19,18,15,03,22,07,21,30,16,,,1.6,0.9,1.3*3E
$GPRMC,152816.000,A,5229.6751,N,01319.6365,E,0.84,236.69,070912,,,A*6B
$GPGGA,152817.000,5229.6751,N,01319.6363,E,1,10,0.9,31.5,M,44.8,M,,0000*60
$GPGSA,A,3,06,19,18,15,03,22,07,21,30,16,,,1.6,0.9,1.3*3E
$GPRMC,152818.000,A,5229.6752,N,01319.6359,E,0.96,264.08,070912,,,A*6A
$GPGGA,152819.000,5229.6751,N,01319.6356,E,1,10,0.9,31.7,M,44.8,M,,0000*6A
$GPGSA,A,3,06,19,18,15,03,22,07,21,30,16,,,1.6,0.9,1.3*3E
$GPGSV,3,1,12,06,82,255,38,03,66,283,41,18,53,095,42,16,49,211,40*7B
$GPGSV,3,2,12,22,43,161,37,21,36,070,35,19,35,291,40,30,23,188,27*7F
$GPGSV,3,3,12,15,14,053,40,07,13,305,42,08,08,342,22,26,07,017,25*7B
$GPRMC,152819.000,A,5229.6751,N,01319.6356,E,0.97,220.09,070912,,,A*67
$GPGGA,152820.000,5229.6750,N,01319.6357,E,1,10,0.9,31.8,M,44.8,M,,0000*6F
$GPGSA,A,3,06,19,18,15,03,22,07,21,30,16,,,1.6,0.9,1.3*3E
$GPRMC,152848.000,A,5229.6737,N,01319.6361,E,0.82,30.68,070912,,,A*57
$GPGGA,152849.000,5229.6738,N,01319.6365,E,1,10,0.9,25.9,M,44.8,M,,0000*6B
$GPGSA,A,3,06,19,18,15,03,22,07,21,30,16,,,1.6,0.9,1.3*3E
$GPGSV,3,1,12,06,82,253,35,03,66,283,40,18,53,094,43,16,49,211,32*74
$GPGSV,3,2,12,22,43,161,31,19,36,291,39,21,35,070,41,30,22,188,25*77
$GPGSV,3,3,12,15,14,053,36,07,13,304,43,08,09,342,25,26,07,017,32*7A
$GPRMC,152849.000,A,5229.6738,N,01319.6365,E,1.30,57.88,070912,,,A*5A
$GPGGA,152850.000,5229.6740,N,01319.6373,E,1,10,0.9,25.8,M,44.8,M,,0000*6A
$GPGSA,A,3,06,19,18,15,03,22,07,21,30,16,,,1.6,0.9,1.3*3E
$GPRMC,152850.000,A,5229.6740,N,01319.6373,E,1.86,64.00,070912,,,A*57
$GPGGA,152851.000,5229.6741,N,01319.6383,E,1,10,0.9,25.7,M,44.8,M,,0000*6A
$GPGSA,A,3,06,19,18,15,03,22,07,21,30,16,,,1.6,0.9,1.3*3E
$GPRMC,152851.000,A,5229.6741,N,01319.6383,E,2.34,76.32,070912,,,A*50
$GPGGA,152852.000,5229.6743,N,01319.6393,E,1,10,0.9,25.7,M,44.8,M,,0000*6A
$GPGSA,A,3,06,19,18,15,03,22,07,21,30,16,,,1.6,0.9,1.3*3E
$GPRMC,152852.000,A,5229.6743,N,01319.6393,E,2.25,74.58,070912,,,A*5E
$GPGGA,152853.000,5229.6746,N,01319.6402,E,1,10,0.9,25.7,M,44.8,M,,0000*61
$GPGSA,A,3,06,19,18,15,03,22,07,21,30,16,,,1.6,0.9,1.3*3E
$GPRMC,152853.000,A,5229.6746,N,01319.6402,E,2.20,66.98,070912,,,A*5F
$GPGGA,152854.000,5229.6748,N,01319.6412,E,1,10,0.9,25.8,M,44.8,M,,0000*66
$GPGSA,A,3,06,19,18,15,03,22,07,21,30,16,,,1.6,0.9,1.3*3E
$GPGSV,3,1,12,06,82,253,41,03,66,283,40,18,53,094,43,16,49,211,41*73
$GPGSV,3,2,12,22,43,161,36,19,36,291,40,21,35,070,31,30,22,188,25*79
$GPGSV,3,3,12,15,14,053,44,07,13,304,42,08,09,342,27,26,07,017,22*7D
$GPRMC,152854.000,A,5229.6748,N,01319.6412,E,2.10,71.21,070912,,,A*50
$GPGGA,152855.000,5229.6750,N,01319.6421,E,1,10,0.9,25.9,M,44.8,M,,0000*6F
$GPGSA,A,3,06,19,18,15,03,22,07,21,30,16,,,1.6,0.9,1.3*3E
$GPRMC,152855.000,A,5229.6750,N,01319.6421,E,2.13,76.30,070912,,,A*5C
$GPGGA,152856.000,5229.6751,N,01319.6430,E,1,10,0.9,26.1,M,44.8,M,,0000*66
$GPGSA,A,3,06,19,18,15,03,22,07,21,30,16,,,1.6,0.9,1.3*3E
$GPRMC,152856.000,A,5229.6751,N,01319.6430,E,1.94,86.12,070912,,,A*5D
$GPGGA,152857.000,5229.6752,N,01319.6438,E,1,10,0.9,26.2,M,44.8,M,,0000*6F
$GPGSA,A,3,06,19,18,15,03,22,07,21,30,16,,,1.6,0.9,1.3*3E
$GPRMC,152857.000,A,5229.6752,N,01319.6438,E,1.63,89.57,070912,,,A*51
$GPGGA,152858.000,5229.6753,N,01319.6447,E,1,10,0.9,26.3,M,44.8,M,,0000*68
$GPGSA,A,3,06,19,18,15,03,22,07,21,30,16,,,1.6,0.9,1.3*3E
$GPRMC,152858.000,A,5229.6753,N,01319.6447,E,2.03,78.96,070912,,,A*51
$GPGGA,152859.000,5229.6755,N,01319.6456,E,1,09,1.2,26.5,M,44.8,M,,0000*6B
$GPGSA,A,3,06,19,18,15,03,22,07,21,16,,,,2.1,1.2,1.7*37
$GPGSV,3,1,12,06,82,253,41,03,66,283,40,18,53,094,29,16,49,211,30*79
$GPGSV,3,2,12,22,43,161,36,19,36,291,37,21,35,070,31,30,22,188,*7E
$GPGSV,3,3,12,15,14,053,44,07,13,304,38,08,09,342,26,26,07,017,21*72
$GPRMC,152859.000,A,5229.6755,N,01319.6456,E,1.95,77.00,070912,,,A*5A
$GPGGA,152900.000,5229.6757,N,01319.6465,E,1,10,0.9,26.6,M,44.8,M,,0000*65
$GPGSA,A,3,06,19,18,15,03,22,07,21,30,16,,,1.6,0.9,1.3*3E
$GPRMC,152900.000,A,5229.6757,N,01319.6465,E,1.75,82.14,070912,,,A*54
$GPGGA,152901.000,5229.6758,N,01319.6473,E,1,10,0.9,26.8,M,44.8,M,,0000*62
$GPGSA,A,3,06,19,18,15,03,22,07,21,30,16,,,1.6,0.9,1.3*3E
$GPRMC,152901.000,A,5229.6758,N,01319.6473,E,1.75,82.49,070912,,,A*55
$GPGGA,152902.000,5229.6760,N,01319.6480,E,1,10,0.9,26.9,M,44.8,M,,0000*67
$GPGSA,A,3,06,19,18,15,03,22,07,21,30,16,,,1.6,0.9,1.3*3E
$GPRMC,152902.000,A,5229.6760,N,01319.6480,E,1.41,73.69,070912,,,A*5A
$GPGGA,152903.000,5229.6761,N,01319.6487,E,1,09,0.9,27.1,M,44.8,M,,0000*61
$GPGSA,A,3,06,19,15,03,22,07,21,30,16,,,,1.7,0.9,1.4*31
$GPRMC,152903.000,A,5229.6761,N,01319.6487,E,1.35,92.68,070912,,,A*50
$GPGGA,152904.000,5229.6761,N,01319.6493,E,1,09,0.9,27.3,M,44.8,M,,0000*61
$GPGSA,A,3,06,19,15,03,22,07,21,30,16,,,,1.7,0.9,1.4*31
$GPGSV,3,1,12,06,82,253,40,03,66,283,40,18,53,094,,16,49,211,29*7B
$GPGSV,3,2,12,22,43,161,33,19,36,291,38,21,35,070,37,30,22,188,30*71
$GPGSV,3,3,12,15,14,053,44,07,13,304,36,08,09,342,21,26,07,017,17*7E
$GPRMC,152904.000,A,5229.6761,N,01319.6493,E,1.25,94.65,070912,,,A*58
$GPGGA,152905.000,5229.6762,N,01319.6499,E,1,10,0.9,27.5,M,44.8,M,,0000*67
$GPGSA,A,3,06,19,18,15,03,22,07,21,30,16,,,1.6,0.9,1.3*3E
$GPRMC,152905.000,A,5229.6762,N,01319.6499,E,1.08,88.13,070912,,,A*53
$GPGGA,152906.000,5229.6763,N,01319.6503,E,1,10,0.9,27.7,M,44.8,M,,0000*65
$GPGSA,A,3,06,19,18,15,03,22,07,21,30,16,,,1.6,0.9,1.3*3E
$GPRMC,152929.000,A,5229.6803,N,01319.6557,E,1.20,83.51,070912,,,A*51
$GPGGA,152930.000,5229.6806,N,01319.6561,E,1,10,0.9,35.3,M,44.8,M,,0000*6F
$GPGSA,A,3,06,19,18,15,03,22,07,21,30,16,,,1.6,0.9,1.3*3E
$GPRMC,152930.000,A,5229.6806,N,01319.6561,E,1.32,70.93,070912,,,A*58
$GPGGA,152931.000,5229.6808,N,01319.6566,E,1,09,0.9,35.4,M,44.8,M,,0000*68
$GPGSA,A,3,06,19,18,15,03,22,07,30,16,,,,1.6,0.9,1.3*3D
$GPRMC,152931.000,A,5229.6808,N,01319.6566,E,1.41,70.15,070912,,,A*5A
$GPGGA,152932.000,5229.6810,N,01319.6571,E,1,09,0.9,35.4,M,44.8,M,,0000*64
$GPGSA,A,3,06,19,18,15,03,22,07,30,16,,,,1.6,0.9,1.3*3D
$GPRMC,152932.000,A,5229.6810,N,01319.6571,E,1.35,68.77,070912,,,A*58
$GPGGA,152933.000,5229.6813,N,01319.6574,E,1,10,0.9,35.6,M,44.8,M,,0000*69
$GPGSA,A,3,06,19,18,15,03,22,07,21,30,16,,,1.6,0.9,1.3*3E
$GPRMC,152933.000,A,5229.6813,N,01319.6574,E,1.07,57.15,070912,,,A*56
$GPGGA,152934.000,5229.6815,N,01319.6579,E,1,10,0.9,35.8,M,44.8,M,,0000*6B
$GPGSA,A,3,06,19,18,15,03,22,07,21,30,16,,,1.6,0.9,1.3*3E
$GPGSV,3,1,12,06,82,252,39,03,66,283,40,18,53,094,40,16,49,211,39*71
$GPGSV,3,2,12,22,43,161,26,19,36,291,39,21,35,070,29,30,22,188,28*72
$GPGSV,3,3,12,15,14,052,41,07,13,304,39,08,09,341,27,26,07,017,18*7F
$GPRMC,152934.000,A,5229.6815,N,01319.6579,E,1.36,68.57,070912,,,A*52
$GPGGA,152935.000,5229.6816,N,01319.6584,E,1,10,0.9,35.9,M,44.8,M,,0000*6A
$GPGSA,A,3,06,19,18,15,03,22,07,21,30,16,,,1.6,0.9,1.3*3E
$GPRMC,152935.000,A,5229.6816,N,01319.6584,E,1.37,75.77,070912,,,A*5D
$GPGGA,152936.000,5229.6818,N,01319.6590,E,1,10,0.9,35.9,M,44.8,M,,0000*62
$GPGSA,A,3,06,19,18,15,03,22,07,21,30,16,,,1.6,0.9,1.3*3E
$GPRMC,152936.000,A,5229.6818,N,01319.6590,E,1.41,77.87,070912,,,A*59
$GPGGA,152937.000,5229.6820,N,01319.6595,E,1,10,0.9,36.0,M,44.8,M,,0000*67
$GPGSA,A,3,06,19,18,15,03,22,07,21,30,16,,,1.6,0.9,1.3*3E
$GPRMC,152937.000,A,5229.6820,N,01319.6595,E,1.58,68.89,070912,,,A*5E
$GPGGA,152938.000,5229.6822,N,01319.6601,E,1,10,0.9,35.9,M,44.8,M,,0000*6E
$GPGSA,A,3,06,19,18,15,03,22,07,21,30,16,,,1.6,0.9,1.3*3E
$GPRMC,152938.000,A,5229.6822,N,01319.6601,E,1.51,72.15,070912,,,A*5A
$GPGGA,152939.000,5229.6823,N,01319.6607,E,1,10,0.9,35.8,M,44.8,M,,0000*69
$GPGSA,A,3,06,19,18,15,03,22,07,21,30,16,,,1.6,0.9,1.3*3E
$GPGSV,3,1,12,06,82,251,39,03,66,283,40,18,53,094,42,16,49,211,32*7B
$GPGSV,3,2,12,22,43,161,26,19,36,291,38,21,35,070,35,30,22,188,23*75
$GPGSV,3,3,12,15,14,052,41,07,13,304,38,08,09,341,24,26,07,017,18*7D
$GPRMC,152939.000,A,5229.6823,N,01319.6607,E,1.44,79.66,070912,,,A*57
$GPGGA,152940.000,5229.6824,N,01319.6613,E,1,10,0.9,35.7,M,44.8,M,,0000*6A
$GPGSA,A,3,06,19,18,15,03,22,07,21,30,16,,,1.6,0.9,1.3*3E
$GPRMC,152940.000,A,5229.6824,N,01319.6613,E,1.48,81.06,070912,,,A*56
$GPGGA,152941.000,5229.6825,N,01319.6620,E,1,10,0.9,35.6,M,44.8,M,,0000*6B
$GPGSA,A,3,06,19,18,15,03,22,07,21,30,16,,,1.6,0.9,1.3*3E
$GPRMC,152941.000,A,5229.6825,N,01319.6620,E,1.56,87.93,070912,,,A*53
$GPGGA,152942.000,5229.6825,N,01319.6626,E,1,10,0.9,35.5,M,44.8,M,,0000*6D
$GPGSA,A,3,06,19,18,15,03,22,07,21,30,16,,,1.6,0.9,1.3*3E
$GPRMC,152942.000,A,5229.6825,N,01319.6626,E,1.49,96.32,070912,,,A*53
$GPGGA,152943.000,5229.6825,N,01319.6632,E,1,10,0.9,35.4,M,44.8,M,,0000*68
$GPGSA,A,3,06,19,18,15,03,22,07,21,30,16,,,1.6,0.9,1.3*3E
$GPRMC,152943.000,A,5229.6825,N,01319.6632,E,1.21,94.98,070912,,,A*5B
$GPGGA,152944.000,5229.6825,N,01319.6638,E,1,10,0.9,35.2,M,44.8,M,,0000*63
$GPGSA,A,3,06,19,18,15,03,22,07,21,30,16,,,1.6,0.9,1.3*3E
$GPGSV,3,1,12,06,82,251,41,03,66,283,41,18,53,094,36,16,49,211,25*70
$GPGSV,3,2,12,22,43,161,26,19,36,291,32,21,35,070,35,30,22,188,22*7E
$GPGSV,3,3,12,15,14,052,42,07,13,304,40,08,09,341,21,26,07,017,23*7C
