$GPGGA,113738.469,6504.5683,N,02243.6915,W,1,03,5.9,34.8,M,60.9,M,,0000*76
$GPGSA,A,2,29,10,02,,,,,,,,,,6.0,5.9,1.0*30
$GPGSV,3,1,10,29,58,099,36,02,20,031,24,10,14,012,28,31,60,185,48*74
$GPGSV,3,2,10,30,48,255,36,25,33,097,37,23,30,309,31,16,19,259,30*74
$GPGSV,3,3,10,13,12,339,34,21,07,143,23*74
$GPRMC,113738.469,A,6504.5683,N,02243.6915,W,1.48,74.45,050912,,,A*4B
$GPGGA,113739.469,6504.5669,N,02243.7020,W,1,03,5.9,34.8,M,60.9,M,,0000*7D
$GPGSA,A,2,29,10,02,,,,,,,,,,6.0,5.9,1.0*30
$GPRMC,113739.469,A,6504.5669,N,02243.7020,W,1.61,252.75,050912,,,A*7E
$GPGGA,113740.465,6504.5664,N,02243.7050,W,1,03,5.9,34.8,M,60.9,M,,0000*75
$GPGSA,A,2,29,10,02,,,,,,,,,,6.0,5.9,1.0*30
$GPRMC,113742.469,A,6504.5580,N,02243.7400,W,2.96,252.67,050912,,,A*78
$GPGGA,113743.469,6504.5648,N,02243.7233,W,1,03,5.9,34.8,M,60.9,M,,0000*73
$GPGSA,A,2,29,10,02,,,,,,,,,,6.0,5.9,1.0*30
$GPGSV,3,1,10,29,58,099,36,02,20,031,29,10,14,012,27,31,60,185,47*79
$GPGSV,3,2,10,30,48,255,40,25,33,097,37,23,30,309,35,16,19,259,42*74
$GPGSV,3,3,10,13,12,339,34,21,07,143,31*77
$GPRMC,113743.469,A,6504.5648,N,02243.7233,W,1.53,263.69,050912,,,A*7E
$GPGGA,113744.465,6504.5646,N,02243.7337,W,1,03,5.9,34.8,M,60.9,M,,0000*73
$GPGSA,A,2,29,10,02,,,,,,,,,,6.0,5.9,1.0*30
$GPRMC,113749.465,A,6504.5644,N,02243.7142,W,3.32,69.96,050912,,,A*4C
$GPGGA,113750.469,6504.5634,N,02243.7321,W,1,03,5.9,34.8,M,60.9,M,,0000*78
$GPGSA,A,2,29,10,02,,,,,,,,,,6.0,5.9,1.0*30
$GPRMC,113750.469,A,6504.5634,N,02243.7321,W,4.57,71.65,050912,,,A*49
$GPGGA,113751.469,6504.5657,N,02243.7345,W,1,03,5.9,34.8,M,60.9,M,,0000*7E
$GPGSA,A,2,29,10,02,,,,,,,,,,6.0,5.9,1.0*30
$GPRMC,113754.469,A,6504.5682,N,02243.7257,W,1.43,87.52,050912,,,A*4D
$GPGGA,113755.469,6504.5671,N,02243.7437,W,1,03,5.9,34.8,M,60.9,M,,0000*7C
$GPGSA,A,2,29,10,02,,,,,,,,,,6.0,5.9,1.0*30
$GPRMC,113756.465,A,6504.5673,N,02243.7029,W,0.93,225.55,050912,,,A*77
$GPGGA,113757.465,6504.5672,N,02243.7165,W,1,03,5.9,34.8,M,60.9,M,,0000*73
$GPGSA,A,2,29,10,02,,,,,,,,,,6.0,5.9,1.0*30
$GPRMC,113757.465,A,6504.5672,N,02243.7165,W,1.44,279.94,050912,,,A*71
$GPGGA,113758.469,6504.5671,N,02243.7327,W,1,03,5.9,34.8,M,60.9,M,,0000*77
$GPGSA,A,2,29,10,02,,,,,,,,,,6.0,5.9,1.0*30
$GPGSV,3,1,10,29,58,098,40,02,20,031,36,10,14,012,33,31,60,185,42*77
$GPGSV,3,2,10,30,48,255,30,25,33,097,45,23,30,309,26,16,19,259,26*76
$GPGSV,3,3,10,13,12,339,33,21,07,143,40*76
$GPRMC,113802.469,A,6504.5668,N,02243.7492,W,1.97,90.27,050912,,,A*47
$GPGGA,113803.469,6504.5673,N,02243.7194,W,1,03,5.9,34.8,M,60.9,M,,0000*7E
$GPGSA,A,2,29,10,02,,,,,,,,,,6.0,5.9,1.0*30
$GPGSV,3,1,10,29,58,098,42,02,20,031,44,10,14,012,37,31,60,185,42*74
$GPGSV,3,2,10,30,48,255,29,25,33,097,38,23,30,309,29,16,19,259,25*78
$GPGSV,3,3,10,13,12,339,39,21,07,143,39*72
$GPRMC,113805.465,A,6504.5674,N,02243.7160,W,0.86,280.11,050912,,,A*7E
$GPGGA,113806.469,6504.5677,N,02243.7178,W,1,03,5.9,34.8,M,60.9,M,,0000*7D
$GPGSA,A,2,29,10,02,,,,,,,,,,6.0,5.9,1.0*30
$GPRMC,113809.465,A,6504.5672,N,02243.7274,W,0.91,126.59,050912,,,A*77
$GPGGA,113810.469,6504.5666,N,02243.7273,W,1,03,5.9,34.8,M,60.9,M,,0000*72
$GPGSA,A,2,29,10,02,,,,,,,,,,6.0,5.9,1.0*30
$GPRMC,113810.469,A,6504.5666,N,02243.7273,W,1.51,144.97,050912,,,A*7A
$GPGGA,113811.469,6504.5669,N,02243.7220,W,1,03,5.9,34.8,M,60.9,M,,0000*7A
$GPGSA,A,2,29,10,02,,,,,,,,,,6.0,5.9,1.0*30
$GPRMC,113812.465,A,6504.5674,N,02243.7138,W,1.94,328.40,050912,,,A*70
$GPGGA,113813.465,6504.5677,N,02243.7204,W,1,03,5.9,34.8,M,60.9,M,,0000*7D
$GPGSA,A,2,29,10,02,,,,,,,,,,6.0,5.9,1.0*30
$GPGSV,3,1,10,29,58,098,38,02,20,031,39,10,14,012,31,31,60,185,40*77
$GPGSV,3,2,10,30,48,255,33,25,33,097,42,23,30,309,27,16,19,259,24*71
$GPGSV,3,3,10,13,12,339,34,21,07,143,39*7F
$GPRMC,113813.465,A,6504.5677,N,02243.7204,W,3.25,286.30,050912,,,A*74
$GPGGA,113814.465,6504.5680,N,02243.7247,W,1,03,5.9,34.8,M,60.9,M,,0000*75
$GPGSA,A,2,29,10,02,,,,,,,,,,6.0,5.9,1.0*30
$GPRMC,113814.465,A,6504.5680,N,02243.7247,W,2.11,257.13,050912,,,A*77
$GPGGA,113815.469,6504.5680,N,02243.7219,W,1,03,5.9,34.8,M,60.9,M,,0000*73
$GPGSA,A,2,29,10,02,,,,,,,,,,6.0,5.9,1.0*30
$GPRMC,113815.469,A,6504.5680,N,02243.7219,W,2.49,77.59,050912,,,A*42
$GPGGA,113816.465,6504.5687,N,02243.7184,W,1,03,5.9,34.8,M,60.9,M,,0000*7C
$GPGSA,A,2,29,10,02,,,,,,,,,,6.0,5.9,1.0*30
$GPRMC,113816.465,A,6504.5687,N,02243.7184,W,4.27,80.57,050912,,,A*45
$GPGGA,113817.465,6504.5660,N,02243.7144,W,1,03,5.9,34.8,M,60.9,M,,0000*78
$GPGSA,A,2,29,10,02,,,,,,,,,,6.0,5.9,1.0*30
$GPRMC,113817.465,A,6504.5660,N,02243.7144,W,3.86,189.95,050912,,,A*7B
$GPGGA,113818.469,6504.5666,N,02243.7073,W,1,03,5.9,34.8,M,60.9,M,,0000*78
$GPGSA,A,2,29,10,02,,,,,,,,,,6.0,5.9,1.0*30
$GPGSV,3,1,10,29,58,098,37,02,20,031,40,10,14,012,39,31,60,185,37*7E
$GPGSV,3,2,10,30,48,255,34,25,33,097,39,23,30,309,31,16,19,259,27*7E
$GPGSV,3,3,10,13,12,339,33,21,07,143,32*73
$GPRMC,113818.469,A,6504.5666,N,02243.7073,W,2.62,161.84,050912,,,A*76
$GPGGA,113819.469,6504.5662,N,02243.7096,W,1,03,5.9,34.8,M,60.9,M,,0000*76
$GPGSA,A,2,29,10,02,,,,,,,,,,6.0,5.9,1.0*30
$GPRMC,113819.469,A,6504.5662,N,02243.7096,W,1.03,282.49,050912,,,A*73
$GPGGA,113820.465,6504.5661,N,02243.6967,W,1,03,5.9,34.8,M,60.9,M,,0000*75
$GPGSA,A,2,29,10,02,,,,,,,,,,6.0,5.9,1.0*30
$GPRMC,113820.465,A,6504.5661,N,02243.6967,W,6.32,269.67,050912,,,A*7C
$GPGGA,113821.465,6504.5654,N,02243.7063,W,1,03,5.9,34.8,M,60.9,M,,0000*7E
$GPGSA,A,2,29,10,02,,,,,,,,,,6.0,5.9,1.0*30
$GPRMC,113821.465,A,6504.5654,N,02243.7063,W,2.63,269.44,050912,,,A*76
$GPGGA,113822.469,6504.5656,N,02243.7158,W,1,03,5.9,34.8,M,60.9,M,,0000*7A
$GPGSA,A,2,29,10,02,,,,,,,,,,6.0,5.9,1.0*30
$GPRMC,113822.469,A,6504.5656,N,02243.7158,W,1.68,267.15,050912,,,A*70
$GPGGA,113823.469,6504.5658,N,02243.7117,W,1,03,5.9,34.8,M,60.9,M,,0000*7E
$GPGSA,A,2,29,10,02,,,,,,,,,,6.0,5.9,1.0*30
$GPGSV,3,1,10,29,58,098,37,02,20,031,34,10,14,012,35,31,60,185,38*7E
$GPGSV,3,2,10,30,48,255,37,25,33,097,32,23,30,309,39,16,19,259,31*79
$GPGSV,3,3,10,13,12,339,43,21,07,143,29*7E
$GPRMC,113825.465,A,6504.5706,N,02243.7049,W,0.96,316.43,050912,,,A*7A
$GPGGA,113826.469,6504.5707,N,02243.6742,W,1,03,5.9,34.8,M,60.9,M,,0000*77
$GPGSA,A,2,29,10,02,,,,,,,,,,6.0,5.9,1.0*30
$GPRMC,113826.469,A,6504.5707,N,02243.6742,W,1.62,257.97,050912,,,A*7E
$GPGGA,113827.469,6504.5722,N,02243.6769,W,1,03,5.9,34.8,M,60.9,M,,0000*78
$GPGSA,A,2,29,10,02,,,,,,,,,,6.0,5.9,1.0*30
$GPRMC,113834.000,A,6504.5658,N,02243.7126,W,0.84,11.61,050912,,,A*48
$GPGGA,113835.000,6504.5660,N,02243.7124,W,1,04,1.7,15.8,M,60.9,M,,0000*77
$GPGSA,A,3,30,29,10,02,,,,,,,,,2.0,1.7,1.0*3C
$GPRMC,114934.000,A,6504.5661,N,02243.7117,W,0.87,56.17,050912,,,A*47
$GPGGA,114935.000,6504.5663,N,02243.7112,W,1,09,0.9,37.3,M,60.9,M,,0000*7E
$GPGSA,A,3,30,16,31,29,10,02,25,21,13,,,,1.7,0.9,1.5*31
$GPRMC,114935.000,A,6504.5663,N,02243.7112,W,1.32,45.46,050912,,,A*48
$GPGGA,114936.000,6504.5664,N,02243.7105,W,1,10,0.8,37.2,M,60.9,M,,0000*74
$GPGSA,A,3,30,16,23,31,29,10,02,25,21,13,,,1.7,0.8,1.5*31
$GPRMC,114936.000,A,6504.5664,N,02243.7105,W,1.24,60.79,050912,,,A*46
$GPGGA,114937.000,6504.5665,N,02243.7098,W,1,10,0.8,37.2,M,60.9,M,,0000*71
$GPGSA,A,3,30,16,23,31,29,10,02,25,21,13,,,1.7,0.8,1.5*31
$GPRMC,114937.000,A,6504.5665,N,02243.7098,W,1.20,69.55,050912,,,A*40
$GPGGA,114938.000,6504.5665,N,02243.7090,W,1,09,1.0,37.1,M,60.9,M,,0000*74
$GPGSA,A,3,30,23,31,29,10,02,25,21,13,,,,1.9,1.0,1.6*32
$GPRMC,114938.000,A,6504.5665,N,02243.7090,W,1.38,72.82,050912,,,A*4E
$GPGGA,114939.000,6504.5665,N,02243.7082,W,1,09,0.9,37.1,M,60.9,M,,0000*7E
$GPGSA,A,3,30,16,23,31,29,10,25,21,13,,,,1.7,0.9,1.5*32
$GPGSV,3,1,11,29,56,090,34,31,55,180,39,30,53,254,39,23,32,304,36*72
$GPGSV,3,2,11,25,28,098,32,16,24,260,34,02,17,027,,13,16,336,34*72
$GPGSV,3,3,11,10,15,007,31,21,11,141,30,05,02,056,*49
$GPRMC,114939.000,A,6504.5665,N,02243.7082,W,1.41,75.82,050912,,,A*45
$GPGGA,114940.000,6504.5665,N,02243.7075,W,1,10,0.8,37.0,M,60.9,M,,0000*70
$GPGSA,A,3,30,16,23,31,29,10,02,25,21,13,,,1.7,0.8,1.5*31
$GPRMC,114940.000,A,6504.5665,N,02243.7075,W,1.08,83.60,050912,,,A*4B
$GPGGA,114941.000,6504.5665,N,02243.7072,W,1,10,0.8,36.9,M,60.9,M,,0000*7E
$GPGSA,A,3,30,16,23,31,29,10,02,25,21,13,,,1.7,0.8,1.5*31
$GPRMC,114952.000,A,6504.5661,N,02243.7073,W,0.98,294.68,050912,,,A*7E
$GPGGA,114953.000,6504.5664,N,02243.7082,W,1,10,0.8,35.3,M,60.9,M,,0000*7A
$GPGSA,A,3,30,16,23,31,29,10,02,25,21,13,,,1.7,0.8,1.5*31
$GPRMC,114953.000,A,6504.5664,N,02243.7082,W,1.75,308.39,050912,,,A*76
$GPGGA,114954.000,6504.5670,N,02243.7093,W,1,09,1.0,35.3,M,60.9,M,,0000*79
$GPGSA,A,3,30,23,31,29,10,02,25,21,13,,,,1.9,1.0,1.6*32
$GPGSV,3,1,11,29,56,089,37,31,55,180,33,30,53,254,36,23,32,304,34*7E
$GPGSV,3,2,11,25,28,098,32,16,25,260,,02,17,027,31,13,16,336,34*76
$GPGSV,3,3,11,10,15,007,29,21,11,141,22,05,03,056,20*40
$GPRMC,114954.000,A,6504.5670,N,02243.7093,W,2.75,326.29,050912,,,A*7A
$GPGGA,114955.000,6504.5678,N,02243.7106,W,1,09,1.0,35.2,M,60.9,M,,0000*7C
$GPGSA,A,3,30,23,31,29,10,02,25,21,13,,,,1.9,1.0,1.6*32
$GPRMC,114955.000,A,6504.5678,N,02243.7106,W,3.67,327.60,050912,,,A*70
$GPGGA,114956.000,6504.5687,N,02243.7120,W,1,10,0.8,35.2,M,60.9,M,,0000*7A
$GPGSA,A,3,30,16,23,31,29,10,02,25,21,13,,,1.7,0.8,1.5*31
$GPRMC,114956.000,A,6504.5687,N,02243.7120,W,3.89,325.66,050912,,,A*73
$GPGGA,114957.000,6504.5696,N,02243.7136,W,1,10,0.8,35.3,M,60.9,M,,0000*7D
$GPGSA,A,3,30,16,23,31,29,10,02,25,21,13,,,1.7,0.8,1.5*31
$GPRMC,114957.000,A,6504.5696,N,02243.7136,W,4.35,324.52,050912,,,A*73
$GPGGA,114958.000,6504.5705,N,02243.7153,W,1,10,0.8,35.4,M,60.9,M,,0000*7D
$GPGSA,A,3,30,16,23,31,29,10,02,25,21,13,,,1.7,0.8,1.5*31
$GPRMC,114958.000,A,6504.5705,N,02243.7153,W,4.36,321.16,050912,,,A*72
$GPGGA,114959.000,6504.5714,N,02243.7171,W,1,10,0.8,35.6,M,60.9,M,,0000*7E
$GPGSA,A,3,30,16,23,31,29,10,02,25,21,13,,,1.7,0.8,1.5*31
$GPGSV,3,1,11,29,56,089,36,31,55,180,28,30,53,254,38,23,32,304,32*7D
$GPGSV,3,2,11,25,28,098,33,16,25,260,27,02,17,027,32,13,16,336,26*72
$GPGSV,3,3,11,10,15,007,27,21,11,141,33,05,03,056,18*45
$GPRMC,114959.000,A,6504.5714,N,02243.7171,W,4.43,320.27,050912,,,A*72
$GPGGA,115000.000,6504.5722,N,02243.7188,W,1,10,0.8,35.8,M,60.9,M,,0000*77
$GPGSA,A,3,30,16,23,31,29,10,02,25,21,13,,,1.7,0.8,1.5*31
$GPRMC,115000.000,A,6504.5722,N,02243.7188,W,4.25,318.37,050912,,,A*7F
$GPGGA,115001.000,6504.5729,N,02243.7206,W,1,10,0.8,35.9,M,60.9,M,,0000*79
$GPGSA,A,3,30,16,23,31,29,10,02,25,21,13,,,1.7,0.8,1.5*31
$GPRMC,115001.000,A,6504.5729,N,02243.7206,W,4.04,313.04,050912,,,A*78
$GPGGA,115002.000,6504.5735,N,02243.7227,W,1,09,0.9,36.0,M,60.9,M,,0000*77
$GPGSA,A,3,30,16,23,31,29,10,25,21,13,,,,1.8,0.9,1.5*3D
$GPRMC,115002.000,A,6504.5735,N,02243.7227,W,4.01,303.57,050912,,,A*77
$GPGGA,115003.000,6504.5739,N,02243.7253,W,1,10,0.8,36.0,M,60.9,M,,0000*70
$GPGSA,A,3,30,16,23,31,29,10,02,25,21,13,,,1.7,0.8,1.5*31
$GPRMC,115003.000,A,6504.5739,N,02243.7253,W,4.17,288.22,050912,,,A*7E
$GPGGA,115004.000,6504.5739,N,02243.7282,W,1,10,0.8,36.0,M,60.9,M,,0000*7B
$GPGSA,A,3,30,16,23,31,29,10,02,25,21,13,,,1.7,0.8,1.5*31
$GPGSV,3,1,11,29,56,089,35,31,55,180,34,30,53,254,30,23,32,304,34*7D
$GPGSV,3,2,11,25,28,098,28,16,25,260,33,02,17,027,33,13,16,336,22*78
$GPGSV,3,3,11,10,15,007,31,21,11,141,29,05,03,056,25*47
$GPRMC,115004.000,A,6504.5739,N,02243.7282,W,4.65,271.14,050912,,,A*73
$GPGGA,115005.000,6504.5736,N,02243.7315,W,1,10,0.8,35.9,M,60.9,M,,0000*70
$GPGSA,A,3,30,16,23,31,29,10,02,25,21,13,,,1.7,0.8,1.5*31
$GPRMC,115005.000,A,6504.5736,N,02243.7315,W,5.29,255.03,050912,,,A*7B
$GPGGA,115006.000,6504.5728,N,02243.7345,W,1,09,1.2,35.9,M,60.9,M,,0000*7A
$GPGSA,A,3,30,16,23,31,29,10,02,25,13,,,,2.7,1.2,2.5*39
$GPRMC,115006.000,A,6504.5728,N,02243.7345,W,5.36,237.83,050912,,,A*70
$GPGGA,115007.000,6504.5719,N,02243.7374,W,1,10,0.8,35.9,M,60.9,M,,0000*78
$GPGSA,A,3,30,16,23,31,29,10,02,25,21,13,,,1.7,0.8,1.5*31
$GPRMC,115007.000,A,6504.5719,N,02243.7374,W,5.59,233.12,050912,,,A*74
$GPGGA,115008.000,6504.5708,N,02243.7403,W,1,10,0.8,35.8,M,60.9,M,,0000*71
$GPGSA,A,3,30,16,23,31,29,10,02,25,21,13,,,1.7,0.8,1.5*31
$GPRMC,115008.000,A,6504.5708,N,02243.7403,W,6.02,226.78,050912,,,A*79
$GPGGA,115009.000,6504.5696,N,02243.7431,W,1,10,0.8,35.7,M,60.9,M,,0000*78
$GPGSA,A,3,30,16,23,31,29,10,02,25,21,13,,,1.7,0.8,1.5*31
$GPGSV,3,1,11,29,56,089,31,31,55,180,31,30,53,254,42,23,32,304,35*78
$GPGSV,3,2,11,25,28,098,29,16,25,260,32,02,17,027,28,13,16,336,17*74
$GPGSV,3,3,11,10,15,007,25,21,11,141,19,05,03,056,23*47
$GPRMC,115009.000,A,6504.5696,N,02243.7431,W,6.15,223.55,050912,,,A*73
$GPGGA,115010.000,6504.5682,N,02243.7459,W,1,10,0.8,35.5,M,60.9,M,,0000*79
$GPGSA,A,3,30,16,23,31,29,10,02,25,21,13,,,1.7,0.8,1.5*31
$GPRMC,115010.000,A,6504.5682,N,02243.7459,W,6.30,221.27,050912,,,A*70
$GPGGA,115011.000,6504.5669,N,02243.7487,W,1,10,0.8,35.2,M,60.9,M,,0000*79
$GPGSA,A,3,30,16,23,31,29,10,02,25,21,13,,,1.7,0.8,1.5*31
$GPRMC,115011.000,A,6504.5669,N,02243.7487,W,6.35,220.27,050912,,,A*73
$GPGGA,115012.000,6504.5655,N,02243.7515,W,1,10,0.8,35.0,M,60.9,M,,0000*7D
$GPGSA,A,3,30,16,23,31,29,10,02,25,21,13,,,1.7,0.8,1.5*31
$GPRMC,115012.000,A,6504.5655,N,02243.7515,W,6.40,219.75,050912,,,A*7A
$GPGGA,115013.000,6504.5641,N,02243.7542,W,1,09,0.9,34.7,M,60.9,M,,0000*74
$GPGSA,A,3,30,16,23,31,29,10,02,25,21,,,,1.8,0.9,1.5*3D
$GPRMC,115013.000,A,6504.5641,N,02243.7542,W,6.31,219.13,050912,,,A*7A
$GPGGA,115014.000,6504.5627,N,02243.7571,W,1,09,0.8,34.5,M,60.9,M,,0000*70
$GPGSA,A,3,16,23,31,29,10,02,25,21,13,,,,1.8,0.8,1.6*3E
$GPGSV,3,1,11,29,56,089,32,31,55,180,36,30,53,254,32,23,32,304,30*7E
$GPGSV,3,2,11,25,28,098,34,16,25,260,32,02,17,027,29,13,16,336,13*7D
$GPGSV,3,3,11,10,15,007,28,21,11,141,20,05,03,056,26*45
$GPRMC,115014.000,A,6504.5627,N,02243.7571,W,6.32,221.64,050912,,,A*75
$GPGGA,115015.000,6504.5615,N,02243.7598,W,1,10,0.8,34.5,M,60.9,M,,0000*7F
$GPGSA,A,3,30,16,23,31,29,10,02,25,21,13,,,1.7,0.8,1.5*31
$GPRMC,115015.000,A,6504.5615,N,02243.7598,W,5.94,221.60,050912,,,A*79
$GPGGA,115016.000,6504.5602,N,02243.7624,W,1,10,0.8,34.5,M,60.9,M,,0000*7E
$GPGSA,A,3,30,16,23,31,29,10,02,25,21,13,,,1.7,0.8,1.5*31
$GPRMC,115016.000,A,6504.5602,N,02243.7624,W,5.82,218.76,050912,,,A*72
$GPGGA,115017.000,6504.5589,N,02243.7649,W,1,10,0.8,34.5,M,60.9,M,,0000*74
$GPGSA,A,3,30,16,23,31,29,10,02,25,21,13,,,1.7,0.8,1.5*31
$GPRMC,115017.000,A,6504.5589,N,02243.7649,W,5.83,218.40,050912,,,A*7C
$GPGGA,115018.000,6504.5576,N,02243.7675,W,1,10,0.8,34.6,M,60.9,M,,0000*77
$GPGSA,A,3,30,16,23,31,29,10,02,25,21,13,,,1.7,0.8,1.5*31
$GPRMC,115018.000,A,6504.5576,N,02243.7675,W,5.90,218.27,050912,,,A*7F
$GPGGA,115019.000,6504.5563,N,02243.7699,W,1,10,0.8,34.7,M,60.9,M,,0000*71
$GPGSA,A,3,30,16,23,31,29,10,02,25,21,13,,,1.7,0.8,1.5*31
$GPGSV,3,1,11,29,56,089,32,31,55,180,35,30,53,254,38,23,32,304,28*7E
$GPGSV,3,2,11,25,28,098,27,16,25,260,33,02,17,027,33,13,16,336,33*77
$GPGSV,3,3,11,10,15,007,24,21,11,141,21,05,03,056,26*48
$GPRMC,115019.000,A,6504.5563,N,02243.7699,W,5.81,218.25,050912,,,A*7A
$GPGGA,115020.000,6504.5551,N,02243.7724,W,1,10,0.8,34.9,M,60.9,M,,0000*73
$GPGSA,A,3,30,16,23,31,29,10,02,25,21,13,,,1.7,0.8,1.5*31
$GPRMC,115020.000,A,6504.5551,N,02243.7724,W,5.65,219.40,050912,,,A*7E
$GPGGA,115021.000,6504.5540,N,02243.7748,W,1,10,0.8,35.2,M,60.9,M,,0000*72
$GPGSA,A,3,30,16,23,31,29,10,02,25,21,13,,,1.7,0.8,1.5*31
$GPRMC,115021.000,A,6504.5540,N,02243.7748,W,5.30,220.41,050912,,,A*7E
$GPGGA,115022.000,6504.5529,N,02243.7770,W,1,10,0.8,35.5,M,60.9,M,,0000*72
$GPGSA,A,3,30,16,23,31,29,10,02,25,21,13,,,1.7,0.8,1.5*31
$GPRMC,115022.000,A,6504.5529,N,02243.7770,W,4.93,219.21,050912,,,A*7D
$GPGGA,115023.000,6504.5518,N,02243.7793,W,1,10,0.8,35.8,M,60.9,M,,0000*71
$GPGSA,A,3,30,16,23,31,29,10,02,25,21,13,,,1.7,0.8,1.5*31
$GPRMC,115023.000,A,6504.5518,N,02243.7793,W,5.04,217.99,050912,,,A*71
$GPGGA,115024.000,6504.5507,N,02243.7814,W,1,10,0.8,36.2,M,60.9,M,,0000*71
$GPGSA,A,3,30,16,23,31,29,10,02,25,21,13,,,1.7,0.8,1.5*31
$GPGSV,3,1,11,29,56,089,31,31,55,180,35,30,53,254,40,23,32,304,34*7F
$GPGSV,3,2,11,25,28,098,30,16,25,260,24,02,17,027,19,13,16,336,26*7B
$GPGSV,3,3,11,10,15,007,27,21,11,141,21,05,03,056,27*4A
$GPRMC,115024.000,A,6504.5507,N,02243.7814,W,4.70,219.62,050912,,,A*70
$GPGGA,115025.000,6504.5498,N,02243.7835,W,1,10,0.8,36.6,M,60.9,M,,0000*70
$GPGSA,A,3,30,16,23,31,29,10,02,25,21,13,,,1.7,0.8,1.5*31
$GPRMC,115025.000,A,6504.5498,N,02243.7835,W,4.40,219.48,050912,,,A*7E
$GPGGA,115026.000,6504.5489,N,02243.7853,W,1,10,0.8,36.9,M,60.9,M,,0000*7C
$GPGSA,A,3,30,16,23,31,29,10,02,25,21,13,,,1.7,0.8,1.5*31
$GPRMC,115026.000,A,6504.5489,N,02243.7853,W,4.01,219.69,050912,,,A*7B
$GPGGA,115027.000,6504.5478,N,02243.7876,W,1,10,0.8,37.1,M,60.9,M,,0000*7D
$GPGSA,A,3,30,16,23,31,29,10,02,25,21,13,,,1.7,0.8,1.5*31
$GPRMC,115027.000,A,6504.5478,N,02243.7876,W,5.08,218.87,050912,,,A*7A
$GPGGA,115028.000,6504.5467,N,02243.7901,W,1,10,0.8,37.4,M,60.9,M,,0000*78
$GPGSA,A,3,30,16,23,31,29,10,02,25,21,13,,,1.7,0.8,1.5*31
$GPRMC,115028.000,A,6504.5467,N,02243.7901,W,5.66,220.11,050912,,,A*76
$GPGGA,115029.000,6504.5454,N,02243.7927,W,1,10,0.8,37.6,M,60.9,M,,0000*7F
$GPGSA,A,3,30,16,23,31,29,10,02,25,21,13,,,1.7,0.8,1.5*31
$GPGSV,3,1,11,29,56,089,32,31,55,180,33,30,53,254,42,23,32,304,34*78
$GPGSV,3,2,11,25,28,098,19,16,25,260,33,02,17,027,22,13,16,336,31*78
$GPGSV,3,3,11,10,15,007,31,21,11,141,22,05,03,056,27*4E
$GPRMC,115029.000,A,6504.5454,N,02243.7927,W,5.98,218.17,050912,,,A*7F
$GPGGA,115030.000,6504.5440,N,02243.7953,W,1,10,0.8,37.7,M,60.9,M,,0000*70
$GPGSA,A,3,30,16,23,31,29,10,02,25,21,13,,,1.7,0.8,1.5*31
$GPRMC,115030.000,A,6504.5440,N,02243.7953,W,6.19,216.32,050912,,,A*72
$GPGGA,115031.000,6504.5426,N,02243.7977,W,1,10,0.8,37.7,M,60.9,M,,0000*77
$GPGSA,A,3,30,16,23,31,29,10,02,25,21,13,,,1.7,0.8,1.5*31
$GPRMC,115031.000,A,6504.5426,N,02243.7977,W,6.12,215.23,050912,,,A*7D
$GPGGA,115032.000,6504.5413,N,02243.8000,W,1,10,0.8,37.7,M,60.9,M,,0000*74
$GPGSA,A,3,30,16,23,31,29,10,02,25,21,13,,,1.7,0.8,1.5*31
$GPRMC,115032.000,A,6504.5413,N,02243.8000,W,5.77,214.31,050912,,,A*7C
$GPGGA,115033.000,6504.5399,N,02243.8023,W,1,10,0.8,37.6,M,60.9,M,,0000*70
$GPGSA,A,3,30,16,23,31,29,10,02,25,21,13,,,1.7,0.8,1.5*31
$GPRMC,115033.000,A,6504.5399,N,02243.8023,W,5.85,214.41,050912,,,A*73
$GPGGA,115034.000,6504.5386,N,02243.8046,W,1,10,0.8,37.5,M,60.9,M,,0000*79
$GPGSA,A,3,30,16,23,31,29,10,02,25,21,13,,,1.7,0.8,1.5*31
$GPGSV,3,1,11,29,56,089,33,31,55,180,35,30,53,254,44,23,32,304,30*7D
$GPGSV,3,2,11,25,28,098,18,16,25,260,32,02,17,027,24,13,16,336,32*7D
$GPGSV,3,3,11,10,15,007,24,21,11,141,23,05,03,056,28*44
$GPRMC,115034.000,A,6504.5386,N,02243.8046,W,5.74,214.86,050912,,,A*7C
$GPGGA,115035.000,6504.5372,N,02243.8069,W,1,09,1.2,37.5,M,60.9,M,,0000*7D
$GPGSA,A,3,30,16,23,31,29,10,02,25,13,,,,2.7,1.2,2.5*39
$GPRMC,115035.000,A,6504.5372,N,02243.8069,W,5.86,214.44,050912,,,A*78
$GPGGA,115036.000,6504.5358,N,02243.8091,W,1,08,1.2,37.6,M,60.9,M,,0000*73
$GPGSA,A,3,30,16,23,31,29,02,25,13,,,,,2.8,1.2,2.5*37
$GPRMC,115036.000,A,6504.5358,N,02243.8091,W,5.94,212.47,050912,,,A*72
$GPGGA,115037.000,6504.5344,N,02243.8112,W,1,10,0.8,37.6,M,60.9,M,,0000*77
$GPGSA,A,3,30,16,23,31,29,10,02,25,21,13,,,1.7,0.8,1.5*31
$GPRMC,115037.000,A,6504.5344,N,02243.8112,W,5.89,211.34,050912,,,A*7F
$GPGGA,115038.000,6504.5330,N,02243.8135,W,1,10,0.8,37.6,M,60.9,M,,0000*7E
$GPGSA,A,3,30,16,23,31,29,10,02,25,21,13,,,1.7,0.8,1.5*31
$GPRMC,115038.000,A,6504.5330,N,02243.8135,W,6.14,210.62,050912,,,A*73
$GPGGA,115039.000,6504.5315,N,02243.8157,W,1,10,0.8,37.7,M,60.9,M,,0000*7D
$GPGSA,A,3,30,16,23,31,29,10,02,25,21,13,,,1.7,0.8,1.5*31
$GPGSV,3,1,11,29,56,089,30,31,55,180,32,30,53,254,43,23,32,304,22*7D
$GPGSV,3,2,11,25,28,098,24,16,25,260,25,02,17,027,29,13,16,336,27*7D
$GPGSV,3,3,11,10,15,007,28,21,11,141,32,05,03,056,20*40
$GPRMC,115039.000,A,6504.5315,N,02243.8157,W,6.30,210.83,050912,,,A*78
$GPGGA,115040.000,6504.5299,N,02243.8181,W,1,09,0.9,37.6,M,60.9,M,,0000*75
$GPGSA,A,3,30,16,23,31,29,10,02,21,13,,,,1.8,0.9,1.5*38
$GPRMC,115040.000,A,6504.5299,N,02243.8181,W,6.46,212.12,050912,,,A*73
$GPGGA,115041.000,6504.5283,N,02243.8206,W,1,10,0.8,37.6,M,60.9,M,,0000*7A
$GPGSA,A,3,30,16,23,31,29,10,02,25,21,13,,,1.7,0.8,1.5*31
$GPRMC,115041.000,A,6504.5283,N,02243.8206,W,6.64,211.91,050912,,,A*7D
$GPGGA,115042.000,6504.5267,N,02243.8233,W,1,10,0.8,37.7,M,60.9,M,,0000*74
$GPGSA,A,3,30,16,23,31,29,10,02,25,21,13,,,1.7,0.8,1.5*31
$GPRMC,115042.000,A,6504.5267,N,02243.8233,W,6.93,213.66,050912,,,A*70
$GPGGA,115043.000,6504.5250,N,02243.8257,W,1,10,0.8,37.8,M,60.9,M,,0000*7C
$GPGSA,A,3,30,16,23,31,29,10,02,25,21,13,,,1.7,0.8,1.5*31
$GPRMC,115043.000,A,6504.5250,N,02243.8257,W,7.02,210.34,050912,,,A*7A
$GPGGA,115044.000,6504.5235,N,02243.8287,W,1,10,0.8,37.8,M,60.9,M,,0000*75
$GPGSA,A,3,30,16,23,31,29,10,02,25,21,13,,,1.7,0.8,1.5*31
$GPGSV,3,1,11,29,56,089,30,31,55,180,33,30,53,254,43,23,32,304,37*78
$GPGSV,3,2,11,25,28,098,32,16,25,260,26,02,17,027,30,13,16,336,18*7D
$GPGSV,3,3,11,10,15,007,25,21,11,141,12,05,03,056,20*4F
$GPRMC,115044.000,A,6504.5235,N,02243.8287,W,6.98,218.39,050912,,,A*74
$GPGGA,115045.000,6504.5224,N,02243.8323,W,1,10,0.8,37.8,M,60.9,M,,0000*7B
$GPGSA,A,3,30,16,23,31,29,10,02,25,21,13,,,1.7,0.8,1.5*31
$GPRMC,115045.000,A,6504.5224,N,02243.8323,W,6.60,233.03,050912,,,A*7D
$GPGGA,115046.000,6504.5218,N,02243.8367,W,1,09,0.9,37.8,M,60.9,M,,0000*7E
$GPGSA,A,3,30,16,23,31,29,10,02,21,13,,,,1.8,0.9,1.5*38
$GPRMC,115046.000,A,6504.5218,N,02243.8367,W,6.71,255.18,050912,,,A*7B
$GPGGA,115047.000,6504.5220,N,02243.8413,W,1,09,0.9,37.7,M,60.9,M,,0000*7F
$GPGSA,A,3,30,16,23,31,29,10,02,21,13,,,,1.8,0.9,1.5*38
$GPRMC,115047.000,A,6504.5220,N,02243.8413,W,6.88,276.59,050912,,,A*77
$GPGGA,115048.000,6504.5228,N,02243.8455,W,1,10,0.8,37.6,M,60.9,M,,0000*72
$GPGSA,A,3,30,16,23,31,29,10,02,25,21,13,,,1.7,0.8,1.5*31
$GPRMC,115048.000,A,6504.5228,N,02243.8455,W,6.95,297.92,050912,,,A*76
$GPGGA,115049.000,6504.5239,N,02243.8494,W,1,10,0.8,37.4,M,60.9,M,,0000*7C
$GPGSA,A,3,30,16,23,31,29,10,02,25,21,13,,,1.7,0.8,1.5*31
$GPGSV,3,1,11,29,56,089,37,31,55,180,34,30,53,254,38,23,32,304,36*75
$GPGSV,3,2,11,25,28,098,27,16,25,260,34,02,17,027,29,13,16,336,29*70
$GPGSV,3,3,11,10,15,007,21,21,11,141,29,05,03,056,16*46
$GPRMC,115049.000,A,6504.5239,N,02243.8494,W,7.26,308.39,050912,,,A*75
$GPGGA,115050.000,6504.5254,N,02243.8534,W,1,10,0.8,37.4,M,60.9,M,,0000*74
$GPGSA,A,3,30,16,23,31,29,10,02,25,21,13,,,1.7,0.8,1.5*31
$GPRMC,115050.000,A,6504.5254,N,02243.8534,W,8.07,312.76,050912,,,A*71
$GPGGA,115051.000,6504.5269,N,02243.8579,W,1,10,0.8,37.2,M,60.9,M,,0000*74
$GPGSA,A,3,30,16,23,31,29,10,02,25,21,13,,,1.7,0.8,1.5*31
$GPRMC,115051.000,A,6504.5269,N,02243.8579,W,8.92,312.31,050912,,,A*78
$GPGGA,115052.000,6504.5285,N,02243.8627,W,1,10,0.8,37.0,M,60.9,M,,0000*7F
$GPGSA,A,3,30,16,23,31,29,10,02,25,21,13,,,1.7,0.8,1.5*31
$GPRMC,115052.000,A,6504.5285,N,02243.8627,W,9.21,309.78,050912,,,A*7F
$GPGGA,115053.000,6504.5299,N,02243.8674,W,1,10,0.8,36.7,M,60.9,M,,0000*73
$GPGSA,A,3,30,16,23,31,29,10,02,25,21,13,,,1.7,0.8,1.5*31
$GPRMC,115053.000,A,6504.5299,N,02243.8674,W,8.93,307.89,050912,,,A*7D
$GPGGA,115054.000,6504.5313,N,02243.8723,W,1,10,0.8,36.5,M,60.9,M,,0000*76
$GPGSA,A,3,30,16,23,31,29,10,02,25,21,13,,,1.7,0.8,1.5*31
$GPGSV,3,1,11,29,56,089,37,31,55,180,35,30,53,254,39,23,32,304,37*74
$GPGSV,3,2,11,25,28,098,22,16,25,260,33,02,17,027,29,13,16,336,34*7E
$GPGSV,3,3,11,10,15,007,18,21,11,141,20,05,03,056,10*43
$GPRMC,115054.000,A,6504.5313,N,02243.8723,W,8.85,304.89,050912,,,A*7E
$GPGGA,115055.000,6504.5325,N,02243.8770,W,1,10,0.8,36.1,M,60.9,M,,0000*70
$GPGSA,A,3,30,16,23,31,29,10,02,25,21,13,,,1.7,0.8,1.5*31
$GPRMC,115055.000,A,6504.5325,N,02243.8770,W,8.49,304.28,050912,,,A*77
$GPGGA,115056.000,6504.5337,N,02243.8818,W,1,10,0.8,35.7,M,60.9,M,,0000*74
$GPGSA,A,3,30,16,23,31,29,10,02,25,21,13,,,1.7,0.8,1.5*31
$GPRMC,115056.000,A,6504.5337,N,02243.8818,W,8.49,302.01,050912,,,A*7B
$GPGGA,115057.000,6504.5351,N,02243.8870,W,1,10,0.8,35.2,M,60.9,M,,0000*7E
$GPGSA,A,3,30,16,23,31,29,10,02,25,21,13,,,1.7,0.8,1.5*31
$GPRMC,115057.000,A,6504.5351,N,02243.8870,W,9.09,302.60,050912,,,A*76
$GPGGA,115058.000,6504.5364,N,02243.8924,W,1,10,0.8,34.6,M,60.9,M,,0000*72
$GPGSA,A,3,30,16,23,31,29,10,02,25,21,13,,,1.7,0.8,1.5*31
$GPRMC,115058.000,A,6504.5364,N,02243.8924,W,9.51,301.68,050912,,,A*79
$GPGGA,115059.000,6504.5378,N,02243.8978,W,1,10,0.8,33.9,M,60.9,M,,0000*7F
$GPGSA,A,3,30,16,23,31,29,10,02,25,21,13,,,1.7,0.8,1.5*31
$GPGSV,3,1,11,29,56,089,29,31,55,180,24,30,53,254,38,23,32,304,31*7C
$GPGSV,3,2,11,25,28,098,27,16,25,260,34,02,17,027,35,13,16,336,35*70
$GPGSV,3,3,11,10,15,007,26,21,11,141,22,05,03,056,*4D
$GPRMC,115059.000,A,6504.5378,N,02243.8978,W,9.65,303.26,050912,,,A*73
$GPGGA,115100.000,6504.5392,N,02243.9031,W,1,10,0.8,33.1,M,60.9,M,,0000*7B
$GPGSA,A,3,30,16,23,31,29,10,02,25,21,13,,,1.7,0.8,1.5*31
$GPRMC,115100.000,A,6504.5392,N,02243.9031,W,9.34,303.00,050912,,,A*7F
$GPGGA,115101.000,6504.5404,N,02243.9080,W,1,10,0.8,32.3,M,60.9,M,,0000*7B
$GPGSA,A,3,30,16,23,31,29,10,02,25,21,13,,,1.7,0.8,1.5*31
$GPRMC,115101.000,A,6504.5404,N,02243.9080,W,8.64,302.00,050912,,,A*79
$GPGGA,115102.000,6504.5415,N,02243.9128,W,1,10,0.8,31.4,M,60.9,M,,0000*7F
$GPGSA,A,3,30,16,23,31,29,10,02,25,21,13,,,1.7,0.8,1.5*31
$GPRMC,115102.000,A,6504.5415,N,02243.9128,W,8.31,301.38,050912,,,A*71
$GPGGA,115103.000,6504.5426,N,02243.9173,W,1,10,0.8,30.5,M,60.9,M,,0000*70
$GPGSA,A,3,30,16,23,31,29,10,02,25,21,13,,,1.7,0.8,1.5*31
$GPRMC,115103.000,A,6504.5426,N,02243.9173,W,7.65,301.06,050912,,,A*7D
$GPGGA,115104.000,6504.5433,N,02243.9211,W,1,09,0.9,29.6,M,60.9,M,,0000*76
$GPGSA,A,3,30,16,23,31,29,10,02,21,13,,,,1.8,0.9,1.5*38
$GPGSV,3,1,11,29,56,089,36,31,55,180,29,30,53,254,38,23,32,304,33*7D
$GPGSV,3,2,11,25,28,098,,16,25,260,29,02,17,027,29,13,16,336,32*73
$GPGSV,3,3,11,10,15,007,27,21,11,141,21,05,03,056,*4F
$GPRMC,115104.000,A,6504.5433,N,02243.9211,W,6.16,296.23,050912,,,A*74
$GPGGA,115105.000,6504.5437,N,02243.9248,W,1,09,0.9,28.8,M,60.9,M,,0000*70
$GPGSA,A,3,30,16,23,31,29,10,02,21,13,,,,1.8,0.9,1.5*38
$GPRMC,115105.000,A,6504.5437,N,02243.9248,W,5.69,284.27,050912,,,A*71
$GPGGA,115106.000,6504.5436,N,02243.9294,W,1,09,0.9,28.1,M,60.9,M,,0000*7A
$GPGSA,A,3,30,16,23,31,29,10,25,21,13,,,,1.8,0.9,1.5*3D
$GPRMC,115106.000,A,6504.5436,N,02243.9294,W,6.70,265.29,050912,,,A*78
$GPGGA,115107.000,6504.5428,N,02243.9340,W,1,09,1.2,27.4,M,60.9,M,,0000*7C
$GPGSA,A,3,30,16,23,31,29,10,02,25,13,,,,2.7,1.2,2.5*39
$GPRMC,115107.000,A,6504.5428,N,02243.9340,W,7.55,245.42,050912,,,A*77
$GPGGA,115108.000,6504.5413,N,02243.9386,W,1,08,1.2,26.7,M,60.9,M,,0000*72
$GPGSA,A,3,30,16,23,31,29,10,25,13,,,,,2.8,1.2,2.5*34
$GPRMC,115108.000,A,6504.5413,N,02243.9386,W,8.77,230.76,050912,,,A*70
$GPGGA,115109.000,6504.5390,N,02243.9428,W,1,09,1.2,26.1,M,60.9,M,,0000*7B
$GPGSA,A,3,30,16,23,31,29,10,02,25,13,,,,2.7,1.2,2.5*39
$GPGSV,3,1,11,29,56,089,27,31,55,180,32,30,53,254,40,23,32,304,36*7D
$GPGSV,3,2,11,25,28,098,31,16,25,260,32,02,17,027,27,13,16,336,32*75
$GPGSV,3,3,11,10,15,007,28,21,11,141,,05,03,056,*43
$GPRMC,115109.000,A,6504.5390,N,02243.9428,W,10.41,217.05,050912,,,A*43
$GPGGA,115110.000,6504.5362,N,02243.9471,W,1,09,1.2,25.5,M,60.9,M,,0000*75
$GPGSA,A,3,30,16,23,31,29,10,02,25,13,,,,2.7,1.2,2.5*39
$GPRMC,115110.000,A,6504.5362,N,02243.9471,W,12.21,211.43,050912,,,A*4A
$GPGGA,115111.000,6504.5331,N,02243.9513,W,1,09,1.2,25.1,M,60.9,M,,0000*73
$GPGSA,A,3,30,16,23,31,29,10,02,25,13,,,,2.7,1.2,2.5*39
$GPRMC,115111.000,A,6504.5331,N,02243.9513,W,12.93,208.36,050912,,,A*4B
$GPGGA,115112.000,6504.5299,N,02243.9554,W,1,09,1.2,24.6,M,60.9,M,,0000*76
$GPGSA,A,3,30,16,23,31,29,10,02,25,13,,,,2.7,1.2,2.5*39
$GPRMC,115112.000,A,6504.5299,N,02243.9554,W,13.13,207.81,050912,,,A*42
$GPGGA,115113.000,6504.5268,N,02243.9595,W,1,09,1.2,24.2,M,60.9,M,,0000*70
$GPGSA,A,3,30,16,23,31,29,10,02,25,13,,,,2.7,1.2,2.5*39
$GPRMC,115113.000,A,6504.5268,N,02243.9595,W,13.00,207.70,050912,,,A*4C
$GPGGA,115114.000,6504.5233,N,02243.9637,W,1,09,1.2,23.8,M,60.9,M,,0000*7F
$GPGSA,A,3,30,16,23,31,29,10,02,25,13,,,,2.7,1.2,2.5*39
$GPGSV,3,1,11,29,56,089,35,31,55,180,34,30,53,254,41,23,32,304,39*76
$GPGSV,3,2,11,25,28,098,30,16,25,260,29,02,17,027,22,13,16,336,27*7F
$GPGSV,3,3,11,10,15,007,28,21,11,141,,05,03,056,*43
$GPRMC,115114.000,A,6504.5233,N,02243.9637,W,13.96,207.26,050912,,,A*42
$GPGGA,115115.000,6504.5197,N,02243.9683,W,1,09,1.2,23.5,M,60.9,M,,0000*71
$GPGSA,A,3,30,16,23,31,29,10,02,25,13,,,,2.7,1.2,2.5*39
$GPRMC,115115.000,A,6504.5197,N,02243.9683,W,14.91,207.47,050912,,,A*46
$GPGGA,115116.000,6504.5159,N,02243.9732,W,1,09,1.2,23.3,M,60.9,M,,0000*7D
$GPGSA,A,3,30,16,23,31,29,10,02,25,13,,,,2.7,1.2,2.5*39
$GPRMC,115116.000,A,6504.5159,N,02243.9732,W,15.63,208.61,050912,,,A*4B
$GPGGA,115117.000,6504.5120,N,02243.9785,W,1,09,1.2,23.1,M,60.9,M,,0000*7C
$GPGSA,A,3,30,16,23,31,29,10,02,25,13,,,,2.7,1.2,2.5*39
$GPRMC,115117.000,A,6504.5120,N,02243.9785,W,16.38,209.35,050912,,,A*45
$GPGGA,115118.000,6504.5080,N,02243.9838,W,1,09,1.2,23.0,M,60.9,M,,0000*70
$GPGSA,A,3,30,16,23,31,29,10,02,25,13,,,,2.7,1.2,2.5*39
$GPRMC,115118.000,A,6504.5080,N,02243.9838,W,16.64,209.20,050912,,,A*45
$GPGGA,115119.000,6504.5040,N,02243.9889,W,1,09,1.2,23.0,M,60.9,M,,0000*77
$GPGSA,A,3,30,16,23,31,29,10,02,25,13,,,,2.7,1.2,2.5*39
$GPGSV,3,1,12,29,55,088,35,31,54,179,33,30,54,254,43,23,32,303,38*74
$GPGSV,3,2,12,25,27,098,25,16,25,260,34,02,17,026,21,13,17,336,25*7A
$GPGSV,3,3,12,10,15,006,28,21,12,141,,05,03,056,,06,00,218,*7F
$GPRMC,115119.000,A,6504.5040,N,02243.9889,W,16.39,208.37,050912,,,A*4D
$GPGGA,115120.000,6504.5000,N,02243.9939,W,1,09,1.2,23.0,M,60.9,M,,0000*73
$GPGSA,A,3,30,16,23,31,29,10,02,25,13,,,,2.7,1.2,2.5*39
$GPRMC,115120.000,A,6504.5000,N,02243.9939,W,16.31,208.08,050912,,,A*4D
$GPGGA,115121.000,6504.4961,N,02243.9990,W,1,09,1.2,23.0,M,60.9,M,,0000*7E
$GPGSA,A,3,30,16,23,31,29,10,02,25,13,,,,2.7,1.2,2.5*39
$GPRMC,115121.000,A,6504.4961,N,02243.9990,W,16.26,208.72,050912,,,A*4B
$GPGGA,115122.000,6504.4923,N,02244.0040,W,1,09,1.2,23.1,M,60.9,M,,0000*70
$GPGSA,A,3,30,16,23,31,29,10,02,25,13,,,,2.7,1.2,2.5*39
$GPRMC,115122.000,A,6504.4923,N,02244.0040,W,15.82,208.92,050912,,,A*47
$GPGGA,115123.000,6504.4885,N,02244.0090,W,1,09,1.2,23.1,M,60.9,M,,0000*71
$GPGSA,A,3,30,16,23,31,29,10,02,25,13,,,,2.7,1.2,2.5*39
$GPRMC,115123.000,A,6504.4885,N,02244.0090,W,15.48,209.05,050912,,,A*4F
$GPGGA,115124.000,6504.4848,N,02244.0139,W,1,09,1.2,23.1,M,60.9,M,,0000*75
$GPGSA,A,3,30,16,23,31,29,10,02,25,13,,,,2.7,1.2,2.5*39
$GPGSV,3,1,12,29,55,088,34,31,54,179,39,30,54,254,43,23,32,303,39*7E
$GPGSV,3,2,12,25,27,098,27,16,25,260,29,02,17,026,29,13,17,336,29*70
$GPGSV,3,3,12,10,15,006,21,21,12,141,,05,03,056,,06,00,218,*76
$GPRMC,115124.000,A,6504.4848,N,02244.0139,W,15.41,208.94,050912,,,A*4B
$GPGGA,115125.000,6504.4812,N,02244.0186,W,1,09,1.2,23.2,M,60.9,M,,0000*7C
$GPGSA,A,3,30,16,23,31,29,10,02,25,13,,,,2.7,1.2,2.5*39
$GPRMC,115125.000,A,6504.4812,N,02244.0186,W,14.77,209.13,050912,,,A*4B
$GPGGA,115126.000,6504.4778,N,02244.0231,W,1,09,1.2,23.4,M,60.9,M,,0000*75
$GPGSA,A,3,30,16,23,31,29,10,02,25,13,,,,2.7,1.2,2.5*39
$GPRMC,115126.000,A,6504.4778,N,02244.0231,W,14.01,209.06,050912,,,A*41
$GPGGA,115127.000,6504.4746,N,02244.0272,W,1,09,1.2,23.5,M,60.9,M,,0000*7F
$GPGSA,A,3,30,16,23,31,29,10,02,25,13,,,,2.7,1.2,2.5*39
$GPRMC,115127.000,A,6504.4746,N,02244.0272,W,13.20,208.48,050912,,,A*45
$GPGGA,115128.000,6504.4715,N,02244.0311,W,1,09,1.2,23.7,M,60.9,M,,0000*70
$GPGSA,A,3,30,16,23,31,29,10,02,25,13,,,,2.7,1.2,2.5*39
$GPRMC,115128.000,A,6504.4715,N,02244.0311,W,12.64,207.87,050912,,,A*45
$GPGGA,115129.000,6504.4686,N,02244.0346,W,1,09,1.2,23.8,M,60.9,M,,0000*77
$GPGSA,A,3,30,16,23,31,29,10,02,25,13,,,,2.7,1.2,2.5*39
$GPGSV,3,1,12,29,55,088,30,31,54,179,37,30,54,254,43,23,32,303,39*74
$GPGSV,3,2,12,25,27,098,24,16,25,260,26,02,17,026,29,13,17,336,29*7C
$GPGSV,3,3,12,10,15,006,28,21,12,141,,05,03,056,,06,00,218,*7F
$GPRMC,115129.000,A,6504.4686,N,02244.0346,W,11.76,207.38,050912,,,A*49
$GPGGA,115130.000,6504.4662,N,02244.0376,W,1,09,1.2,24.0,M,60.9,M,,0000*79
$GPGSA,A,3,30,16,23,31,29,10,02,25,13,,,,2.7,1.2,2.5*39
$GPRMC,115130.000,A,6504.4662,N,02244.0376,W,9.67,207.94,050912,,,A*77
$GPGGA,115131.000,6504.4644,N,02244.0400,W,1,09,1.2,24.2,M,60.9,M,,0000*78
$GPGSA,A,3,30,16,23,31,29,10,02,25,13,,,,2.7,1.2,2.5*39
$GPRMC,115131.000,A,6504.4644,N,02244.0400,W,7.45,208.64,050912,,,A*7A
$GPGGA,115132.000,6504.4628,N,02244.0415,W,1,09,1.2,24.5,M,60.9,M,,0000*72
$GPGSA,A,3,30,16,23,31,29,10,02,25,13,,,,2.7,1.2,2.5*39
$GPRMC,115132.000,A,6504.4628,N,02244.0415,W,6.20,201.12,050912,,,A*7D
$GPGGA,115133.000,6504.4611,N,02244.0422,W,1,10,0.8,24.6,M,60.9,M,,0000*7D
$GPGSA,A,3,30,16,23,31,29,10,02,25,13,21,,,1.7,0.8,1.5*31
$GPRMC,115133.000,A,6504.4611,N,02244.0422,W,6.02,188.75,050912,,,A*71
$GPGGA,115134.000,6504.4593,N,02244.0418,W,1,10,0.8,24.7,M,60.9,M,,0000*7B
$GPGSA,A,3,30,16,23,31,29,10,02,25,13,21,,,1.7,0.8,1.5*31
$GPGSV,3,1,12,29,55,088,30,31,54,179,38,30,54,254,39,23,32,303,40*78
$GPGSV,3,2,12,25,27,098,36,16,25,260,35,02,17,026,29,13,17,336,32*77
$GPGSV,3,3,12,10,15,006,27,21,12,141,29,05,03,056,15,06,00,218,*7F
$GPRMC,115134.000,A,6504.4593,N,02244.0418,W,6.56,173.29,050912,,,A*7A
$GPGGA,115135.000,6504.4573,N,02244.0400,W,1,10,0.8,24.8,M,60.9,M,,0000*72
$GPGSA,A,3,30,16,23,31,29,10,02,25,13,21,,,1.7,0.8,1.5*31
$GPRMC,115135.000,A,6504.4573,N,02244.0400,W,7.68,158.34,050912,,,A*75
$GPGGA,115136.000,6504.4551,N,02244.0376,W,1,10,0.8,24.9,M,60.9,M,,0000*76
$GPGSA,A,3,30,16,23,31,29,10,02,25,13,21,,,1.7,0.8,1.5*31
$GPRMC,115136.000,A,6504.4551,N,02244.0376,W,8.78,153.91,050912,,,A*7A
$GPGGA,115137.000,6504.4525,N,02244.0348,W,1,10,0.8,25.0,M,60.9,M,,0000*71
$GPGSA,A,3,30,16,23,31,29,10,02,25,13,21,,,1.7,0.8,1.5*31
$GPRMC,115137.000,A,6504.4525,N,02244.0348,W,10.09,153.64,050912,,,A*40
$GPGGA,115138.000,6504.4498,N,02244.0317,W,1,10,0.8,25.0,M,60.9,M,,0000*73
$GPGSA,A,3,30,16,23,31,29,10,02,25,13,21,,,1.7,0.8,1.5*31
$GPRMC,115138.000,A,6504.4498,N,02244.0317,W,10.87,153.49,050912,,,A*4B
$GPGGA,115139.000,6504.4470,N,02244.0286,W,1,10,0.8,25.0,M,60.9,M,,0000*7D
$GPGSA,A,3,30,16,23,31,29,10,02,25,13,21,,,1.7,0.8,1.5*31
$GPGSV,3,1,12,29,55,088,41,31,54,179,44,30,54,254,41,23,32,303,38*75
$GPGSV,3,2,12,25,27,098,28,16,25,260,31,02,17,026,24,13,17,336,28*7A
$GPGSV,3,3,12,10,15,006,32,21,12,141,21,05,03,056,,06,00,218,*77
$GPRMC,115139.000,A,6504.4470,N,02244.0286,W,11.07,153.96,050912,,,A*4E
$GPGGA,115140.000,6504.4441,N,02244.0254,W,1,10,0.8,24.9,M,60.9,M,,0000*76
$GPGSA,A,3,30,16,23,31,29,10,02,25,13,21,,,1.7,0.8,1.5*31
$GPRMC,115140.000,A,6504.4441,N,02244.0254,W,11.66,154.24,050912,,,A*44
$GPGGA,115141.000,6504.4409,N,02244.0218,W,1,10,0.8,25.0,M,60.9,M,,0000*7B
$GPGSA,A,3,30,16,23,31,29,10,02,25,13,21,,,1.7,0.8,1.5*31
$GPRMC,115141.000,A,6504.4409,N,02244.0218,W,12.86,154.27,050912,,,A*4F
$GPGGA,115142.000,6504.4374,N,02244.0179,W,1,10,0.8,25.0,M,60.9,M,,0000*71
$GPGSA,A,3,30,16,23,31,29,10,02,25,13,21,,,1.7,0.8,1.5*31
$GPRMC,115142.000,A,6504.4374,N,02244.0179,W,13.77,153.86,050912,,,A*46
$GPGGA,115143.000,6504.4338,N,02244.0137,W,1,10,0.8,25.1,M,60.9,M,,0000*73
$GPGSA,A,3,30,16,23,31,29,10,02,25,13,21,,,1.7,0.8,1.5*31
$GPRMC,115143.000,A,6504.4338,N,02244.0137,W,14.43,153.12,050912,,,A*48
$GPGGA,115144.000,6504.4302,N,02244.0094,W,1,10,0.8,25.1,M,60.9,M,,0000*75
$GPGSA,A,3,30,16,23,31,29,10,02,25,13,21,,,1.7,0.8,1.5*31
$GPGSV,3,1,12,29,55,088,41,31,54,179,44,30,54,254,42,23,32,303,32*7C
$GPGSV,3,2,12,25,27,098,28,16,25,260,30,02,17,026,31,13,17,336,34*72
$GPGSV,3,3,12,10,15,006,31,21,12,141,20,05,03,056,,06,00,218,*75
$GPRMC,115144.000,A,6504.4302,N,02244.0094,W,14.66,152.76,050912,,,A*4A
$GPGGA,115145.000,6504.4266,N,02244.0051,W,1,10,0.8,25.0,M,60.9,M,,0000*7F
$GPGSA,A,3,30,16,23,31,29,10,02,25,13,21,,,1.7,0.8,1.5*31
$GPRMC,115145.000,A,6504.4266,N,02244.0051,W,14.47,152.76,050912,,,A*42
$GPGGA,115146.000,6504.4231,N,02244.0012,W,1,10,0.8,24.7,M,60.9,M,,0000*7F
$GPGSA,A,3,30,16,23,31,29,10,02,25,13,21,,,1.7,0.8,1.5*31
$GPRMC,115146.000,A,6504.4231,N,02244.0012,W,13.68,153.26,050912,,,A*4A
$GPGGA,115147.000,6504.4200,N,02243.9978,W,1,10,0.8,24.4,M,60.9,M,,0000*74
$GPGSA,A,3,30,16,23,31,29,10,02,25,13,21,,,1.8,0.8,1.5*3E
$GPRMC,115147.000,A,6504.4200,N,02243.9978,W,11.97,154.12,050912,,,A*40
$GPGGA,115148.000,6504.4172,N,02243.9946,W,1,10,0.8,24.0,M,60.9,M,,0000*74
$GPGSA,A,3,30,16,23,31,29,10,02,25,13,21,,,1.8,0.8,1.5*3E
$GPRMC,115148.000,A,6504.4172,N,02243.9946,W,10.91,153.15,050912,,,A*43
$GPGGA,115149.000,6504.4145,N,02243.9911,W,1,10,0.8,23.5,M,60.9,M,,0000*71
$GPGSA,A,3,30,16,23,31,29,10,02,25,13,21,,,1.8,0.8,1.5*3E
$GPGSV,3,1,12,29,55,088,41,30,54,254,43,31,54,179,44,23,32,303,34*7B
$GPGSV,3,2,12,25,27,098,24,16,26,260,36,13,17,336,33,02,17,026,31*7C
$GPGSV,3,3,12,10,15,006,26,21,12,141,26,05,03,056,,06,00,218,*75
$GPRMC,115149.000,A,6504.4145,N,02243.9911,W,10.60,149.39,050912,,,A*4F
$GPGGA,115150.000,6504.4121,N,02243.9873,W,1,10,0.8,23.1,M,60.9,M,,0000*7A
$GPGSA,A,3,30,16,23,31,29,10,02,25,13,21,,,1.8,0.8,1.5*3E
$GPRMC,115150.000,A,6504.4121,N,02243.9873,W,10.13,144.66,050912,,,A*43
$GPGGA,115151.000,6504.4099,N,02243.9835,W,1,10,0.8,22.6,M,60.9,M,,0000*7D
$GPGSA,A,3,30,16,23,31,29,10,02,25,13,21,,,1.8,0.8,1.5*3E
$GPRMC,115151.000,A,6504.4099,N,02243.9835,W,9.61,141.81,050912,,,A*73
$GPGGA,115152.000,6504.4078,N,02243.9797,W,1,10,0.8,22.1,M,60.9,M,,0000*71
$GPGSA,A,3,30,16,23,31,29,10,02,25,13,21,,,1.8,0.8,1.5*3E
$GPRMC,115152.000,A,6504.4078,N,02243.9797,W,9.11,140.35,050912,,,A*71
$GPGGA,115153.000,6504.4059,N,02243.9760,W,1,10,0.8,21.6,M,60.9,M,,0000*7F
$GPGSA,A,3,30,16,23,31,29,10,02,25,13,21,,,1.8,0.8,1.5*3E
$GPRMC,115153.000,A,6504.4059,N,02243.9760,W,8.73,139.04,050912,,,A*72
$GPGGA,115154.000,6504.4040,N,02243.9725,W,1,10,0.8,21.2,M,60.9,M,,0000*75
$GPGSA,A,3,30,16,23,31,29,10,02,25,13,21,,,1.8,0.8,1.5*3E
$GPGSV,3,1,12,29,55,088,37,30,54,254,43,31,54,179,44,23,32,303,33*7D
$GPGSV,3,2,12,25,27,098,33,16,26,260,37,13,17,336,16,02,17,026,34*79
$GPGSV,3,3,12,10,15,006,26,21,12,141,34,05,03,056,,06,00,218,*76
$GPRMC,115154.000,A,6504.4040,N,02243.9725,W,8.27,138.35,050912,,,A*7E
$GPGGA,115155.000,6504.4022,N,02243.9689,W,1,10,0.8,20.7,M,60.9,M,,0000*73
$GPGSA,A,3,30,16,23,31,29,10,02,25,13,21,,,1.8,0.8,1.5*3E
$GPRMC,115155.000,A,6504.4022,N,02243.9689,W,8.35,138.59,050912,,,A*75
$GPGGA,115156.000,6504.4002,N,02243.9650,W,1,10,0.8,20.3,M,60.9,M,,0000*72
$GPGSA,A,3,30,16,23,31,29,10,02,25,13,21,,,1.8,0.8,1.5*3E
$GPRMC,115156.000,A,6504.4002,N,02243.9650,W,9.17,138.37,050912,,,A*79
$GPGGA,115157.000,6504.3980,N,02243.9607,W,1,10,0.8,19.9,M,60.9,M,,0000*75
$GPGSA,A,3,30,16,23,31,29,10,02,25,13,21,,,1.8,0.8,1.5*3E
$GPRMC,115157.000,A,6504.3980,N,02243.9607,W,10.19,138.25,050912,,,A*4B
$GPGGA,115158.000,6504.3957,N,02243.9560,W,1,10,0.8,19.4,M,60.9,M,,0000*7F
$GPGSA,A,3,30,16,23,31,29,10,02,25,13,21,,,1.8,0.8,1.5*3E
$GPRMC,115158.000,A,6504.3957,N,02243.9560,W,10.84,137.66,050912,,,A*40
$GPGGA,115159.000,6504.3933,N,02243.9512,W,1,10,0.8,19.0,M,60.9,M,,0000*7D
$GPGSA,A,3,30,16,23,31,29,10,02,25,13,21,,,1.8,0.8,1.5*3E
$GPGSV,3,1,12,29,55,088,37,30,54,254,44,31,54,179,43,23,32,303,26*79
$GPGSV,3,2,12,25,27,098,33,16,26,260,37,13,17,336,24,02,17,026,30*7C
$GPGSV,3,3,12,10,15,006,28,21,12,141,33,05,03,056,22,06,00,218,*7F
$GPRMC,115159.000,A,6504.3933,N,02243.9512,W,11.03,137.69,050912,,,A*47
$GPGGA,115200.000,6504.3911,N,02243.9466,W,1,10,0.8,18.6,M,60.9,M,,0000*77
$GPGSA,A,3,30,16,23,31,29,10,02,25,13,21,,,1.8,0.8,1.5*3E
$GPRMC,115200.000,A,6504.3911,N,02243.9466,W,10.66,137.85,050912,,,A*4A
$GPGGA,115201.000,6504.3891,N,02243.9425,W,1,10,0.8,18.3,M,60.9,M,,0000*7D
$GPGSA,A,3,30,16,23,31,29,10,02,25,13,21,,,1.8,0.8,1.5*3E
$GPRMC,115201.000,A,6504.3891,N,02243.9425,W,9.33,137.54,050912,,,A*71
$GPGGA,115202.000,6504.3876,N,02243.9393,W,1,09,0.9,18.0,M,60.9,M,,0000*77
$GPGSA,A,3,30,16,23,31,29,02,25,13,21,,,,1.8,0.9,1.6*3D
$GPRMC,115202.000,A,6504.3876,N,02243.9393,W,7.06,136.01,050912,,,A*78
$GPGGA,115203.000,6504.3864,N,02243.9371,W,1,09,0.9,17.8,M,60.9,M,,0000*7E
$GPGSA,A,3,30,16,23,31,29,02,25,13,21,,,,1.8,0.9,1.6*3D
$GPRMC,115203.000,A,6504.3864,N,02243.9371,W,5.21,138.76,050912,,,A*7F
$GPGGA,115204.000,6504.3854,N,02243.9355,W,1,10,0.8,17.6,M,60.9,M,,0000*7B
$GPGSA,A,3,30,16,23,31,29,10,02,25,13,21,,,1.8,0.8,1.5*3E
$GPGSV,3,1,12,29,55,088,37,30,54,254,44,31,54,179,42,23,32,303,34*7B
$GPGSV,3,2,12,25,27,098,32,16,26,260,34,13,17,336,25,02,17,026,33*7C
$GPGSV,3,3,12,10,15,006,24,21,12,141,34,05,03,056,24,06,00,218,*72
$GPRMC,115204.000,A,6504.3854,N,02243.9355,W,4.20,147.21,050912,,,A*77
$GPGGA,115205.000,6504.3844,N,02243.9347,W,1,10,0.8,17.4,M,60.9,M,,0000*7A
$GPGSA,A,3,30,16,23,31,29,10,02,25,13,21,,,1.8,0.8,1.5*3E
$GPRMC,115205.000,A,6504.3844,N,02243.9347,W,3.37,158.41,050912,,,A*7D
$GPGGA,115206.000,6504.3834,N,02243.9342,W,1,10,0.8,17.1,M,60.9,M,,0000*7E
$GPGSA,A,3,30,16,23,31,29,10,02,25,13,21,,,1.8,0.8,1.5*3E
$GPRMC,115206.000,A,6504.3834,N,02243.9342,W,3.48,169.43,050912,,,A*74
$GPGGA,115207.000,6504.3822,N,02243.9343,W,1,10,0.8,16.9,M,60.9,M,,0000*70
$GPGSA,A,3,30,16,23,31,29,10,02,25,13,21,,,1.8,0.8,1.5*3E
$GPRMC,115207.000,A,6504.3822,N,02243.9343,W,4.21,182.25,050912,,,A*7E
$GPGGA,115208.000,6504.3806,N,02243.9353,W,1,10,0.8,16.8,M,60.9,M,,0000*79
$GPGSA,A,3,30,16,23,31,29,10,02,25,13,21,,,1.8,0.8,1.5*3E
$GPRMC,115208.000,A,6504.3806,N,02243.9353,W,5.87,196.61,050912,,,A*7E
$GPGGA,115209.000,6504.3789,N,02243.9378,W,1,10,0.8,16.7,M,60.9,M,,0000*76
$GPGSA,A,3,30,16,23,31,29,10,02,25,13,21,,,1.8,0.8,1.5*3E
$GPGSV,3,1,12,29,55,088,31,30,54,254,35,31,54,179,42,23,32,303,40*78
$GPGSV,3,2,12,25,27,098,30,16,26,260,30,13,17,336,30,02,17,026,27*7B
$GPGSV,3,3,12,10,15,006,28,21,12,141,27,05,03,056,23,06,00,218,*7B
$GPRMC,115209.000,A,6504.3789,N,02243.9378,W,7.36,211.39,050912,,,A*77
$GPGGA,115210.000,6504.3769,N,02243.9409,W,1,10,0.8,16.5,M,60.9,M,,0000*73
$GPGSA,A,3,30,16,23,31,29,10,02,25,13,21,,,1.8,0.8,1.5*3E
$GPRMC,115210.000,A,6504.3769,N,02243.9409,W,8.64,215.23,050912,,,A*77
$GPGGA,115211.000,6504.3747,N,02243.9447,W,1,10,0.8,16.5,M,60.9,M,,0000*74
$GPGSA,A,3,30,16,23,31,29,10,02,25,13,21,,,1.8,0.8,1.5*3E
$GPRMC,115211.000,A,6504.3747,N,02243.9447,W,10.02,216.44,050912,,,A*4B
$GPGGA,115212.000,6504.3722,N,02243.9492,W,1,10,0.8,16.4,M,60.9,M,,0000*7D
$GPGSA,A,3,30,16,23,31,29,10,02,25,13,21,,,1.8,0.8,1.5*3E
$GPRMC,115212.000,A,6504.3722,N,02243.9492,W,11.36,217.64,050912,,,A*46
$GPGGA,115213.000,6504.3695,N,02243.9543,W,1,10,0.8,16.4,M,60.9,M,,0000*7C
$GPGSA,A,3,30,16,23,31,29,10,02,25,13,21,,,1.8,0.8,1.5*3E
$GPRMC,115213.000,A,6504.3695,N,02243.9543,W,12.50,218.55,050912,,,A*49
$GPGGA,115214.000,6504.3666,N,02243.9595,W,1,10,0.8,16.4,M,60.9,M,,0000*7C
$GPGSA,A,3,30,16,23,31,29,10,02,25,13,21,,,1.8,0.8,1.5*3E
$GPGSV,3,1,12,29,55,088,36,30,54,254,38,31,54,179,37,23,32,303,31*76
$GPGSV,3,2,12,25,27,098,27,16,26,260,29,13,17,336,24,02,17,026,30*76
$GPGSV,3,3,12,10,15,006,27,21,12,141,27,05,03,056,16,06,00,218,*72
$GPRMC,115214.000,A,6504.3666,N,02243.9595,W,13.09,218.21,050912,,,A*47
$GPGGA,115215.000,6504.3638,N,02243.9645,W,1,10,0.8,16.4,M,60.9,M,,0000*78
$GPGSA,A,3,30,16,23,31,29,10,02,25,13,21,,,1.8,0.8,1.5*3E
$GPRMC,115215.000,A,6504.3638,N,02243.9645,W,12.96,216.77,050912,,,A*49
$GPGGA,115216.000,6504.3607,N,02243.9697,W,1,09,0.9,16.6,M,60.9,M,,0000*73
$GPGSA,A,3,30,16,23,31,29,10,02,25,21,,,,1.8,0.9,1.6*3E
$GPRMC,115216.000,A,6504.3607,N,02243.9697,W,13.86,215.20,050912,,,A*48
$GPGGA,115217.000,6504.3573,N,02243.9753,W,1,10,0.8,16.8,M,60.9,M,,0000*7C
$GPGSA,A,3,30,16,23,31,29,10,02,25,13,21,,,1.8,0.8,1.5*3E
$GPRMC,115217.000,A,6504.3573,N,02243.9753,W,15.30,214.49,050912,,,A*45
$GPGGA,115218.000,6504.3535,N,02243.9813,W,1,10,0.8,17.1,M,60.9,M,,0000*72
$GPGSA,A,3,30,16,23,31,29,10,02,25,13,21,,,1.8,0.8,1.5*3E
$GPRMC,115218.000,A,6504.3535,N,02243.9813,W,16.57,213.63,050912,,,A*4E
$GPGGA,115219.000,6504.3495,N,02243.9873,W,1,10,0.8,17.4,M,60.9,M,,0000*7B
$GPGSA,A,3,30,16,23,31,29,10,02,25,13,21,,,1.8,0.8,1.5*3E
$GPGSV,3,1,12,29,55,088,28,30,54,254,40,31,54,179,37,23,32,303,38*7F
$GPGSV,3,2,12,25,27,098,32,16,26,260,27,13,17,336,29,02,17,026,24*74
$GPGSV,3,3,12,10,15,006,33,21,12,141,26,05,03,056,26,06,00,218,*75
$GPRMC,115219.000,A,6504.3495,N,02243.9873,W,17.54,211.94,050912,,,A*4A
$GPGGA,115220.000,6504.3452,N,02243.9933,W,1,10,0.8,17.7,M,60.9,M,,0000*7C
$GPGSA,A,3,30,16,23,31,29,10,02,25,13,21,,,1.8,0.8,1.5*3E
$GPRMC,115220.000,A,6504.3452,N,02243.9933,W,18.08,210.80,050912,,,A*4C
$GPGGA,115221.000,6504.3408,N,02243.9990,W,1,10,0.8,18.0,M,60.9,M,,0000*73
$GPGSA,A,3,30,16,23,31,29,10,02,25,13,21,,,1.8,0.8,1.5*3E
$GPRMC,115221.000,A,6504.3408,N,02243.9990,W,18.44,208.21,050912,,,A*41
$GPGGA,115222.000,6504.3362,N,02244.0044,W,1,09,0.9,18.3,M,60.9,M,,0000*7F
$GPGSA,A,3,30,16,23,31,29,10,02,13,21,,,,1.8,0.9,1.5*38
$GPRMC,115222.000,A,6504.3362,N,02244.0044,W,18.79,205.89,050912,,,A*46
$GPGGA,115223.000,6504.3315,N,02244.0099,W,1,10,0.8,18.5,M,60.9,M,,0000*71
$GPGSA,A,3,30,16,23,31,29,10,02,25,13,21,,,1.8,0.8,1.5*3E
$GPRMC,115223.000,A,6504.3315,N,02244.0099,W,18.94,206.16,050912,,,A*41
$GPGGA,115224.000,6504.3268,N,02244.0153,W,1,10,0.8,18.8,M,60.9,M,,0000*77
$GPGSA,A,3,30,16,23,31,29,10,02,25,13,21,,,1.8,0.8,1.5*3E
$GPGSV,3,1,12,29,55,088,21,30,54,254,32,31,54,179,38,23,32,303,32*76
$GPGSV,3,2,12,25,27,098,31,16,26,260,33,13,17,336,30,02,17,026,29*77
$GPGSV,3,3,12,10,15,006,30,21,12,141,26,05,03,056,29,06,00,218,*79
$GPRMC,115224.000,A,6504.3268,N,02244.0153,W,19.04,205.65,050912,,,A*45
$GPGGA,115225.000,6504.3221,N,02244.0205,W,1,10,0.8,19.1,M,60.9,M,,0000*73
$GPGSA,A,3,30,16,23,31,29,10,02,25,13,21,,,1.8,0.8,1.6*3D
$GPRMC,115225.000,A,6504.3221,N,02244.0205,W,19.03,204.09,050912,,,A*45
$GPGGA,115226.000,6504.3173,N,02244.0254,W,1,10,0.8,19.4,M,60.9,M,,0000*75
$GPGSA,A,3,30,16,23,31,29,10,02,25,13,21,,,1.8,0.8,1.6*3D
$GPRMC,115226.000,A,6504.3173,N,02244.0254,W,18.84,202.78,050912,,,A*48
$GPGGA,115227.000,6504.3126,N,02244.0301,W,1,10,0.8,19.7,M,60.9,M,,0000*76
$GPGSA,A,3,30,16,23,31,29,10,02,25,13,21,,,1.8,0.8,1.6*3D
$GPRMC,115227.000,A,6504.3126,N,02244.0301,W,18.57,202.58,050912,,,A*44
$GPGGA,115228.000,6504.3080,N,02244.0348,W,1,09,0.9,20.1,M,60.9,M,,0000*7C
$GPGSA,A,3,30,16,31,29,10,02,25,13,21,,,,1.8,0.9,1.6*3D
$GPRMC,115228.000,A,6504.3080,N,02244.0348,W,18.32,202.18,050912,,,A*4C
$GPGGA,115229.000,6504.3033,N,02244.0391,W,1,10,0.8,20.5,M,60.9,M,,0000*7C
$GPGSA,A,3,30,16,23,31,29,10,02,25,13,21,,,1.8,0.8,1.6*3D
$GPGSV,3,1,12,29,55,088,28,30,54,254,36,31,54,179,38,23,32,303,38*71
$GPGSV,3,2,12,25,27,098,31,16,26,260,34,13,17,336,35,02,17,026,22*7E
$GPGSV,3,3,12,10,15,006,30,21,12,141,20,05,03,056,29,06,00,218,*7F
$GPRMC,115229.000,A,6504.3033,N,02244.0391,W,18.26,200.34,050912,,,A*48
$GPGGA,115230.000,6504.2985,N,02244.0434,W,1,10,0.8,20.9,M,60.9,M,,0000*75
$GPGSA,A,3,30,16,23,31,29,10,02,25,13,21,,,1.8,0.8,1.6*3D
$GPRMC,115230.000,A,6504.2985,N,02244.0434,W,18.53,199.62,050912,,,A*4F
$GPGGA,115231.000,6504.2936,N,02244.0474,W,1,10,0.8,21.3,M,60.9,M,,0000*73
$GPGSA,A,3,30,16,23,31,29,10,02,25,13,21,,,1.8,0.8,1.6*3D
$GPRMC,115231.000,A,6504.2936,N,02244.0474,W,18.77,198.30,050912,,,A*42
$GPGGA,115232.000,6504.2887,N,02244.0511,W,1,10,0.8,21.6,M,60.9,M,,0000*7C
$GPGSA,A,3,30,16,23,31,29,10,02,25,13,21,,,1.8,0.8,1.6*3D
$GPRMC,115232.000,A,6504.2887,N,02244.0511,W,18.67,196.68,050912,,,A*4A
$GPGGA,115233.000,6504.2838,N,02244.0546,W,1,10,0.8,21.9,M,60.9,M,,0000*74
$GPGSA,A,3,30,16,23,31,29,10,02,25,13,21,,,1.8,0.8,1.6*3D
$GPRMC,115233.000,A,6504.2838,N,02244.0546,W,18.79,195.85,050912,,,A*42
$GPGGA,115234.000,6504.2788,N,02244.0580,W,1,10,0.8,22.0,M,60.9,M,,0000*77
$GPGSA,A,3,30,16,23,31,29,10,02,25,13,21,,,1.8,0.8,1.6*3D
$GPGSV,3,1,12,29,55,088,30,30,54,254,38,31,54,179,38,23,32,303,39*77
$GPGSV,3,2,12,25,27,098,31,16,26,260,25,13,17,336,36,02,17,026,25*7A
$GPGSV,3,3,12,10,15,006,25,21,12,141,23,05,03,056,28,06,00,218,*79
$GPRMC,115234.000,A,6504.2788,N,02244.0580,W,18.90,195.37,050912,,,A*45
$GPGGA,115235.000,6504.2738,N,02244.0614,W,1,10,0.8,22.0,M,60.9,M,,0000*73
$GPGSA,A,3,30,16,23,31,29,10,02,25,13,21,,,1.8,0.8,1.6*3D
$GPRMC,115235.000,A,6504.2738,N,02244.0614,W,18.61,195.41,050912,,,A*4E
$GPGGA,115236.000,6504.2689,N,02244.0649,W,1,10,0.8,22.1,M,60.9,M,,0000*72
$GPGSA,A,3,30,16,23,31,29,10,02,25,13,21,,,1.8,0.8,1.6*3D
$GPRMC,115236.000,A,6504.2689,N,02244.0649,W,18.60,196.26,050912,,,A*4D
$GPGGA,115237.000,6504.2639,N,02244.0686,W,1,09,0.9,22.3,M,60.9,M,,0000*70
$GPGSA,A,3,30,16,23,31,29,10,02,13,21,,,,1.8,0.9,1.6*3B
$GPRMC,115237.000,A,6504.2639,N,02244.0686,W,18.88,197.02,050912,,,A*45
$GPGGA,115238.000,6504.2589,N,02244.0725,W,1,09,0.9,22.5,M,60.9,M,,0000*79
$GPGSA,A,3,30,16,23,31,29,10,02,13,21,,,,1.8,0.9,1.6*3B
$GPRMC,115238.000,A,6504.2589,N,02244.0725,W,19.19,197.55,050912,,,A*41
$GPGGA,115239.000,6504.2538,N,02244.0763,W,1,09,0.9,22.7,M,60.9,M,,0000*72
$GPGSA,A,3,30,16,23,31,29,10,02,13,21,,,,1.8,0.9,1.6*3B
$GPGSV,3,1,12,29,55,088,19,30,54,254,38,31,54,179,38,23,32,303,39*7C
$GPGSV,3,2,12,25,27,098,,16,26,260,24,13,17,336,36,02,17,026,29*75
$GPGSV,3,3,12,10,15,006,31,21,12,141,25,05,03,056,18,06,00,218,*79
$GPRMC,115239.000,A,6504.2538,N,02244.0763,W,19.34,197.00,050912,,,A*47
$GPGGA,115240.000,6504.2486,N,02244.0802,W,1,10,0.8,22.6,M,60.9,M,,0000*78
$GPGSA,A,3,30,16,23,31,29,10,02,25,13,21,,,1.8,0.8,1.6*3D
$GPRMC,115240.000,A,6504.2486,N,02244.0802,W,19.72,197.04,050912,,,A*43
$GPGGA,115241.000,6504.2433,N,02244.0841,W,1,10,0.8,22.4,M,60.9,M,,0000*72
$GPGSA,A,3,30,16,23,31,29,10,02,25,13,21,,,1.8,0.8,1.6*3D
$GPRMC,115241.000,A,6504.2433,N,02244.0841,W,19.72,197.15,050912,,,A*4B
$GPGGA,115242.000,6504.2382,N,02244.0880,W,1,10,0.8,22.1,M,60.9,M,,0000*74
$GPGSA,A,3,30,16,23,31,29,10,02,25,13,21,,,1.8,0.8,1.6*3D
$GPRMC,115242.000,A,6504.2382,N,02244.0880,W,19.47,197.04,050912,,,A*4E
$GPGGA,115243.000,6504.2331,N,02244.0918,W,1,10,0.8,22.0,M,60.9,M,,0000*7C
$GPGSA,A,3,30,16,23,31,29,10,02,25,13,21,,,1.8,0.8,1.6*3D
$GPRMC,115243.000,A,6504.2331,N,02244.0918,W,19.13,196.85,050912,,,A*4E
$GPGGA,115244.000,6504.2279,N,02244.0957,W,1,10,0.8,21.7,M,60.9,M,,0000*79
$GPGSA,A,3,30,16,23,31,29,10,02,25,13,21,,,1.8,0.8,1.6*3D
$GPGSV,3,1,12,29,55,088,25,30,54,254,38,31,54,179,37,23,32,303,39*7C
$GPGSV,3,2,12,25,27,098,30,16,26,260,22,13,17,336,37,02,17,026,27*7F
$GPGSV,3,3,12,10,15,006,23,21,12,141,22,05,03,056,28,06,00,218,*7E
$GPRMC,115244.000,A,6504.2279,N,02244.0957,W,19.29,197.15,050912,,,A*4E
$GPGGA,115245.000,6504.2228,N,02244.0996,W,1,10,0.8,21.4,M,60.9,M,,0000*72
$GPGSA,A,3,30,16,23,31,29,10,02,25,13,21,,,1.8,0.8,1.6*3D
$GPRMC,115245.000,A,6504.2228,N,02244.0996,W,19.16,197.39,050912,,,A*44
$GPGGA,115246.000,6504.2177,N,02244.1035,W,1,10,0.8,21.0,M,60.9,M,,0000*7D
$GPGSA,A,3,30,16,23,31,29,10,02,25,13,21,,,1.8,0.8,1.6*3D
$GPRMC,115246.000,A,6504.2177,N,02244.1035,W,18.96,197.47,050912,,,A*4F
$GPGGA,115247.000,6504.2126,N,02244.1071,W,1,10,0.8,20.6,M,60.9,M,,0000*7F
$GPGSA,A,3,30,16,23,31,29,10,02,25,13,21,,,1.8,0.8,1.6*3D
$GPRMC,115247.000,A,6504.2126,N,02244.1071,W,18.99,196.23,050912,,,A*46
$GPGGA,115248.000,6504.2074,N,02244.1108,W,1,10,0.8,20.0,M,60.9,M,,0000*7F
$GPGSA,A,3,30,16,23,31,29,10,02,25,13,21,,,1.8,0.8,1.6*3D
$GPRMC,115248.000,A,6504.2074,N,02244.1108,W,19.29,196.13,050912,,,A*49
$GPGGA,115249.000,6504.2022,N,02244.1149,W,1,10,0.8,19.3,M,60.9,M,,0000*71
$GPGSA,A,3,30,16,23,31,29,10,02,25,13,21,,,1.8,0.8,1.6*3D
$GPGSV,3,1,12,30,55,254,39,29,55,087,35,31,54,179,37,23,32,302,39*73
$GPGSV,3,2,12,25,27,098,33,16,26,260,22,13,17,335,36,02,16,026,27*7F
$GPGSV,3,3,12,10,15,005,20,21,12,140,25,05,04,055,25,06,01,218,*70
$GPRMC,115249.000,A,6504.2022,N,02244.1149,W,19.49,198.01,050912,,,A*45
$GPGGA,115250.000,6504.1969,N,02244.1194,W,1,10,0.8,18.5,M,60.9,M,,0000*7B
$GPGSA,A,3,30,16,23,31,29,10,02,25,13,21,,,1.8,0.8,1.6*3D
$GPRMC,115250.000,A,6504.1969,N,02244.1194,W,19.70,199.51,050912,,,A*46
$GPGGA,115251.000,6504.1917,N,02244.1245,W,1,10,0.8,17.7,M,60.9,M,,0000*71
$GPGSA,A,3,30,16,23,31,29,10,02,25,13,21,,,1.8,0.8,1.6*3D
$GPRMC,115251.000,A,6504.1917,N,02244.1245,W,19.80,202.59,050912,,,A*47
$GPGGA,115252.000,6504.1867,N,02244.1305,W,1,10,0.8,16.9,M,60.9,M,,0000*7E
$GPGSA,A,3,30,16,23,31,29,10,02,25,13,21,,,1.8,0.8,1.6*3D
$GPRMC,115252.000,A,6504.1867,N,02244.1305,W,20.06,206.60,050912,,,A*4D
$GPGGA,115253.000,6504.1816,N,02244.1372,W,1,10,0.8,16.2,M,60.9,M,,0000*72
$GPGSA,A,3,30,16,23,31,29,10,02,25,13,21,,,1.8,0.8,1.6*3D
$GPRMC,115253.000,A,6504.1816,N,02244.1372,W,20.52,209.73,050912,,,A*46
$GPGGA,115254.000,6504.1767,N,02244.1445,W,1,10,0.8,15.8,M,60.9,M,,0000*76
$GPGSA,A,3,30,16,23,31,29,10,02,25,13,21,,,1.8,0.8,1.6*3D
$GPGSV,3,1,12,30,55,254,44,29,55,087,21,31,54,179,32,23,32,302,36*76
$GPGSV,3,2,12,25,27,098,31,16,26,260,28,13,17,335,27,02,16,026,30*71
$GPGSV,3,3,12,10,15,005,23,21,12,140,27,05,04,055,20,06,01,218,*74
$GPRMC,115254.000,A,6504.1767,N,02244.1445,W,20.81,211.98,050912,,,A*49
$GPGGA,115255.000,6504.1718,N,02244.1525,W,1,10,0.8,15.5,M,60.9,M,,0000*75
$GPGSA,A,3,30,16,23,31,29,10,02,25,13,21,,,1.8,0.8,1.6*3D
$GPRMC,115255.000,A,6504.1718,N,02244.1525,W,21.23,215.32,050912,,,A*4A
$GPGGA,115256.000,6504.1671,N,02244.1612,W,1,10,0.8,15.2,M,60.9,M,,0000*78
$GPGSA,A,3,30,16,23,31,29,10,02,25,13,21,,,1.8,0.8,1.6*3D
$GPRMC,115256.000,A,6504.1671,N,02244.1612,W,21.56,218.01,050912,,,A*4F
$GPGGA,115257.000,6504.1625,N,02244.1709,W,1,10,0.8,15.1,M,60.9,M,,0000*70
$GPGSA,A,3,30,16,23,31,29,10,02,25,13,21,,,1.8,0.8,1.6*3D
$GPRMC,115257.000,A,6504.1625,N,02244.1709,W,22.12,222.08,050912,,,A*47
$GPGGA,115258.000,6504.1580,N,02244.1813,W,1,10,0.8,15.0,M,60.9,M,,0000*76
$GPGSA,A,3,30,16,23,31,29,10,02,25,13,21,,,1.8,0.8,1.6*3D
$GPRMC,115258.000,A,6504.1580,N,02244.1813,W,22.47,224.55,050912,,,A*4E
$GPGGA,115259.000,6504.1537,N,02244.1917,W,1,10,0.8,15.1,M,60.9,M,,0000*7F
$GPGSA,A,3,30,16,23,31,29,10,02,25,13,21,,,1.8,0.8,1.6*3D
$GPGSV,3,1,12,30,55,254,45,29,55,087,24,31,54,179,24,23,32,302,36*75
$GPGSV,3,2,12,25,27,098,29,16,26,260,34,13,17,335,34,02,16,026,25*73
$GPGSV,3,3,12,10,15,005,35,21,12,140,27,05,04,055,18,06,01,218,*78
$GPRMC,115259.000,A,6504.1537,N,02244.1917,W,22.26,225.99,050912,,,A*40
$GPGGA,115300.000,6504.1495,N,02244.2024,W,1,10,0.8,15.1,M,60.9,M,,0000*71
$GPGSA,A,3,30,16,23,31,29,10,02,25,13,21,,,1.8,0.8,1.6*3D
$GPRMC,115300.000,A,6504.1495,N,02244.2024,W,22.29,226.85,050912,,,A*4F
$GPGGA,115301.000,6504.1451,N,02244.2136,W,1,10,0.8,15.0,M,60.9,M,,0000*7B
$GPGSA,A,3,30,16,23,31,29,10,02,25,13,21,,,1.8,0.8,1.6*3D
$GPRMC,115301.000,A,6504.1451,N,02244.2136,W,23.43,227.10,050912,,,A*44
$GPGGA,115302.000,6504.1404,N,02244.2255,W,1,10,0.8,15.0,M,60.9,M,,0000*7E
$GPGSA,A,3,30,16,23,31,29,10,02,25,13,21,,,1.8,0.8,1.6*3D
$GPRMC,115302.000,A,6504.1404,N,02244.2255,W,24.73,226.82,050912,,,A*4F
$GPGGA,115303.000,6504.1355,N,02244.2376,W,1,10,0.8,14.9,M,60.9,M,,0000*74
$GPGSA,A,3,30,16,23,31,29,10,02,25,13,21,,,1.8,0.8,1.6*3D
$GPRMC,115303.000,A,6504.1355,N,02244.2376,W,25.70,226.14,050912,,,A*40
$GPGGA,115304.000,6504.1305,N,02244.2499,W,1,10,0.8,14.9,M,60.9,M,,0000*70
$GPGSA,A,3,30,16,23,31,29,10,02,25,13,21,,,1.8,0.8,1.6*3D
$GPGSV,3,1,12,30,55,254,44,29,55,087,32,31,54,179,19,23,32,302,37*7C
$GPGSV,3,2,12,25,27,098,30,16,26,260,35,13,17,335,30,02,16,026,17*7F
$GPGSV,3,3,12,10,15,005,35,21,12,140,27,05,04,055,24,06,01,218,*77
$GPRMC,115304.000,A,6504.1305,N,02244.2499,W,26.10,225.72,050912,,,A*42
$GPGGA,115305.000,6504.1254,N,02244.2622,W,1,09,0.9,14.9,M,60.9,M,,0000*7F
$GPGSA,A,3,30,16,23,31,29,10,02,13,21,,,,1.8,0.9,1.6*3B
$GPRMC,115305.000,A,6504.1254,N,02244.2622,W,26.21,225.47,050912,,,A*40
$GPGGA,115306.000,6504.1204,N,02244.2744,W,1,10,0.8,14.9,M,60.9,M,,0000*71
$GPGSA,A,3,30,16,23,31,29,10,02,25,13,21,,,1.8,0.8,1.6*3D
$GPRMC,115306.000,A,6504.1204,N,02244.2744,W,26.09,225.34,050912,,,A*49
$GPGGA,115307.000,6504.1153,N,02244.2866,W,1,09,1.2,14.9,M,60.9,M,,0000*7D
$GPGSA,A,3,30,16,23,31,29,10,02,25,13,,,,2.7,1.2,2.5*39
$GPRMC,115307.000,A,6504.1153,N,02244.2866,W,26.22,225.43,050912,,,A*4F
$GPGGA,115308.000,6504.1102,N,02244.2990,W,1,09,1.2,15.0,M,60.9,M,,0000*76
$GPGSA,A,3,30,16,23,31,29,10,02,25,13,,,,2.7,1.2,2.5*39
$GPRMC,115308.000,A,6504.1102,N,02244.2990,W,26.36,225.42,050912,,,A*48
$GPGGA,115309.000,6504.1051,N,02244.3113,W,1,09,1.2,15.1,M,60.9,M,,0000*73
$GPGSA,A,3,30,16,23,31,29,10,02,25,13,,,,2.7,1.2,2.5*39
$GPGSV,3,1,12,30,55,254,44,29,55,087,31,31,54,179,16,23,32,302,38*7F
$GPGSV,3,2,12,25,27,098,33,16,26,260,36,13,17,335,29,02,16,026,26*75
$GPGSV,3,3,12,10,15,005,34,21,12,140,,05,04,055,19,06,01,218,*7D
$GPRMC,115309.000,A,6504.1051,N,02244.3113,W,26.32,225.30,050912,,,A*4D
$GPGGA,115310.000,6504.1000,N,02244.3234,W,1,09,1.2,15.3,M,60.9,M,,0000*7B
$GPGSA,A,3,30,16,23,31,29,10,02,25,13,,,,2.7,1.2,2.5*39
$GPRMC,115310.000,A,6504.1000,N,02244.3234,W,26.27,224.33,050912,,,A*41
$GPGGA,115311.000,6504.0947,N,02244.3353,W,1,09,1.2,15.5,M,60.9,M,,0000*77
$GPGSA,A,3,30,16,23,31,29,10,02,25,13,,,,2.7,1.2,2.5*39
$GPRMC,115311.000,A,6504.0947,N,02244.3353,W,26.28,222.85,050912,,,A*4F
$GPGGA,115312.000,6504.0893,N,02244.3467,W,1,09,1.2,15.7,M,60.9,M,,0000*7E
$GPGSA,A,3,30,16,23,31,29,10,02,25,13,,,,2.7,1.2,2.5*39
$GPRMC,115312.000,A,6504.0893,N,02244.3467,W,26.29,221.14,050912,,,A*4E
$GPGGA,115313.000,6504.0838,N,02244.3579,W,1,09,1.2,16.0,M,60.9,M,,0000*74
$GPGSA,A,3,30,16,23,31,29,10,02,25,13,,,,2.7,1.2,2.5*39
$GPRMC,115313.000,A,6504.0838,N,02244.3579,W,26.24,219.91,050912,,,A*4B
$GPGGA,115314.000,6504.0783,N,02244.3690,W,1,10,0.8,16.2,M,60.9,M,,0000*79
$GPGSA,A,3,30,16,23,31,29,10,02,25,13,21,,,1.8,0.8,1.6*3D
$GPGSV,3,1,12,30,55,254,45,29,55,087,24,31,54,179,16,23,32,302,33*71
$GPGSV,3,2,12,25,27,098,21,16,26,260,36,13,17,335,31,02,16,026,29*70
$GPGSV,3,3,12,10,15,005,26,21,12,140,30,05,04,055,18,06,01,218,*7C
$GPRMC,115314.000,A,6504.0783,N,02244.3690,W,26.30,219.65,050912,,,A*49
$GPGGA,115315.000,6504.0726,N,02244.3799,W,1,10,0.8,16.4,M,60.9,M,,0000*79
$GPGSA,A,3,30,16,23,31,29,10,02,25,13,21,,,1.8,0.8,1.6*3D
$GPRMC,115315.000,A,6504.0726,N,02244.3799,W,26.38,218.72,050912,,,A*40
$GPGGA,115316.000,6504.0668,N,02244.3907,W,1,10,0.8,16.5,M,60.9,M,,0000*79
$GPGSA,A,3,30,16,23,31,29,10,02,25,13,21,,,1.8,0.8,1.6*3D
$GPRMC,115316.000,A,6504.0668,N,02244.3907,W,26.69,217.57,050912,,,A*4D
$GPGGA,115317.000,6504.0610,N,02244.4013,W,1,10,0.8,16.7,M,60.9,M,,0000*7E
$GPGSA,A,3,30,16,23,31,29,10,02,25,13,21,,,1.8,0.8,1.6*3D
$GPRMC,115317.000,A,6504.0610,N,02244.4013,W,26.55,217.21,050912,,,A*46
$GPGGA,115318.000,6504.0553,N,02244.4117,W,1,10,0.8,16.8,M,60.9,M,,0000*7F
$GPGSA,A,3,30,16,23,31,29,10,02,25,13,21,,,1.8,0.8,1.6*3D
$GPRMC,115318.000,A,6504.0553,N,02244.4117,W,26.30,217.04,050912,,,A*4C
$GPGGA,115319.000,6504.0496,N,02244.4222,W,1,09,0.9,17.0,M,60.9,M,,0000*73
$GPGSA,A,3,30,16,23,31,29,02,25,13,21,,,,1.8,0.9,1.6*3D
$GPGSV,3,1,12,30,55,254,44,29,55,087,20,31,53,179,29,23,32,302,34*78
$GPGSV,3,2,12,25,27,098,23,16,26,260,36,13,17,335,31,02,16,026,28*73
$GPGSV,3,3,12,10,15,005,23,21,13,140,30,05,04,055,20,06,01,218,*73
$GPRMC,115319.000,A,6504.0496,N,02244.4222,W,26.17,217.33,050912,,,A*41
$GPGGA,115320.000,6504.0439,N,02244.4326,W,1,09,0.9,17.2,M,60.9,M,,0000*7B
$GPGSA,A,3,30,16,23,31,29,02,25,13,21,,,,1.8,0.9,1.6*3D
$GPRMC,115320.000,A,6504.0439,N,02244.4326,W,26.11,217.65,050912,,,A*4E
$GPGGA,115321.000,6504.0382,N,02244.4433,W,1,09,0.9,17.4,M,60.9,M,,0000*78
