$GPGGA,181512.000,6439.9185,N,02122.0571,W,1,11,0.8,41.7,M,60.6,M,,0000*77
$GPGSA,A,3,32,19,14,18,28,08,11,22,01,27,03,,1.4,0.8,1.2*3C
$GPRMC,181512.000,A,6439.9185,N,02122.0571,W,32.42,248.75,290812,,,A*44
$GPGGA,181513.000,6439.9149,N,02122.0763,W,1,11,0.8,41.8,M,60.6,M,,0000*78
$GPGSA,A,3,32,19,14,18,28,08,11,22,01,27,03,,1.4,0.8,1.2*3C
$GPRMC,181513.000,A,6439.9149,N,02122.0763,W,32.33,246.78,290812,,,A*41
$GPGGA,181514.000,6439.9111,N,02122.0949,W,1,09,0.8,41.9,M,60.6,M,,0000*7C
$GPGSA,A,3,32,14,18,28,08,11,01,27,03,,,,1.7,0.8,1.5*30
$GPGSV,3,1,12,11,65,210,41,19,51,131,,01,48,225,34,28,41,297,32*7F
$GPGSV,3,2,12,22,38,065,28,03,19,131,37,32,14,172,29,08,14,260,24*71
$GPGSV,3,3,12,27,13,001,35,14,11,087,31,18,10,034,30,06,08,123,27*75
$GPRMC,181514.000,A,6439.9111,N,02122.0949,W,31.82,244.52,290812,,,A*4E
$GPGGA,181515.000,6439.9071,N,02122.1131,W,1,10,0.8,41.9,M,60.6,M,,0000*74
$GPGSA,A,3,32,14,18,28,08,11,22,01,27,03,,,1.6,0.8,1.4*30
$GPRMC,181515.000,A,6439.9071,N,02122.1131,W,31.59,242.77,290812,,,A*49
$GPGGA,181516.000,6439.9028,N,02122.1309,W,1,10,0.8,42.0,M,60.6,M,,0000*78
$GPGSA,A,3,32,14,18,28,08,11,22,01,27,03,,,1.6,0.8,1.4*30
$GPRMC,181516.000,A,6439.9028,N,02122.1309,W,31.43,241.05,290812,,,A*42
$GPGGA,181517.000,6439.8985,N,02122.1486,W,1,11,0.8,42.0,M,60.6,M,,0000*77
$GPGSA,A,3,32,19,14,18,28,08,11,22,01,27,03,,1.4,0.8,1.2*3C
$GPRMC,181517.000,A,6439.8985,N,02122.1486,W,31.41,240.53,290812,,,A*4C
$GPGGA,181518.000,6439.8942,N,02122.1661,W,1,11,0.8,42.0,M,60.6,M,,0000*78
$GPGSA,A,3,32,19,14,18,28,08,11,22,01,27,03,,1.4,0.8,1.2*3C
$GPRMC,181518.000,A,6439.8942,N,02122.1661,W,31.09,240.03,290812,,,A*4A
$GPGGA,181519.000,6439.8899,N,02122.1836,W,1,10,0.8,41.9,M,60.6,M,,0000*79
$GPGSA,A,3,32,19,18,28,08,11,22,01,27,03,,,1.5,0.8,1.3*39
$GPGSV,3,1,12,11,65,210,42,19,51,131,29,01,48,225,37,28,41,297,32*74
$GPGSV,3,2,12,22,38,065,37,03,19,131,32,32,14,172,17,08,14,260,16*76
$GPGSV,3,3,12,27,13,001,37,14,11,087,,18,10,034,23,06,08,123,37*76
$GPRMC,181519.000,A,6439.8899,N,02122.1836,W,31.27,240.17,290812,,,A*49
$GPGGA,181520.000,6439.8855,N,02122.2016,W,1,10,0.8,41.8,M,60.6,M,,0000*7B
$GPGSA,A,3,32,19,18,28,08,11,22,01,27,03,,,1.5,0.8,1.3*39
$GPRMC,181520.000,A,6439.8855,N,02122.2016,W,31.73,240.80,290812,,,A*45
$GPGGA,181521.000,6439.8815,N,02122.2203,W,1,11,0.8,41.5,M,60.6,M,,0000*74
$GPGSA,A,3,32,19,14,18,28,08,11,22,01,27,03,,1.4,0.8,1.2*3C
$GPRMC,181521.000,A,6439.8815,N,02122.2203,W,32.35,243.45,290812,,,A*4D
$GPGGA,181522.000,6439.8778,N,02122.2395,W,1,11,0.8,41.2,M,60.6,M,,0000*7A
$GPGSA,A,3,32,19,14,18,28,08,11,22,01,27,03,,1.4,0.8,1.2*3C
$GPRMC,181522.000,A,6439.8778,N,02122.2395,W,32.51,245.88,290812,,,A*41
$GPGGA,181523.000,6439.8745,N,02122.2593,W,1,11,0.8,40.9,M,60.6,M,,0000*7F
$GPGSA,A,3,32,19,14,18,28,08,11,22,01,27,03,,1.4,0.8,1.2*3C
$GPRMC,181523.000,A,6439.8745,N,02122.2593,W,32.83,248.94,290812,,,A*41
$GPGGA,181524.000,6439.8715,N,02122.2797,W,1,11,0.8,40.5,M,60.6,M,,0000*77
$GPGSA,A,3,32,19,14,18,28,08,11,22,01,27,03,,1.4,0.8,1.2*3C
$GPGSV,3,1,12,11,65,210,40,19,51,131,38,01,48,225,30,28,41,297,32*71
$GPGSV,3,2,12,22,38,065,27,03,19,131,41,32,14,172,31,08,14,260,23*71
$GPGSV,3,3,12,27,13,001,36,14,11,087,29,18,10,034,34,06,08,123,37*7A
$GPRMC,181524.000,A,6439.8715,N,02122.2797,W,33.14,251.80,290812,,,A*47
$GPGGA,181525.000,6439.8689,N,02122.3003,W,1,11,0.8,40.2,M,60.6,M,,0000*7E
$GPGSA,A,3,32,19,14,18,28,08,11,22,01,27,03,,1.4,0.8,1.2*3C
$GPRMC,181525.000,A,6439.8689,N,02122.3003,W,33.29,254.00,290812,,,A*4A
$GPGGA,181526.000,6439.8667,N,02122.3214,W,1,11,0.8,39.9,M,60.6,M,,0000*7C
$GPGSA,A,3,32,19,14,18,28,08,11,22,01,27,03,,1.4,0.8,1.2*3C
$GPRMC,181526.000,A,6439.8667,N,02122.3214,W,33.60,256.28,290812,,,A*48
$GPGGA,181527.000,6439.8647,N,02122.3428,W,1,11,0.8,39.5,M,60.6,M,,0000*7A
$GPGSA,A,3,32,19,14,18,28,08,11,22,01,27,03,,1.4,0.8,1.2*3C
$GPRMC,181527.000,A,6439.8647,N,02122.3428,W,33.70,258.67,290812,,,A*46
$GPGGA,181528.000,6439.8634,N,02122.3644,W,1,11,0.8,39.2,M,60.6,M,,0000*7E
$GPGSA,A,3,32,19,14,18,28,08,11,22,01,27,03,,1.4,0.8,1.2*3C
$GPRMC,181528.000,A,6439.8634,N,02122.3644,W,33.75,262.00,290812,,,A*48
$GPGGA,181529.000,6439.8625,N,02122.3862,W,1,11,0.8,38.9,M,60.6,M,,0000*7F
$GPGSA,A,3,32,19,14,18,28,08,11,22,01,27,03,,1.4,0.8,1.2*3C
$GPGSV,3,1,12,11,65,210,33,19,51,131,34,01,48,225,25,28,41,297,27*79
$GPGSV,3,2,12,22,38,065,28,03,19,131,40,32,14,172,28,08,14,260,33*76
$GPGSV,3,3,12,27,13,001,40,14,11,087,30,18,10,034,33,06,08,123,35*76
$GPRMC,181529.000,A,6439.8625,N,02122.3862,W,33.85,265.32,290812,,,A*4A
$GPGGA,181530.000,6439.8622,N,02122.4080,W,1,11,0.8,38.7,M,60.6,M,,0000*7D
$GPGSA,A,3,32,19,14,18,28,08,11,22,01,27,03,,1.4,0.8,1.2*3C
$GPRMC,181530.000,A,6439.8622,N,02122.4080,W,33.88,268.64,290812,,,A*45
$GPGGA,181531.000,6439.8623,N,02122.4296,W,1,11,0.8,38.6,M,60.6,M,,0000*79
$GPGSA,A,3,32,19,14,18,28,08,11,22,01,27,03,,1.4,0.8,1.2*3C
$GPRMC,181531.000,A,6439.8623,N,02122.4296,W,33.49,271.24,290812,,,A*41
$GPGGA,181532.000,6439.8627,N,02122.4510,W,1,11,0.8,38.5,M,60.6,M,,0000*74
$GPGSA,A,3,32,19,14,18,28,08,11,22,01,27,03,,1.4,0.8,1.2*3C
$GPRMC,181532.000,A,6439.8627,N,02122.4510,W,33.35,273.56,290812,,,A*43
$GPGGA,181533.000,6439.8635,N,02122.4723,W,1,11,0.8,38.6,M,60.6,M,,0000*77
$GPGSA,A,3,32,19,14,18,28,08,11,22,01,27,03,,1.4,0.8,1.2*3C
$GPRMC,181533.000,A,6439.8635,N,02122.4723,W,33.15,275.11,290812,,,A*44
$GPGGA,181534.000,6439.8643,N,02122.4934,W,1,11,0.8,38.8,M,60.6,M,,0000*77
$GPGSA,A,3,32,19,14,18,28,08,11,22,01,27,03,,1.4,0.8,1.2*3C
$GPGSV,3,1,12,11,65,210,33,19,51,131,34,01,48,225,38,28,41,297,36*75
$GPGSV,3,2,12,22,38,065,23,03,19,131,32,32,14,172,38,08,14,260,34*7E
$GPGSV,3,3,12,27,13,001,37,14,11,087,31,18,10,034,34,06,08,123,35*70
$GPRMC,181534.000,A,6439.8643,N,02122.4934,W,32.93,275.56,290812,,,A*46
$GPGGA,181535.000,6439.8651,N,02122.5145,W,1,11,0.8,39.0,M,60.6,M,,0000*73
$GPGSA,A,3,32,19,14,18,28,08,11,22,01,27,03,,1.4,0.8,1.2*3C
$GPRMC,181535.000,A,6439.8651,N,02122.5145,W,32.87,275.56,290812,,,A*4E
$GPGGA,181536.000,6439.8659,N,02122.5356,W,1,11,0.8,39.3,M,60.6,M,,0000*7B
$GPGSA,A,3,32,19,14,18,28,08,11,22,01,27,03,,1.4,0.8,1.2*3C
$GPRMC,181536.000,A,6439.8659,N,02122.5356,W,32.85,275.58,290812,,,A*49
$GPGGA,181537.000,6439.8667,N,02122.5567,W,1,11,0.8,39.6,M,60.6,M,,0000*76
$GPGSA,A,3,32,19,14,18,28,08,11,22,01,27,03,,1.4,0.8,1.2*3C
$GPRMC,181537.000,A,6439.8667,N,02122.5567,W,32.81,275.67,290812,,,A*49
$GPGGA,181538.000,6439.8676,N,02122.5777,W,1,11,0.8,39.9,M,60.6,M,,0000*75
$GPGSA,A,3,32,19,14,18,28,08,11,22,01,27,03,,1.4,0.8,1.2*3C
$GPRMC,181538.000,A,6439.8676,N,02122.5777,W,32.85,275.85,290812,,,A*4D
$GPGGA,181539.000,6439.8685,N,02122.5988,W,1,11,0.8,40.2,M,60.6,M,,0000*73
$GPGSA,A,3,32,19,14,18,28,08,11,22,01,27,03,,1.4,0.8,1.2*3C
$GPGSV,3,1,12,11,65,210,33,19,51,131,34,01,48,225,38,28,41,297,36*75
$GPGSV,3,2,12,22,38,065,24,03,19,131,34,32,14,172,40,08,14,260,34*70
$GPGSV,3,3,12,27,13,001,37,14,11,087,31,18,10,034,35,06,08,123,36*72
$GPRMC,181539.000,A,6439.8685,N,02122.5988,W,32.86,275.80,290812,,,A*48
$GPGGA,181540.000,6439.8694,N,02122.6199,W,1,11,0.8,40.5,M,60.6,M,,0000*71
$GPGSA,A,3,32,19,14,18,28,08,11,22,01,27,03,,1.4,0.8,1.2*3C
$GPRMC,181540.000,A,6439.8694,N,02122.6199,W,32.82,275.87,290812,,,A*4E
$GPGGA,181541.000,6439.8703,N,02122.6408,W,1,11,0.8,40.8,M,60.6,M,,0000*7F
$GPGSA,A,3,32,19,14,18,28,08,11,22,01,27,03,,1.4,0.8,1.2*3C
$GPRMC,181541.000,A,6439.8703,N,02122.6408,W,32.69,276.08,290812,,,A*4C
$GPGGA,181542.000,6439.8713,N,02122.6619,W,1,11,0.8,41.1,M,60.6,M,,0000*77
$GPGSA,A,3,32,19,14,18,28,08,11,22,01,27,03,,1.4,0.8,1.2*3C
$GPRMC,181542.000,A,6439.8713,N,02122.6619,W,32.83,276.02,290812,,,A*42
$GPGGA,181543.000,6439.8722,N,02122.6830,W,1,11,0.8,41.3,M,60.6,M,,0000*73
$GPGSA,A,3,32,19,14,18,28,08,11,22,01,27,03,,1.4,0.8,1.2*3C
$GPRMC,181543.000,A,6439.8722,N,02122.6830,W,32.95,275.81,290812,,,A*4B
$GPGGA,181544.000,6439.8731,N,02122.7042,W,1,11,0.8,41.6,M,60.6,M,,0000*7F
$GPGSA,A,3,32,19,14,18,28,08,11,22,01,27,03,,1.4,0.8,1.2*3C
$GPGSV,3,1,12,11,65,210,34,19,51,131,34,01,48,225,39,28,41,297,37*72
$GPGSV,3,2,12,22,38,065,28,03,19,131,34,32,14,172,40,08,14,260,34*7C
$GPGSV,3,3,12,27,13,001,37,14,11,087,30,18,10,034,36,06,08,123,37*71
$GPRMC,181544.000,A,6439.8731,N,02122.7042,W,32.98,275.61,290812,,,A*41
$GPGGA,181545.000,6439.8740,N,02122.7255,W,1,11,0.8,41.7,M,60.6,M,,0000*7D
$GPGSA,A,3,32,19,14,18,28,08,11,22,01,27,03,,1.4,0.8,1.2*3C
$GPRMC,181545.000,A,6439.8740,N,02122.7255,W,33.15,275.46,290812,,,A*43
$GPGGA,181546.000,6439.8749,N,02122.7470,W,1,11,0.8,41.8,M,60.6,M,,0000*79
$GPGSA,A,3,32,19,14,18,28,08,11,22,01,27,03,,1.4,0.8,1.2*3C
$GPRMC,181546.000,A,6439.8749,N,02122.7470,W,33.45,275.46,290812,,,A*4D
$GPGGA,181547.000,6439.8758,N,02122.7686,W,1,11,0.8,42.0,M,60.6,M,,0000*78
$GPGSA,A,3,32,19,14,18,28,08,11,22,01,27,03,,1.4,0.8,1.2*3C
$GPRMC,181547.000,A,6439.8758,N,02122.7686,W,33.72,275.51,290812,,,A*45
$GPGGA,181548.000,6439.8767,N,02122.7904,W,1,11,0.8,42.2,M,60.6,M,,0000*7C
$GPGSA,A,3,32,19,14,18,28,08,11,22,01,27,03,,1.4,0.8,1.2*3C
$GPRMC,181548.000,A,6439.8767,N,02122.7904,W,33.94,275.96,290812,,,A*40
$GPGGA,181549.000,6439.8777,N,02122.8122,W,1,11,0.8,42.5,M,60.6,M,,0000*78
$GPGSA,A,3,32,19,14,18,28,08,11,22,01,27,03,,1.4,0.8,1.2*3C
$GPGSV,3,1,12,11,65,210,35,19,51,131,34,01,48,225,39,28,41,297,36*72
$GPGSV,3,2,12,22,38,065,27,03,19,131,35,32,14,172,40,08,14,260,33*75
$GPGSV,3,3,12,27,13,001,37,14,11,087,29,18,10,034,36,06,08,123,37*79
$GPRMC,181549.000,A,6439.8777,N,02122.8122,W,34.07,275.85,290812,,,A*4C
$GPGGA,181550.000,6439.8786,N,02122.8341,W,1,11,0.8,42.8,M,60.6,M,,0000*74
$GPGSA,A,3,32,19,14,18,28,08,11,22,01,27,03,,1.4,0.8,1.2*3C
$GPRMC,181550.000,A,6439.8786,N,02122.8341,W,34.11,275.49,290812,,,A*4A
$GPGGA,181551.000,6439.8795,N,02122.8560,W,1,11,0.8,43.1,M,60.6,M,,0000*7A
$GPGSA,A,3,32,19,14,18,28,08,11,22,01,27,03,,1.4,0.8,1.2*3C
$GPRMC,181551.000,A,6439.8795,N,02122.8560,W,34.05,275.37,290812,,,A*40
$GPGGA,181552.000,6439.8804,N,02122.8778,W,1,11,0.8,43.4,M,60.6,M,,0000*70
$GPGSA,A,3,32,19,14,18,28,08,11,22,01,27,03,,1.4,0.8,1.2*3C
$GPRMC,181552.000,A,6439.8804,N,02122.8778,W,33.96,275.48,290812,,,A*4A
$GPGGA,181553.000,6439.8814,N,02122.8997,W,1,11,0.8,43.7,M,60.6,M,,0000*7C
$GPGSA,A,3,32,19,14,18,28,08,11,22,01,27,03,,1.4,0.8,1.2*3C
$GPRMC,181553.000,A,6439.8814,N,02122.8997,W,34.01,275.92,290812,,,A*4B
$GPGGA,181554.000,6439.8824,N,02122.9215,W,1,11,0.8,44.1,M,60.6,M,,0000*79
$GPGSA,A,3,32,19,14,18,28,08,11,22,01,27,03,,1.4,0.8,1.2*3C
$GPGSV,3,1,12,11,65,210,34,19,51,131,34,01,48,225,38,28,41,297,36*72
$GPGSV,3,2,12,22,38,065,27,03,19,131,35,32,14,172,40,08,14,260,34*72
$GPGSV,3,3,12,27,13,001,37,14,11,087,30,18,10,034,35,06,08,123,37*72
$GPRMC,181554.000,A,6439.8824,N,02122.9215,W,33.96,275.79,290812,,,A*43
$GPGGA,181555.000,6439.8834,N,02122.9432,W,1,11,0.8,44.4,M,60.6,M,,0000*7F
$GPGSA,A,3,32,19,14,18,28,08,11,22,01,27,03,,1.4,0.8,1.2*3C
$GPRMC,181555.000,A,6439.8834,N,02122.9432,W,33.86,275.90,290812,,,A*46
$GPGGA,181556.000,6439.8843,N,02122.9649,W,1,11,0.8,44.7,M,60.6,M,,0000*71
$GPGSA,A,3,32,19,14,18,28,08,11,22,01,27,03,,1.4,0.8,1.2*3C
$GPRMC,181556.000,A,6439.8843,N,02122.9649,W,33.69,275.73,290812,,,A*47
$GPGGA,181557.000,6439.8852,N,02122.9865,W,1,11,0.8,45.0,M,60.6,M,,0000*76
$GPGSA,A,3,32,19,14,18,28,08,11,22,01,27,03,,1.4,0.8,1.2*3C
$GPRMC,181557.000,A,6439.8852,N,02122.9865,W,33.65,275.44,290812,,,A*4E
$GPGGA,181558.000,6439.8861,N,02123.0082,W,1,11,0.8,45.3,M,60.6,M,,0000*73
$GPGSA,A,3,32,19,14,18,28,08,11,22,01,27,03,,1.4,0.8,1.2*3C
$GPRMC,181558.000,A,6439.8861,N,02123.0082,W,33.69,275.72,290812,,,A*41
$GPGGA,181559.000,6439.8871,N,02123.0299,W,1,11,0.8,45.5,M,60.6,M,,0000*7D
$GPGSA,A,3,32,19,14,18,28,08,11,22,01,27,03,,1.4,0.8,1.2*3C
$GPGSV,3,1,12,11,65,210,35,19,51,131,34,01,48,225,39,28,41,297,37*73
$GPGSV,3,2,12,22,38,065,27,03,19,131,35,32,14,172,40,08,14,260,34*72
$GPGSV,3,3,12,27,13,001,36,14,11,087,30,18,10,034,35,06,08,123,37*73
$GPRMC,181559.000,A,6439.8871,N,02123.0299,W,33.74,275.97,290812,,,A*4E
$GPGGA,181600.000,6439.8881,N,02123.0515,W,1,11,0.8,45.7,M,60.6,M,,0000*7C
$GPGSA,A,3,32,19,14,18,28,08,11,22,01,27,03,,1.4,0.8,1.2*3C
$GPRMC,181600.000,A,6439.8881,N,02123.0515,W,33.65,275.58,290812,,,A*4E
$GPGGA,181601.000,6439.8890,N,02123.0732,W,1,11,0.8,45.9,M,60.6,M,,0000*74
$GPGSA,A,3,32,19,14,18,28,08,11,22,01,27,03,,1.4,0.8,1.2*3C
$GPRMC,181601.000,A,6439.8890,N,02123.0732,W,33.65,275.48,290812,,,A*49
$GPGGA,181602.000,6439.8898,N,02123.0948,W,1,11,0.8,46.1,M,60.6,M,,0000*77
$GPGSA,A,3,32,19,14,18,28,08,11,22,01,27,03,,1.4,0.8,1.2*3C
$GPRMC,181602.000,A,6439.8898,N,02123.0948,W,33.59,275.37,290812,,,A*46
$GPGGA,181603.000,6439.8907,N,02123.1164,W,1,11,0.8,46.2,M,60.6,M,,0000*75
$GPGSA,A,3,32,19,14,18,28,08,11,22,01,27,03,,1.4,0.8,1.2*3C
$GPRMC,181603.000,A,6439.8907,N,02123.1164,W,33.52,275.45,290812,,,A*49
$GPGGA,181604.000,6439.8917,N,02123.1379,W,1,11,0.8,46.3,M,60.6,M,,0000*7C
$GPGSA,A,3,32,19,14,18,28,08,11,22,01,27,03,,1.4,0.8,1.2*3C
$GPGSV,3,1,12,11,65,210,36,19,51,131,34,01,48,225,39,28,41,297,37*70
$GPGSV,3,2,12,22,38,065,28,03,19,131,35,32,14,172,40,08,14,260,33*7A
$GPGSV,3,3,12,27,13,001,36,14,11,087,30,18,10,034,35,06,08,123,36*72
$GPRMC,181604.000,A,6439.8917,N,02123.1379,W,33.46,275.53,290812,,,A*43
$GPGGA,181605.000,6439.8926,N,02123.1593,W,1,11,0.8,46.3,M,60.6,M,,0000*7D
$GPGSA,A,3,32,19,14,18,28,08,11,22,01,27,03,,1.4,0.8,1.2*3C
$GPRMC,181605.000,A,6439.8926,N,02123.1593,W,33.27,275.64,290812,,,A*41
$GPGGA,181606.000,6439.8936,N,02123.1807,W,1,11,0.8,46.4,M,60.6,M,,0000*78
$GPGSA,A,3,32,19,14,18,28,08,11,22,01,27,03,,1.4,0.8,1.2*3C
$GPRMC,181606.000,A,6439.8936,N,02123.1807,W,33.22,276.28,290812,,,A*4D
$GPGGA,181607.000,6439.8947,N,02123.2020,W,1,11,0.8,46.4,M,60.6,M,,0000*71
$GPGSA,A,3,32,19,14,18,28,08,11,22,01,27,03,,1.4,0.8,1.2*3C
$GPRMC,181607.000,A,6439.8947,N,02123.2020,W,33.22,276.94,290812,,,A*43
$GPGGA,181608.000,6439.8960,N,02123.2234,W,1,11,0.8,46.4,M,60.6,M,,0000*7C
$GPGSA,A,3,32,19,14,18,28,08,11,22,01,27,03,,1.4,0.8,1.2*3C
$GPRMC,181608.000,A,6439.8960,N,02123.2234,W,33.36,278.17,290812,,,A*4E
$GPGGA,181609.000,6439.8976,N,02123.2448,W,1,11,0.8,46.3,M,60.6,M,,0000*70
$GPGSA,A,3,32,19,14,18,28,08,11,22,01,27,03,,1.4,0.8,1.2*3C
$GPGSV,3,1,12,11,65,210,36,19,51,131,34,01,48,225,39,28,41,297,36*71
$GPGSV,3,2,12,22,38,065,28,03,19,131,35,32,14,172,33,08,14,260,34*79
$GPGSV,3,3,12,27,13,001,36,14,11,087,23,18,10,034,35,06,08,123,25*72
$GPRMC,181609.000,A,6439.8976,N,02123.2448,W,33.54,279.53,290812,,,A*40
$GPGGA,181610.000,6439.8993,N,02123.2662,W,1,11,0.8,46.3,M,60.6,M,,0000*79
$GPGSA,A,3,32,19,14,18,28,08,11,22,01,27,03,,1.4,0.8,1.2*3C
$GPRMC,181610.000,A,6439.8993,N,02123.2662,W,33.62,280.78,290812,,,A*43
$GPGGA,181611.000,6439.9012,N,02123.2874,W,1,11,0.8,46.3,M,60.6,M,,0000*70
$GPGSA,A,3,32,19,14,18,28,08,11,22,01,27,03,,1.4,0.8,1.2*3C
$GPRMC,181611.000,A,6439.9012,N,02123.2874,W,33.68,282.26,290812,,,A*49
$GPGGA,181612.000,6439.9034,N,02123.3086,W,1,11,0.8,46.3,M,60.6,M,,0000*73
$GPGSA,A,3,32,19,14,18,28,08,11,22,01,27,03,,1.4,0.8,1.2*3C
$GPRMC,181612.000,A,6439.9034,N,02123.3086,W,33.61,283.58,290812,,,A*4B
$GPGGA,181613.000,6439.9059,N,02123.3294,W,1,11,0.8,46.3,M,60.6,M,,0000*78
$GPGSA,A,3,32,19,14,18,28,08,11,22,01,27,03,,1.4,0.8,1.2*3C
$GPRMC,181613.000,A,6439.9059,N,02123.3294,W,33.44,285.36,290812,,,A*49
$GPGGA,181614.000,6439.9084,N,02123.3500,W,1,11,0.8,46.3,M,60.6,M,,0000*75
$GPGSA,A,3,32,19,14,18,28,08,11,22,01,27,03,,1.4,0.8,1.2*3C
$GPGSV,3,1,12,11,65,210,37,19,51,131,34,01,48,225,40,28,41,297,31*79
$GPGSV,3,2,12,22,38,065,37,03,19,131,24,32,14,172,37,08,14,260,34*73
$GPGSV,3,3,12,27,13,001,29,14,11,087,24,18,10,034,26,06,08,123,31*7C
$GPRMC,181614.000,A,6439.9084,N,02123.3500,W,33.01,286.06,290812,,,A*45
$GPGGA,181615.000,6439.9109,N,02123.3703,W,1,11,0.8,46.3,M,60.6,M,,0000*71
$GPGSA,A,3,32,19,14,18,28,08,11,22,01,27,03,,1.4,0.8,1.2*3C
$GPRMC,181615.000,A,6439.9109,N,02123.3703,W,32.76,286.13,290812,,,A*44
$GPGGA,181616.000,6439.9134,N,02123.3906,W,1,11,0.8,46.4,M,60.6,M,,0000*70
$GPGSA,A,3,32,19,14,18,28,08,11,22,01,27,03,,1.4,0.8,1.2*3C
$GPRMC,181616.000,A,6439.9134,N,02123.3906,W,32.78,286.14,290812,,,A*4B
$GPGGA,181617.000,6439.9159,N,02123.4110,W,1,11,0.8,46.4,M,60.6,M,,0000*72
$GPGSA,A,3,32,19,14,18,28,08,11,22,01,27,03,,1.4,0.8,1.2*3C
$GPRMC,181617.000,A,6439.9159,N,02123.4110,W,32.81,286.04,290812,,,A*4E
$GPGGA,181618.000,6439.9185,N,02123.4315,W,1,11,0.8,46.5,M,60.6,M,,0000*7A
$GPGSA,A,3,32,19,14,18,28,08,11,22,01,27,03,,1.4,0.8,1.2*3C
$GPRMC,181618.000,A,6439.9185,N,02123.4315,W,33.07,286.14,290812,,,A*49
$GPGGA,181619.000,6439.9211,N,02123.4523,W,1,11,0.8,46.5,M,60.6,M,,0000*76
$GPGSA,A,3,32,19,14,18,28,08,11,22,01,27,03,,1.4,0.8,1.2*3C
$GPGSV,3,1,12,11,65,210,37,19,51,131,33,01,48,225,39,28,41,297,30*71
$GPGSV,3,2,12,22,38,065,38,03,19,131,28,32,14,172,38,08,14,260,34*7F
$GPGSV,3,3,12,27,13,001,29,14,11,087,30,18,10,034,32,06,08,123,32*7F
$GPRMC,181619.000,A,6439.9211,N,02123.4523,W,33.60,286.62,290812,,,A*45
$GPGGA,181620.000,6439.9238,N,02123.4732,W,1,11,0.8,46.5,M,60.6,M,,0000*75
$GPGSA,A,3,32,19,14,18,28,08,11,22,01,27,03,,1.4,0.8,1.2*3C
$GPRMC,181620.000,A,6439.9238,N,02123.4732,W,33.89,286.55,290812,,,A*45
$GPGGA,181621.000,6439.9265,N,02123.4942,W,1,11,0.8,46.5,M,60.6,M,,0000*75
$GPGSA,A,3,32,19,14,18,28,08,11,22,01,27,03,,1.4,0.8,1.2*3C
$GPRMC,181621.000,A,6439.9265,N,02123.4942,W,33.89,286.32,290812,,,A*44
$GPGGA,181622.000,6439.9291,N,02123.5150,W,1,11,0.8,46.5,M,60.6,M,,0000*77
$GPGSA,A,3,32,19,14,18,28,08,11,22,01,27,03,,1.4,0.8,1.2*3C
$GPRMC,181622.000,A,6439.9291,N,02123.5150,W,33.66,285.92,290812,,,A*4E
$GPGGA,181623.000,6439.9315,N,02123.5358,W,1,11,0.8,46.6,M,60.6,M,,0000*72
$GPGSA,A,3,32,19,14,18,28,08,11,22,01,27,03,,1.4,0.8,1.2*3C
$GPRMC,181623.000,A,6439.9315,N,02123.5358,W,33.40,285.16,290812,,,A*40
$GPGGA,181624.000,6439.9338,N,02123.5565,W,1,11,0.8,46.6,M,60.6,M,,0000*72
$GPGSA,A,3,32,19,14,18,28,08,11,22,01,27,03,,1.4,0.8,1.2*3C
$GPGSV,3,1,12,11,65,210,20,19,51,131,27,01,48,225,40,28,41,297,30*7C
$GPGSV,3,2,12,22,38,065,27,03,19,131,27,32,14,172,25,08,14,260,35*73
$GPGSV,3,3,12,27,13,001,26,14,11,087,25,18,10,034,26,06,08,123,31*72
$GPRMC,181624.000,A,6439.9338,N,02123.5565,W,33.24,284.51,290812,,,A*40
$GPGGA,181625.000,6439.9360,N,02123.5775,W,1,11,0.8,46.5,M,60.6,M,,0000*7E
$GPGSA,A,3,32,19,14,18,28,08,11,22,01,27,03,,1.4,0.8,1.2*3C
$GPRMC,181625.000,A,6439.9360,N,02123.5775,W,33.40,283.14,290812,,,A*4B
$GPGGA,181626.000,6439.9374,N,02123.5989,W,1,09,0.9,46.4,M,60.6,M,,0000*7C
$GPGSA,A,3,32,19,14,28,11,22,01,27,03,,,,1.8,0.9,1.5*37
$GPRMC,181626.000,A,6439.9374,N,02123.5989,W,33.56,278.66,290812,,,A*46
$GPGGA,181627.000,6439.9382,N,02123.6204,W,1,11,0.8,46.3,M,60.6,M,,0000*76
$GPGSA,A,3,32,19,14,18,28,08,11,22,01,27,03,,1.4,0.8,1.2*3C
$GPRMC,181627.000,A,6439.9382,N,02123.6204,W,33.53,274.68,290812,,,A*44
$GPGGA,181628.000,6439.9383,N,02123.6417,W,1,11,0.8,46.2,M,60.6,M,,0000*7D
$GPGSA,A,3,32,19,14,18,28,08,11,22,01,27,03,,1.4,0.8,1.2*3C
$GPRMC,181628.000,A,6439.9383,N,02123.6417,W,32.98,270.13,290812,,,A*40
$GPGGA,181629.000,6439.9378,N,02123.6627,W,1,11,0.8,46.1,M,60.6,M,,0000*7A
$GPGSA,A,3,32,19,14,18,28,08,11,22,01,27,03,,1.4,0.8,1.2*3C
$GPGSV,3,1,12,11,65,210,35,19,51,131,34,01,48,225,34,28,41,297,33*7A
$GPGSV,3,2,12,22,38,065,33,03,19,131,34,32,14,172,28,08,14,260,30*7C
$GPGSV,3,3,12,27,13,001,36,14,11,087,29,18,10,034,35,06,08,123,32*7E
$GPRMC,181629.000,A,6439.9378,N,02123.6627,W,32.42,266.12,290812,,,A*45
$GPGGA,181630.000,6439.9367,N,02123.6831,W,1,11,0.8,45.9,M,60.6,M,,0000*7E
$GPGSA,A,3,32,19,14,18,28,08,11,22,01,27,03,,1.4,0.8,1.2*3C
$GPRMC,181630.000,A,6439.9367,N,02123.6831,W,31.77,262.49,290812,,,A*45
$GPGGA,181631.000,6439.9351,N,02123.7031,W,1,11,0.8,45.8,M,60.6,M,,0000*72
$GPGSA,A,3,32,19,14,18,28,08,11,22,01,27,03,,1.4,0.8,1.2*3C
$GPRMC,181631.000,A,6439.9351,N,02123.7031,W,31.42,259.26,290812,,,A*4F
$GPGGA,181632.000,6439.9332,N,02123.7223,W,1,11,0.8,45.6,M,60.6,M,,0000*7B
$GPGSA,A,3,32,19,14,18,28,08,11,22,01,27,03,,1.4,0.8,1.2*3C
$GPRMC,181632.000,A,6439.9332,N,02123.7223,W,30.52,255.89,290812,,,A*41
$GPGGA,181633.000,6439.9308,N,02123.7403,W,1,11,0.8,45.3,M,60.6,M,,0000*72
$GPGSA,A,3,32,19,14,18,28,08,11,22,01,27,03,,1.4,0.8,1.2*3C
$GPRMC,181633.000,A,6439.9308,N,02123.7403,W,29.03,252.42,290812,,,A*41
$GPGGA,181634.000,6439.9282,N,02123.7571,W,1,11,0.8,45.0,M,60.6,M,,0000*71
$GPGSA,A,3,32,19,14,18,28,08,11,22,01,27,03,,1.4,0.8,1.2*3C
$GPGSV,3,1,12,11,65,210,36,19,51,131,29,01,48,225,25,28,41,297,34*72
$GPGSV,3,2,12,22,38,065,25,03,19,131,29,32,14,172,28,08,14,260,28*7E
$GPGSV,3,3,12,27,13,001,27,14,11,087,22,18,10,034,32,06,08,123,37*77
$GPRMC,181634.000,A,6439.9282,N,02123.7571,W,27.56,249.73,290812,,,A*47
$GPGGA,181635.000,6439.9254,N,02123.7728,W,1,11,0.8,44.7,M,60.6,M,,0000*73
$GPGSA,A,3,32,19,14,18,28,08,11,22,01,27,03,,1.4,0.8,1.2*3C
$GPRMC,181635.000,A,6439.9254,N,02123.7728,W,26.08,247.05,290812,,,A*46
$GPGGA,181636.000,6439.9228,N,02123.7869,W,1,11,0.8,44.5,M,60.6,M,,0000*73
$GPGSA,A,3,32,19,14,18,28,08,11,22,01,27,03,,1.4,0.8,1.2*3C
$GPRMC,181636.000,A,6439.9228,N,02123.7869,W,23.77,245.65,290812,,,A*4D
$GPGGA,181637.000,6439.9204,N,02123.7991,W,1,11,0.8,44.3,M,60.6,M,,0000*7C
$GPGSA,A,3,32,19,14,18,28,08,11,22,01,27,03,,1.4,0.8,1.2*3C
$GPRMC,181637.000,A,6439.9204,N,02123.7991,W,20.59,244.77,290812,,,A*49
$GPGGA,181638.000,6439.9184,N,02123.8093,W,1,11,0.8,44.1,M,60.6,M,,0000*7E
$GPGSA,A,3,32,19,14,18,28,08,11,22,01,27,03,,1.4,0.8,1.2*3C
$GPRMC,181638.000,A,6439.9184,N,02123.8093,W,16.92,245.58,290812,,,A*47
$GPGGA,181639.000,6439.9170,N,02123.8173,W,1,10,0.8,44.1,M,60.6,M,,0000*7A
$GPGSA,A,3,32,19,14,18,08,11,22,01,27,03,,,1.5,0.8,1.3*36
$GPGSV,3,1,12,11,65,210,41,19,51,131,27,01,48,225,30,28,41,297,*7F
$GPGSV,3,2,12,22,38,065,28,03,19,131,37,32,14,172,29,08,14,260,24*71
$GPGSV,3,3,12,27,13,001,36,14,11,087,23,18,10,034,30,06,08,123,32*71
$GPRMC,181639.000,A,6439.9170,N,02123.8173,W,13.02,247.02,290812,,,A*43
$GPGGA,181640.000,6439.9162,N,02123.8238,W,1,10,0.8,44.1,M,60.6,M,,0000*7B
$GPGSA,A,3,32,19,14,18,08,11,22,01,27,03,,,1.5,0.8,1.3*36
$GPRMC,181640.000,A,6439.9162,N,02123.8238,W,10.19,253.33,290812,,,A*4C
$GPGGA,181641.000,6439.9160,N,02123.8295,W,1,10,0.8,44.2,M,60.6,M,,0000*7C
$GPGSA,A,3,32,19,14,18,28,08,11,01,27,03,,,1.5,0.8,1.3*3C
$GPRMC,181641.000,A,6439.9160,N,02123.8295,W,8.38,265.40,290812,,,A*73
$GPGGA,181642.000,6439.9162,N,02123.8341,W,1,11,0.8,44.3,M,60.6,M,,0000*75
$GPGSA,A,3,32,19,14,18,28,08,11,22,01,27,03,,1.4,0.8,1.2*3C
$GPRMC,181642.000,A,6439.9162,N,02123.8341,W,6.86,278.63,290812,,,A*7C
$GPGGA,181643.000,6439.9167,N,02123.8375,W,1,10,0.8,44.5,M,60.6,M,,0000*71
$GPGSA,A,3,32,19,18,28,08,11,22,01,27,03,,,1.5,0.8,1.3*39
$GPRMC,181643.000,A,6439.9167,N,02123.8375,W,5.46,290.96,290812,,,A*7C
$GPGGA,181644.000,6439.9172,N,02123.8396,W,1,11,0.8,44.8,M,60.6,M,,0000*73
$GPGSA,A,3,32,19,14,18,28,08,11,22,01,27,03,,1.4,0.8,1.2*3C
$GPGSV,3,1,12,11,65,210,31,19,51,131,22,01,48,225,40,28,41,297,32*7B
$GPGSV,3,2,12,22,38,065,37,03,19,131,28,32,14,172,33,08,14,260,29*77
$GPGSV,3,3,12,27,13,001,29,14,11,087,29,18,10,034,32,06,08,123,29*7D
$GPRMC,181644.000,A,6439.9172,N,02123.8396,W,3.64,302.63,290812,,,A*74
$GPGGA,181645.000,6439.9176,N,02123.8406,W,1,11,0.8,45.1,M,60.6,M,,0000*70
$GPGSA,A,3,32,19,14,18,28,08,11,22,01,27,03,,1.4,0.8,1.2*3C
$GPRMC,181645.000,A,6439.9176,N,02123.8406,W,2.02,311.70,290812,,,A*7E
$GPGGA,181646.000,6439.9177,N,02123.8410,W,1,11,0.8,45.4,M,60.6,M,,0000*70
$GPGSA,A,3,32,19,14,18,28,08,11,22,01,27,03,,1.4,0.8,1.2*3C
$GPRMC,181655.000,A,6439.9175,N,02123.8387,W,1.40,135.63,290812,,,A*71
$GPGGA,181656.000,6439.9172,N,02123.8376,W,1,10,0.8,46.2,M,60.6,M,,0000*77
$GPGSA,A,3,32,19,18,28,08,11,22,01,27,03,,,1.5,0.8,1.3*39
$GPRMC,181656.000,A,6439.9172,N,02123.8376,W,1.90,124.46,290812,,,A*71
$GPGGA,181657.000,6439.9171,N,02123.8369,W,1,11,0.8,46.2,M,60.6,M,,0000*7A
$GPGSA,A,3,32,19,14,18,28,08,11,22,01,27,03,,1.4,0.8,1.2*3C
$GPRMC,181657.000,A,6439.9171,N,02123.8369,W,0.93,110.99,290812,,,A*7A
$GPGGA,181658.000,6439.9171,N,02123.8362,W,1,11,0.8,46.2,M,60.6,M,,0000*7E
$GPGSA,A,3,32,19,14,18,28,08,11,22,01,27,03,,1.4,0.8,1.2*3C
$GPRMC,181701.000,A,6439.9172,N,02123.8366,W,1.04,276.82,290812,,,A*72
$GPGGA,181702.000,6439.9172,N,02123.8372,W,1,11,0.8,46.1,M,60.6,M,,0000*71
$GPGSA,A,3,32,19,14,18,28,08,11,22,01,27,03,,1.4,0.8,1.2*3C
$GPRMC,181702.000,A,6439.9172,N,02123.8372,W,1.35,271.03,290812,,,A*78
$GPGGA,181703.000,6439.9171,N,02123.8381,W,1,11,0.8,46.2,M,60.6,M,,0000*7C
$GPGSA,A,3,32,19,14,18,28,08,11,22,01,27,03,,1.4,0.8,1.2*3C
$GPRMC,181703.000,A,6439.9171,N,02123.8381,W,1.70,258.61,290812,,,A*78
$GPGGA,181704.000,6439.9168,N,02123.8394,W,1,10,0.8,46.3,M,60.6,M,,0000*77
$GPGSA,A,3,32,19,14,18,28,08,11,22,01,27,,,1.5,0.8,1.3*3F
$GPGSV,3,1,12,11,65,210,35,19,51,131,25,01,48,225,33,28,41,297,35*7B
$GPGSV,3,2,12,22,38,065,32,03,19,131,,32,14,172,31,08,14,260,30*72
$GPGSV,3,3,12,27,13,001,31,14,11,087,30,18,10,034,33,06,08,123,37*72
$GPRMC,181704.000,A,6439.9168,N,02123.8394,W,2.53,246.40,290812,,,A*7D
$GPGGA,181705.000,6439.9162,N,02123.8411,W,1,10,0.8,46.4,M,60.6,M,,0000*71
$GPGSA,A,3,32,19,14,18,28,08,11,22,01,27,,,1.5,0.8,1.3*3F
$GPRMC,181705.000,A,6439.9162,N,02123.8411,W,3.73,233.23,290812,,,A*78
$GPGGA,181706.000,6439.9151,N,02123.8422,W,1,11,0.8,46.4,M,60.6,M,,0000*73
$GPGSA,A,3,32,19,14,18,28,08,11,22,01,27,03,,1.4,0.8,1.2*3C
$GPRMC,181706.000,A,6439.9151,N,02123.8422,W,4.60,204.21,290812,,,A*78
$GPGGA,181707.000,6439.9136,N,02123.8418,W,1,10,0.8,46.4,M,60.6,M,,0000*7B
$GPGSA,A,3,32,19,14,28,08,11,22,01,27,03,,,1.5,0.8,1.3*35
$GPRMC,181707.000,A,6439.9136,N,02123.8418,W,5.36,175.65,290812,,,A*76
$GPGGA,181708.000,6439.9120,N,02123.8400,W,1,10,0.8,46.3,M,60.6,M,,0000*7D
$GPGSA,A,3,32,19,14,28,08,11,22,01,27,03,,,1.5,0.8,1.3*35
$GPRMC,181708.000,A,6439.9120,N,02123.8400,W,6.44,154.07,290812,,,A*76
$GPGGA,181709.000,6439.9100,N,02123.8372,W,1,10,0.8,46.1,M,60.6,M,,0000*7E
$GPGSA,A,3,32,19,14,28,08,11,22,01,27,03,,,1.5,0.8,1.3*35
$GPGSV,3,1,12,11,65,210,40,19,51,131,35,01,48,225,41,28,41,297,36*7E
$GPGSV,3,2,12,22,38,065,34,03,19,131,33,32,14,172,30,08,14,260,34*71
$GPGSV,3,3,12,27,13,001,30,14,11,087,26,18,10,034,31,06,08,123,30*71
$GPRMC,181709.000,A,6439.9100,N,02123.8372,W,8.31,149.50,290812,,,A*75
$GPGGA,181710.000,6439.9075,N,02123.8341,W,1,10,0.8,45.9,M,60.6,M,,0000*7E
$GPGSA,A,3,32,19,14,28,08,11,22,01,27,03,,,1.5,0.8,1.3*35
$GPRMC,181710.000,A,6439.9075,N,02123.8341,W,10.55,152.77,290812,,,A*4A
$GPGGA,181711.000,6439.9046,N,02123.8311,W,1,10,0.8,45.6,M,60.6,M,,0000*75
$GPGSA,A,3,32,19,14,28,08,11,22,01,27,03,,,1.5,0.8,1.3*35
$GPRMC,181711.000,A,6439.9046,N,02123.8311,W,11.34,156.31,290812,,,A*4E
$GPGGA,181712.000,6439.9015,N,02123.8285,W,1,10,0.8,45.4,M,60.6,M,,0000*7E
$GPGSA,A,3,32,19,14,28,08,11,22,01,27,03,,,1.5,0.8,1.3*35
$GPRMC,181712.000,A,6439.9015,N,02123.8285,W,11.75,159.91,290812,,,A*47
$GPGGA,181713.000,6439.8982,N,02123.8261,W,1,10,0.8,45.2,M,60.6,M,,0000*75
$GPGSA,A,3,32,19,14,28,08,11,22,01,27,03,,,1.5,0.8,1.3*35
$GPRMC,181713.000,A,6439.8982,N,02123.8261,W,12.49,162.50,290812,,,A*43
$GPGGA,181714.000,6439.8947,N,02123.8235,W,1,10,0.8,44.9,M,60.6,M,,0000*70
$GPGSA,A,3,32,19,14,28,08,11,22,01,27,03,,,1.5,0.8,1.3*35
$GPGSV,3,1,12,11,65,210,41,19,51,131,26,01,48,225,37,28,41,297,37*7D
$GPGSV,3,2,12,22,38,065,36,03,19,131,22,32,14,172,26,08,14,260,34*74
$GPGSV,3,3,12,27,13,001,25,14,11,087,26,18,10,034,38,06,08,123,24*79
$GPRMC,181714.000,A,6439.8947,N,02123.8235,W,13.51,162.92,290812,,,A*4A
$GPGGA,181715.000,6439.8907,N,02123.8208,W,1,10,0.8,44.6,M,60.6,M,,0000*74
$GPGSA,A,3,32,19,14,28,08,11,22,01,27,03,,,1.5,0.8,1.3*35
$GPRMC,181715.000,A,6439.8907,N,02123.8208,W,14.81,163.91,290812,,,A*49
$GPGGA,181716.000,6439.8865,N,02123.8181,W,1,10,0.8,44.3,M,60.6,M,,0000*75
$GPGSA,A,3,32,19,14,28,08,11,22,01,27,03,,,1.5,0.8,1.3*35
$GPRMC,181716.000,A,6439.8865,N,02123.8181,W,16.01,164.57,290812,,,A*4A
$GPGGA,181717.000,6439.8819,N,02123.8153,W,1,10,0.8,44.0,M,60.6,M,,0000*73
$GPGSA,A,3,32,19,14,28,08,11,22,01,27,03,,,1.5,0.8,1.3*35
$GPRMC,181717.000,A,6439.8819,N,02123.8153,W,16.99,164.83,290812,,,A*47
$GPGGA,181718.000,6439.8772,N,02123.8123,W,1,10,0.8,43.7,M,60.6,M,,0000*79
$GPGSA,A,3,32,19,14,28,08,11,22,01,27,03,,,1.5,0.8,1.3*35
$GPRMC,181718.000,A,6439.8772,N,02123.8123,W,17.94,165.10,290812,,,A*4A
$GPGGA,181719.000,6439.8720,N,02123.8094,W,1,10,0.8,43.3,M,60.6,M,,0000*76
$GPGSA,A,3,32,19,14,28,08,11,22,01,27,03,,,1.5,0.8,1.3*35
$GPGSV,3,1,12,11,65,210,42,19,51,131,33,01,48,225,37,28,41,297,37*7A
$GPGSV,3,2,12,22,38,065,36,03,19,131,28,32,14,172,14,08,14,260,37*7C
$GPGSV,3,3,12,27,13,001,30,14,11,087,26,18,10,034,25,06,08,123,25*70
$GPRMC,181719.000,A,6439.8720,N,02123.8094,W,19.05,166.09,290812,,,A*4C
$GPGGA,181720.000,6439.8666,N,02123.8069,W,1,10,0.8,42.9,M,60.6,M,,0000*76
$GPGSA,A,3,32,19,14,28,08,11,22,01,27,03,,,1.5,0.8,1.3*35
$GPRMC,181720.000,A,6439.8666,N,02123.8069,W,20.09,168.87,290812,,,A*49
$GPGGA,181721.000,6439.8608,N,02123.8049,W,1,10,0.8,42.5,M,60.6,M,,0000*71
$GPGSA,A,3,32,19,14,28,08,11,22,01,27,03,,,1.5,0.8,1.3*35
$GPRMC,181721.000,A,6439.8608,N,02123.8049,W,21.15,171.40,290812,,,A*4D
$GPGGA,181722.000,6439.8548,N,02123.8032,W,1,10,0.8,42.0,M,60.6,M,,0000*7C
$GPGSA,A,3,32,19,14,28,08,11,22,01,27,03,,,1.5,0.8,1.3*35
$GPRMC,181722.000,A,6439.8548,N,02123.8032,W,22.03,173.18,290812,,,A*4E
$GPGGA,181723.000,6439.8485,N,02123.8022,W,1,10,0.8,41.6,M,60.6,M,,0000*79
$GPGSA,A,3,32,19,14,28,08,11,22,01,27,03,,,1.5,0.8,1.3*35
$GPRMC,181723.000,A,6439.8485,N,02123.8022,W,22.66,175.72,290812,,,A*47
$GPGGA,181724.000,6439.8421,N,02123.8015,W,1,10,0.8,41.1,M,60.6,M,,0000*73
$GPGSA,A,3,32,19,14,28,08,11,22,01,27,03,,,1.5,0.8,1.3*35
$GPGSV,3,1,12,11,65,210,42,19,51,131,31,01,48,225,38,28,41,297,43*74
$GPGSV,3,2,12,22,38,065,36,03,19,131,21,32,14,172,33,08,14,260,35*72
$GPGSV,3,3,12,27,13,001,31,14,11,087,26,18,10,034,30,06,08,123,32*73
$GPRMC,181724.000,A,6439.8421,N,02123.8015,W,23.37,177.37,290812,,,A*4C
$GPGGA,181725.000,6439.8354,N,02123.8012,W,1,09,0.8,40.7,M,60.6,M,,0000*7F
$GPGSA,A,3,32,14,28,08,11,22,01,27,03,,,,1.6,0.8,1.4*39
$GPRMC,181725.000,A,6439.8354,N,02123.8012,W,24.14,178.77,290812,,,A*42
$GPGGA,181726.000,6439.8285,N,02123.8012,W,1,10,0.8,40.3,M,60.6,M,,0000*7D
$GPGSA,A,3,32,19,14,28,08,11,22,01,27,03,,,1.5,0.8,1.3*35
$GPRMC,181726.000,A,6439.8285,N,02123.8012,W,24.64,179.90,290812,,,A*43
$GPGGA,181727.000,6439.8218,N,02123.8013,W,1,10,0.8,39.9,M,60.6,M,,0000*7D
$GPGSA,A,3,32,19,14,28,08,11,22,01,27,03,,,1.5,0.8,1.3*35
$GPRMC,181727.000,A,6439.8218,N,02123.8013,W,24.42,180.51,290812,,,A*48
$GPGGA,181728.000,6439.8150,N,02123.8014,W,1,10,0.8,39.6,M,60.6,M,,0000*75
$GPGSA,A,3,32,19,14,28,08,11,22,01,27,03,,,1.5,0.8,1.3*35
$GPRMC,181728.000,A,6439.8150,N,02123.8014,W,24.16,180.40,290812,,,A*4E
$GPGGA,181729.000,6439.8084,N,02123.8015,W,1,10,0.8,39.3,M,60.6,M,,0000*78
$GPGSA,A,3,32,19,14,28,08,11,22,01,27,03,,,1.5,0.8,1.3*35
$GPGSV,3,1,12,11,65,210,41,19,51,131,38,01,48,225,42,28,41,297,44*74
$GPGSV,3,2,12,22,38,065,36,03,19,131,30,32,14,172,30,08,14,260,35*71
$GPGSV,3,3,12,27,13,001,31,14,11,087,20,18,10,034,29,06,08,123,33*7C
$GPRMC,181729.000,A,6439.8084,N,02123.8015,W,23.92,180.44,290812,,,A*49
$GPGGA,181730.000,6439.8018,N,02123.8018,W,1,10,0.8,39.0,M,60.6,M,,0000*7B
$GPGSA,A,3,32,19,14,28,08,11,22,01,27,03,,,1.5,0.8,1.3*35
$GPRMC,181730.000,A,6439.8018,N,02123.8018,W,23.63,180.96,290812,,,A*48
$GPGGA,181731.000,6439.7954,N,02123.8023,W,1,10,0.8,38.9,M,60.6,M,,0000*74
$GPGSA,A,3,32,19,14,28,08,11,22,01,27,03,,,1.5,0.8,1.3*35
$GPRMC,181731.000,A,6439.7954,N,02123.8023,W,23.17,181.89,290812,,,A*43
$GPGGA,181732.000,6439.7890,N,02123.8028,W,1,10,0.8,38.7,M,60.6,M,,0000*7B
$GPGSA,A,3,32,19,14,28,08,11,22,01,27,03,,,1.5,0.8,1.3*35
$GPRMC,181732.000,A,6439.7890,N,02123.8028,W,22.70,182.21,290812,,,A*43
$GPGGA,181733.000,6439.7826,N,02123.8032,W,1,10,0.8,38.7,M,60.6,M,,0000*7C
$GPGSA,A,3,32,19,14,28,08,11,22,01,27,03,,,1.5,0.8,1.3*35
$GPRMC,181733.000,A,6439.7826,N,02123.8032,W,22.83,181.30,290812,,,A*4B
$GPGGA,181734.000,6439.7762,N,02123.8035,W,1,10,0.8,38.6,M,60.6,M,,0000*72
$GPGSA,A,3,32,19,14,28,08,11,22,01,27,03,,,1.5,0.8,1.3*35
$GPGSV,3,1,12,11,65,210,42,19,51,131,38,01,48,225,38,28,41,297,45*7B
$GPGSV,3,2,12,22,38,065,40,03,19,131,31,32,14,172,32,08,14,260,35*73
$GPGSV,3,3,12,27,13,001,32,14,11,087,27,18,10,034,35,06,08,123,32*74
$GPRMC,181734.000,A,6439.7762,N,02123.8035,W,23.05,181.48,290812,,,A*44
$GPGGA,181735.000,6439.7698,N,02123.8041,W,1,10,0.8,38.6,M,60.6,M,,0000*74
$GPGSA,A,3,32,19,14,28,08,11,22,01,27,03,,,1.5,0.8,1.3*35
$GPRMC,181735.000,A,6439.7698,N,02123.8041,W,23.08,182.07,290812,,,A*47
$GPGGA,181736.000,6439.7633,N,02123.8046,W,1,10,0.8,38.6,M,60.6,M,,0000*71
$GPGSA,A,3,32,19,14,28,08,11,22,01,27,03,,,1.5,0.8,1.3*35
$GPRMC,181736.000,A,6439.7633,N,02123.8046,W,23.10,181.79,290812,,,A*41
$GPGGA,181737.000,6439.7568,N,02123.8049,W,1,10,0.8,38.6,M,60.6,M,,0000*72
$GPGSA,A,3,32,19,14,28,08,11,22,01,27,03,,,1.5,0.8,1.3*35
$GPRMC,181737.000,A,6439.7568,N,02123.8049,W,23.16,181.37,290812,,,A*4E
$GPGGA,181738.000,6439.7505,N,02123.8052,W,1,10,0.8,38.6,M,60.6,M,,0000*7C
$GPGSA,A,3,32,19,14,28,08,11,22,01,27,03,,,1.5,0.8,1.3*35
$GPRMC,181738.000,A,6439.7505,N,02123.8052,W,22.81,180.98,290812,,,A*4B
$GPGGA,181739.000,6439.7443,N,02123.8053,W,1,10,0.8,38.6,M,60.6,M,,0000*7F
$GPGSA,A,3,32,19,14,28,08,11,22,01,27,03,,,1.5,0.8,1.3*35
$GPGSV,3,1,12,11,65,210,43,19,51,131,39,01,48,225,39,28,41,297,45*7A
$GPGSV,3,2,12,22,38,065,40,03,19,131,32,32,14,172,32,08,14,260,31*74
$GPGSV,3,3,12,27,13,001,32,14,11,087,17,18,10,034,34,06,08,123,31*75
$GPRMC,181739.000,A,6439.7443,N,02123.8053,W,21.95,180.48,290812,,,A*43
$GPGGA,181740.000,6439.7384,N,02123.8055,W,1,10,0.8,38.6,M,60.6,M,,0000*7B
$GPGSA,A,3,32,19,14,28,08,11,22,01,27,03,,,1.5,0.8,1.3*35
$GPRMC,181740.000,A,6439.7384,N,02123.8055,W,21.06,180.51,290812,,,A*45
$GPGGA,181741.000,6439.7327,N,02123.8056,W,1,10,0.8,38.6,M,60.6,M,,0000*70
$GPGSA,A,3,32,19,14,28,08,11,22,01,27,03,,,1.5,0.8,1.3*35
$GPRMC,181741.000,A,6439.7327,N,02123.8056,W,20.25,180.61,290812,,,A*4D
$GPGGA,181742.000,6439.7272,N,02123.8059,W,1,10,0.8,38.6,M,60.6,M,,0000*7D
$GPGSA,A,3,32,19,14,28,08,11,22,01,27,03,,,1.5,0.8,1.3*35
$GPRMC,181742.000,A,6439.7272,N,02123.8059,W,19.56,181.00,290812,,,A*48
$GPGGA,181743.000,6439.7218,N,02123.8063,W,1,10,0.8,38.6,M,60.6,M,,0000*79
$GPGSA,A,3,32,19,14,28,08,11,22,01,27,03,,,1.5,0.8,1.3*35
$GPRMC,181743.000,A,6439.7218,N,02123.8063,W,19.20,181.73,290812,,,A*49
$GPGGA,181744.000,6439.7164,N,02123.8066,W,1,10,0.8,38.6,M,60.6,M,,0000*73
$GPGSA,A,3,32,19,14,28,08,11,22,01,27,03,,,1.5,0.8,1.3*35
$GPGSV,3,1,12,11,65,210,43,19,51,131,34,01,48,225,40,28,41,297,45*79
$GPGSV,3,2,12,22,38,065,39,03,19,131,33,32,14,172,25,08,14,260,28*75
$GPGSV,3,3,12,27,13,001,32,14,11,087,24,18,10,034,29,06,08,123,31*79
$GPRMC,181744.000,A,6439.7164,N,02123.8066,W,19.23,181.47,290812,,,A*47
$GPGGA,181745.000,6439.7111,N,02123.8070,W,1,10,0.8,38.5,M,60.6,M,,0000*74
$GPGSA,A,3,32,19,14,28,08,11,22,01,27,03,,,1.5,0.8,1.3*35
$GPRMC,181745.000,A,6439.7111,N,02123.8070,W,18.84,181.87,290812,,,A*43
$GPGGA,181746.000,6439.7058,N,02123.8075,W,1,10,0.8,38.5,M,60.6,M,,0000*7E
$GPGSA,A,3,32,19,14,28,08,11,22,01,27,03,,,1.5,0.8,1.3*35
$GPRMC,181746.000,A,6439.7058,N,02123.8075,W,18.95,182.56,290812,,,A*46
$GPGGA,181747.000,6439.7003,N,02123.8085,W,1,10,0.8,38.4,M,60.6,M,,0000*7F
$GPGSA,A,3,32,19,14,28,08,11,22,01,27,03,,,1.5,0.8,1.3*35
$GPRMC,181747.000,A,6439.7003,N,02123.8085,W,19.66,184.15,290812,,,A*4A
$GPGGA,181748.000,6439.6945,N,02123.8097,W,1,10,0.8,38.4,M,60.6,M,,0000*79
$GPGSA,A,3,32,19,14,28,08,11,22,01,27,03,,,1.5,0.8,1.3*35
$GPRMC,181748.000,A,6439.6945,N,02123.8097,W,20.83,185.35,290812,,,A*4E
$GPGGA,181749.000,6439.6884,N,02123.8106,W,1,10,0.8,38.3,M,60.6,M,,0000*7A
$GPGSA,A,3,32,19,14,28,08,11,22,01,27,03,,,1.5,0.8,1.3*35
$GPGSV,3,1,12,11,66,207,43,01,50,224,39,19,50,131,33,28,41,296,46*7E
$GPGSV,3,2,12,22,37,064,36,03,18,131,22,32,15,171,27,27,14,000,32*77
$GPGSV,3,3,12,08,13,259,33,14,12,086,34,18,09,033,25,06,07,123,31*75
$GPRMC,181749.000,A,6439.6884,N,02123.8106,W,22.08,183.77,290812,,,A*4B
$GPGGA,181750.000,6439.6819,N,02123.8113,W,1,10,0.8,38.2,M,60.6,M,,0000*73
$GPGSA,A,3,32,19,14,28,08,11,22,01,27,03,,,1.5,0.8,1.3*35
$GPRMC,181750.000,A,6439.6819,N,02123.8113,W,23.25,182.27,290812,,,A*49
$GPGGA,181751.000,6439.6752,N,02123.8118,W,1,10,0.8,38.2,M,60.6,M,,0000*79
$GPGSA,A,3,32,19,14,28,08,11,22,01,27,03,,,1.5,0.8,1.3*35
$GPRMC,181751.000,A,6439.6752,N,02123.8118,W,24.10,182.07,290812,,,A*40
$GPGGA,181752.000,6439.6683,N,02123.8124,W,1,10,0.8,38.2,M,60.6,M,,0000*78
$GPGSA,A,3,32,19,14,28,08,11,22,01,27,03,,,1.5,0.8,1.3*35
$GPRMC,181752.000,A,6439.6683,N,02123.8124,W,24.78,182.07,290812,,,A*4F
$GPGGA,181753.000,6439.6613,N,02123.8129,W,1,10,0.8,38.2,M,60.6,M,,0000*7D
$GPGSA,A,3,32,19,14,28,08,11,22,01,27,03,,,1.5,0.8,1.3*35
$GPRMC,181753.000,A,6439.6613,N,02123.8129,W,25.28,181.74,290812,,,A*49
$GPGGA,181754.000,6439.6543,N,02123.8134,W,1,10,0.8,38.2,M,60.6,M,,0000*70
$GPGSA,A,3,32,19,14,28,08,11,22,01,27,03,,,1.5,0.8,1.3*35
$GPGSV,3,1,12,11,66,207,42,01,50,224,33,19,50,131,35,28,41,296,47*72
$GPGSV,3,2,12,22,37,064,35,03,18,131,32,32,15,171,28,27,14,000,33*7B
$GPGSV,3,3,12,08,13,259,34,14,12,086,19,18,09,033,31,06,07,123,34*7D
$GPRMC,181754.000,A,6439.6543,N,02123.8134,W,25.16,181.68,290812,,,A*44
$GPGGA,181755.000,6439.6474,N,02123.8139,W,1,10,0.8,38.3,M,60.6,M,,0000*78
$GPGSA,A,3,32,19,14,28,08,11,22,01,27,03,,,1.5,0.8,1.3*35
$GPRMC,181755.000,A,6439.6474,N,02123.8139,W,25.06,181.71,290812,,,A*44
$GPGGA,181756.000,6439.6402,N,02123.8144,W,1,10,0.8,38.4,M,60.6,M,,0000*77
$GPGSA,A,3,32,19,14,28,08,11,22,01,27,03,,,1.5,0.8,1.3*35
$GPRMC,181756.000,A,6439.6402,N,02123.8144,W,25.71,181.45,290812,,,A*4B
$GPGGA,181757.000,6439.6329,N,02123.8148,W,1,10,0.8,38.6,M,60.6,M,,0000*76
$GPGSA,A,3,32,19,14,28,08,11,22,01,27,03,,,1.5,0.8,1.3*35
$GPRMC,181757.000,A,6439.6329,N,02123.8148,W,26.42,181.39,290812,,,A*40
$GPGGA,181758.000,6439.6255,N,02123.8152,W,1,10,0.8,38.7,M,60.6,M,,0000*79
$GPGSA,A,3,32,19,14,28,08,11,22,01,27,03,,,1.5,0.8,1.3*35
$GPRMC,181758.000,A,6439.6255,N,02123.8152,W,26.81,181.22,290812,,,A*4B
$GPGGA,181759.000,6439.6180,N,02123.8157,W,1,10,0.8,38.9,M,60.6,M,,0000*78
$GPGSA,A,3,32,19,14,28,08,11,22,01,27,03,,,1.5,0.8,1.3*35
$GPGSV,3,1,12,11,66,207,42,01,50,224,36,19,50,131,36,28,41,296,46*75
$GPGSV,3,2,12,22,37,064,35,03,18,131,32,32,15,171,29,27,14,000,33*7A
$GPGSV,3,3,12,08,13,259,33,14,12,086,24,18,09,033,32,06,07,123,33*70
$GPRMC,181759.000,A,6439.6180,N,02123.8157,W,26.96,181.68,290812,,,A*4C
$GPGGA,181800.000,6439.6105,N,02123.8163,W,1,10,0.8,39.2,M,60.6,M,,0000*7B
$GPGSA,A,3,32,19,14,28,08,11,22,01,27,03,,,1.5,0.8,1.3*35
$GPRMC,181800.000,A,6439.6105,N,02123.8163,W,26.98,182.02,290812,,,A*44
$GPGGA,181801.000,6439.6030,N,02123.8171,W,1,10,0.8,39.4,M,60.6,M,,0000*78
$GPGSA,A,3,32,19,14,28,08,11,22,01,27,03,,,1.5,0.8,1.3*35
$GPRMC,181801.000,A,6439.6030,N,02123.8171,W,26.98,182.63,290812,,,A*46
$GPGGA,181802.000,6439.5956,N,02123.8179,W,1,10,0.8,39.6,M,60.6,M,,0000*7B
$GPGSA,A,3,32,19,14,28,08,11,22,01,27,03,,,1.5,0.8,1.3*35
$GPRMC,181802.000,A,6439.5956,N,02123.8179,W,26.87,182.69,290812,,,A*43
$GPGGA,181803.000,6439.5881,N,02123.8187,W,1,10,0.8,39.9,M,60.6,M,,0000*7F
$GPGSA,A,3,32,19,14,28,08,11,22,01,27,03,,,1.5,0.8,1.3*35
$GPRMC,181803.000,A,6439.5881,N,02123.8187,W,26.84,182.48,290812,,,A*48
$GPGGA,181804.000,6439.5806,N,02123.8197,W,1,10,0.8,40.1,M,60.6,M,,0000*70
$GPGSA,A,3,32,19,14,28,08,11,22,01,27,03,,,1.5,0.8,1.3*35
$GPGSV,3,1,12,11,66,207,43,01,50,224,36,19,50,131,37,28,41,296,46*75
$GPGSV,3,2,12,22,37,064,41,03,18,131,31,32,15,171,24,27,14,000,33*77
$GPGSV,3,3,12,08,13,259,33,14,12,086,30,18,09,033,26,06,07,123,33*70
$GPRMC,181804.000,A,6439.5806,N,02123.8197,W,27.01,183.14,290812,,,A*45
$GPGGA,181805.000,6439.5730,N,02123.8210,W,1,10,0.8,40.3,M,60.6,M,,0000*75
$GPGSA,A,3,32,19,14,28,08,11,22,01,27,03,,,1.5,0.8,1.3*35
$GPRMC,181805.000,A,6439.5730,N,02123.8210,W,27.41,184.47,290812,,,A*47
$GPGGA,181806.000,6439.5654,N,02123.8229,W,1,10,0.8,40.5,M,60.6,M,,0000*79
$GPGSA,A,3,32,19,14,28,08,11,22,01,27,03,,,1.5,0.8,1.3*35
$GPRMC,181806.000,A,6439.5654,N,02123.8229,W,27.76,186.24,290812,,,A*4E
$GPGGA,181807.000,6439.5577,N,02123.8253,W,1,10,0.8,40.7,M,60.6,M,,0000*75
$GPGSA,A,3,32,19,14,28,08,11,22,01,27,03,,,1.5,0.8,1.3*35
$GPRMC,181807.000,A,6439.5577,N,02123.8253,W,27.87,187.62,290812,,,A*4D
$GPGGA,181808.000,6439.5500,N,02123.8280,W,1,10,0.8,40.9,M,60.6,M,,0000*7A
$GPGSA,A,3,32,19,14,28,08,11,22,01,27,03,,,1.5,0.8,1.3*35
$GPRMC,181808.000,A,6439.5500,N,02123.8280,W,27.98,188.69,290812,,,A*46
$GPGGA,181809.000,6439.5424,N,02123.8310,W,1,10,0.8,41.2,M,60.6,M,,0000*7E
$GPGSA,A,3,32,19,14,28,08,11,22,01,27,03,,,1.5,0.8,1.3*35
$GPGSV,3,1,12,11,66,207,43,01,50,224,31,19,50,131,39,28,41,296,45*7F
$GPGSV,3,2,12,22,37,064,33,03,18,131,24,32,15,171,33,27,14,000,25*77
$GPGSV,3,3,12,08,13,259,27,14,12,086,37,18,09,033,37,06,07,123,25*75
$GPRMC,181809.000,A,6439.5424,N,02123.8310,W,27.87,189.81,290812,,,A*41
$GPGGA,181810.000,6439.5348,N,02123.8344,W,1,10,0.8,41.3,M,60.6,M,,0000*7B
$GPGSA,A,3,32,19,14,28,08,11,22,01,27,03,,,1.5,0.8,1.3*35
$GPRMC,181810.000,A,6439.5348,N,02123.8344,W,27.69,191.23,290812,,,A*44
$GPGGA,181811.000,6439.5273,N,02123.8383,W,1,10,0.8,41.5,M,60.6,M,,0000*7E
$GPGSA,A,3,32,19,14,28,08,11,22,01,27,03,,,1.5,0.8,1.3*35
$GPRMC,181811.000,A,6439.5273,N,02123.8383,W,27.66,192.79,290812,,,A*44
$GPGGA,181812.000,6439.5198,N,02123.8429,W,1,10,0.8,41.7,M,60.6,M,,0000*7E
$GPGSA,A,3,32,19,14,28,08,11,22,01,27,03,,,1.5,0.8,1.3*35
$GPRMC,181812.000,A,6439.5198,N,02123.8429,W,27.87,195.00,290812,,,A*40
$GPGGA,181813.000,6439.5124,N,02123.8481,W,1,10,0.8,41.8,M,60.6,M,,0000*75
$GPGSA,A,3,32,19,14,28,08,11,22,01,27,03,,,1.5,0.8,1.3*35
$GPRMC,181813.000,A,6439.5124,N,02123.8481,W,27.77,197.14,290812,,,A*4C
$GPGGA,181814.000,6439.5051,N,02123.8540,W,1,10,0.8,41.9,M,60.6,M,,0000*7C
$GPGSA,A,3,32,19,14,28,08,11,22,01,27,03,,,1.5,0.8,1.3*35
$GPGSV,3,1,12,11,66,207,38,01,50,224,38,19,50,131,32,28,41,296,44*70
$GPGSV,3,2,12,22,37,064,32,03,18,131,28,32,15,171,25,27,14,000,30*79
$GPGSV,3,3,12,08,13,259,34,14,12,086,30,18,09,033,26,06,07,123,25*70
$GPRMC,181814.000,A,6439.5051,N,02123.8540,W,27.78,199.25,290812,,,A*47
$GPGGA,181815.000,6439.4979,N,02123.8604,W,1,10,0.8,42.0,M,60.6,M,,0000*76
$GPGSA,A,3,32,19,14,28,08,11,22,01,27,03,,,1.5,0.8,1.3*35
$GPRMC,181815.000,A,6439.4979,N,02123.8604,W,27.75,201.18,290812,,,A*46
$GPGGA,181816.000,6439.4908,N,02123.8673,W,1,10,0.8,42.0,M,60.6,M,,0000*73
$GPGSA,A,3,32,19,14,28,08,11,22,01,27,03,,,1.5,0.8,1.3*35
$GPRMC,181816.000,A,6439.4908,N,02123.8673,W,27.84,203.08,290812,,,A*4E
$GPGGA,181817.000,6439.4838,N,02123.8749,W,1,10,0.8,42.0,M,60.6,M,,0000*78
$GPGSA,A,3,32,19,14,28,08,11,22,01,27,03,,,1.5,0.8,1.3*35
$GPRMC,181817.000,A,6439.4838,N,02123.8749,W,27.74,205.17,290812,,,A*42
$GPGGA,181818.000,6439.4769,N,02123.8828,W,1,10,0.8,42.0,M,60.6,M,,0000*74
$GPGSA,A,3,32,19,14,28,08,11,22,01,27,03,,,1.5,0.8,1.3*35
$GPRMC,181818.000,A,6439.4769,N,02123.8828,W,27.41,206.75,290812,,,A*4F
$GPGGA,181819.000,6439.4702,N,02123.8911,W,1,10,0.8,42.0,M,60.6,M,,0000*73
$GPGSA,A,3,32,19,14,28,08,11,22,01,27,03,,,1.5,0.8,1.3*35
$GPGSV,3,1,12,11,66,207,39,01,50,224,39,19,50,131,37,28,41,296,45*74
$GPGSV,3,2,12,22,37,064,32,03,18,131,34,32,15,171,33,27,14,000,23*71
$GPGSV,3,3,12,08,13,259,19,14,12,086,25,18,09,033,24,06,07,123,23*7F
$GPRMC,181819.000,A,6439.4702,N,02123.8911,W,27.17,208.40,290812,,,A*43
$GPGGA,181820.000,6439.4638,N,02123.8998,W,1,10,0.8,41.9,M,60.6,M,,0000*7A
$GPGSA,A,3,32,19,14,28,08,11,22,01,27,03,,,1.5,0.8,1.3*35
$GPRMC,181820.000,A,6439.4638,N,02123.8998,W,26.84,210.42,290812,,,A*40
$GPGGA,181821.000,6439.4575,N,02123.9091,W,1,10,0.8,41.8,M,60.6,M,,0000*71
$GPGSA,A,3,32,19,14,28,08,11,22,01,27,03,,,1.5,0.8,1.3*35
$GPRMC,181821.000,A,6439.4575,N,02123.9091,W,26.73,212.65,290812,,,A*45
$GPGGA,181822.000,6439.4514,N,02123.9189,W,1,10,0.8,41.6,M,60.6,M,,0000*73
$GPGSA,A,3,32,19,14,28,08,11,22,01,27,03,,,1.5,0.8,1.3*35
$GPRMC,181822.000,A,6439.4514,N,02123.9189,W,26.46,215.15,290812,,,A*4F
$GPGGA,181823.000,6439.4455,N,02123.9290,W,1,10,0.8,41.4,M,60.6,M,,0000*7F
$GPGSA,A,3,32,19,14,28,08,11,22,01,27,03,,,1.5,0.8,1.3*35
$GPRMC,181823.000,A,6439.4455,N,02123.9290,W,26.12,216.88,290812,,,A*47
$GPGGA,181824.000,6439.4398,N,02123.9394,W,1,10,0.8,41.2,M,60.6,M,,0000*7D
$GPGSA,A,3,32,19,14,28,08,11,22,01,27,03,,,1.5,0.8,1.3*35
$GPGSV,3,1,12,11,66,207,39,01,50,224,31,19,50,131,28,28,41,296,44*73
$GPGSV,3,2,12,22,37,064,33,03,18,131,29,32,15,171,26,27,14,000,31*7B
$GPGSV,3,3,12,08,13,259,36,14,12,086,35,18,09,033,34,06,07,123,33*73
$GPRMC,181824.000,A,6439.4398,N,02123.9394,W,26.05,218.54,290812,,,A*4A
$GPGGA,181825.000,6439.4342,N,02123.9504,W,1,09,0.8,40.9,M,60.6,M,,0000*76
$GPGSA,A,3,32,14,28,08,11,22,01,27,03,,,,1.6,0.8,1.4*39
$GPRMC,181825.000,A,6439.4342,N,02123.9504,W,26.28,220.31,290812,,,A*44
$GPGGA,181826.000,6439.4286,N,02123.9617,W,1,10,0.8,40.7,M,60.6,M,,0000*7B
$GPGSA,A,3,32,19,14,28,08,11,22,01,27,03,,,1.5,0.8,1.3*35
$GPRMC,181826.000,A,6439.4286,N,02123.9617,W,26.58,221.26,290812,,,A*4F
$GPGGA,181827.000,6439.4234,N,02123.9741,W,1,10,0.8,40.5,M,60.6,M,,0000*73
$GPGSA,A,3,32,19,14,28,08,11,22,01,27,03,,,1.5,0.8,1.3*35
$GPRMC,181827.000,A,6439.4234,N,02123.9741,W,26.90,226.06,290812,,,A*44
$GPGGA,181828.000,6439.4184,N,02123.9876,W,1,09,0.9,40.4,M,60.6,M,,0000*77
$GPGSA,A,3,32,19,14,28,08,11,01,27,03,,,,1.6,0.9,1.3*37
$GPRMC,181828.000,A,6439.4184,N,02123.9876,W,27.32,229.92,290812,,,A*43
$GPGGA,181829.000,6439.4137,N,02124.0014,W,1,10,0.8,40.4,M,60.6,M,,0000*75
$GPGSA,A,3,32,19,14,28,08,11,22,01,27,03,,,1.5,0.8,1.3*35
$GPGSV,3,1,12,11,66,207,39,01,50,224,36,19,50,131,38,28,41,296,38*7E
$GPGSV,3,2,12,22,37,064,23,03,18,131,36,32,15,171,28,27,14,000,29*73
$GPGSV,3,3,12,08,13,259,30,14,12,086,33,18,09,033,24,06,07,123,35*74
$GPRMC,181829.000,A,6439.4137,N,02124.0014,W,27.34,231.85,290812,,,A*41
$GPGGA,181830.000,6439.4088,N,02124.0151,W,1,10,0.8,40.4,M,60.6,M,,0000*78
$GPGSA,A,3,32,19,14,28,08,11,22,01,27,03,,,1.5,0.8,1.3*35
$GPRMC,181830.000,A,6439.4088,N,02124.0151,W,27.42,230.54,290812,,,A*40
$GPGGA,181831.000,6439.4038,N,02124.0285,W,1,10,0.8,40.5,M,60.6,M,,0000*79
$GPGSA,A,3,32,19,14,28,08,11,22,01,27,03,,,1.5,0.8,1.3*35
$GPRMC,181831.000,A,6439.4038,N,02124.0285,W,27.41,229.27,290812,,,A*4F
$GPGGA,181832.000,6439.3990,N,02124.0425,W,1,10,0.8,40.6,M,60.6,M,,0000*79
$GPGSA,A,3,32,19,14,28,08,11,22,01,27,03,,,1.5,0.8,1.3*35
$GPRMC,181832.000,A,6439.3990,N,02124.0425,W,27.68,231.17,290812,,,A*4D
$GPGGA,181833.000,6439.3945,N,02124.0572,W,1,10,0.8,40.8,M,60.6,M,,0000*7D
$GPGSA,A,3,32,19,14,28,08,11,22,01,27,03,,,1.5,0.8,1.3*35
$GPRMC,181833.000,A,6439.3945,N,02124.0572,W,27.73,235.30,290812,,,A*4C
$GPGGA,181834.000,6439.3905,N,02124.0724,W,1,10,0.8,41.0,M,60.6,M,,0000*76
$GPGSA,A,3,32,19,14,28,08,11,22,01,27,03,,,1.5,0.8,1.3*35
$GPGSV,3,1,12,11,66,207,38,01,50,224,29,19,50,131,39,28,41,296,27*7E
$GPGSV,3,2,12,22,37,064,36,03,18,131,32,32,15,171,29,27,14,000,24*7F
$GPGSV,3,3,12,08,13,259,26,14,12,086,33,18,09,033,25,06,07,123,34*73
$GPRMC,181834.000,A,6439.3905,N,02124.0724,W,27.61,238.50,290812,,,A*46
$GPGGA,181835.000,6439.3866,N,02124.0878,W,1,10,0.8,41.2,M,60.6,M,,0000*77
$GPGSA,A,3,32,19,14,28,08,11,22,01,27,03,,,1.5,0.8,1.3*35
$GPRMC,181835.000,A,6439.3866,N,02124.0878,W,27.43,240.06,290812,,,A*49
$GPGGA,181836.000,6439.3828,N,02124.1033,W,1,10,0.8,41.3,M,60.6,M,,0000*79
$GPGSA,A,3,32,19,14,28,08,11,22,01,27,03,,,1.5,0.8,1.3*35
$GPRMC,181836.000,A,6439.3828,N,02124.1033,W,27.34,241.09,290812,,,A*48
$GPGGA,181837.000,6439.3792,N,02124.1188,W,1,10,0.8,41.4,M,60.6,M,,0000*70
$GPGSA,A,3,32,19,14,28,08,11,22,01,27,03,,,1.5,0.8,1.3*35
$GPRMC,181837.000,A,6439.3792,N,02124.1188,W,27.28,241.58,290812,,,A*4F
$GPGGA,181838.000,6439.3756,N,02124.1345,W,1,10,0.8,41.5,M,60.6,M,,0000*75
$GPGSA,A,3,32,19,14,28,08,11,22,01,27,03,,,1.5,0.8,1.3*35
$GPRMC,181838.000,A,6439.3756,N,02124.1345,W,27.29,242.01,290812,,,A*45
$GPGGA,181839.000,6439.3720,N,02124.1501,W,1,10,0.8,41.6,M,60.6,M,,0000*70
$GPGSA,A,3,32,19,14,28,08,11,22,01,27,03,,,1.5,0.8,1.3*35
$GPGSV,3,1,12,11,66,207,32,01,50,224,24,19,50,131,30,28,41,296,24*73
$GPGSV,3,2,12,22,37,064,36,03,18,131,23,32,15,171,23,27,14,000,28*79
$GPGSV,3,3,12,08,13,259,19,14,12,086,28,18,09,033,25,06,07,123,27*77
$GPRMC,181839.000,A,6439.3720,N,02124.1501,W,27.21,242.51,290812,,,A*4E
$GPGGA,181840.000,6439.3685,N,02124.1661,W,1,10,0.8,41.6,M,60.6,M,,0000*75
$GPGSA,A,3,32,19,14,28,08,11,22,01,27,03,,,1.5,0.8,1.3*35
$GPRMC,181840.000,A,6439.3685,N,02124.1661,W,27.62,243.36,290812,,,A*4C
$GPGGA,181841.000,6439.3650,N,02124.1822,W,1,10,0.8,41.7,M,60.6,M,,0000*74
$GPGSA,A,3,32,19,14,28,08,11,22,01,27,03,,,1.5,0.8,1.3*35
$GPRMC,181841.000,A,6439.3650,N,02124.1822,W,27.73,243.34,290812,,,A*4E
$GPGGA,181842.000,6439.3613,N,02124.1983,W,1,10,0.8,41.8,M,60.6,M,,0000*75
$GPGSA,A,3,32,19,14,28,08,11,22,01,27,03,,,1.5,0.8,1.3*35
$GPRMC,181842.000,A,6439.3613,N,02124.1983,W,28.15,241.76,290812,,,A*4B
$GPGGA,181843.000,6439.3574,N,02124.2144,W,1,10,0.8,41.8,M,60.6,M,,0000*76
$GPGSA,A,3,32,19,14,28,08,11,22,01,27,03,,,1.5,0.8,1.3*35
$GPRMC,181843.000,A,6439.3574,N,02124.2144,W,28.53,241.00,290812,,,A*4B
$GPGGA,181844.000,6439.3535,N,02124.2304,W,1,10,0.8,41.8,M,60.6,M,,0000*72
$GPGSA,A,3,32,19,14,28,08,11,22,01,27,03,,,1.5,0.8,1.3*35
$GPGSV,3,1,12,11,66,207,28,01,50,224,26,19,50,131,32,28,41,296,25*79
$GPGSV,3,2,12,22,37,064,36,03,18,131,34,32,15,171,29,27,14,000,25*78
$GPGSV,3,3,12,08,13,259,23,14,12,086,28,18,09,033,24,06,07,123,33*7A
$GPRMC,181844.000,A,6439.3535,N,02124.2304,W,28.29,240.72,290812,,,A*46
$GPGGA,181845.000,6439.3497,N,02124.2463,W,1,10,0.8,41.8,M,60.6,M,,0000*7C
$GPGSA,A,3,32,19,14,28,08,11,22,01,27,03,,,1.5,0.8,1.3*35
$GPRMC,181845.000,A,6439.3497,N,02124.2463,W,28.06,240.78,290812,,,A*4F
$GPGGA,181846.000,6439.3459,N,02124.2622,W,1,10,0.8,41.9,M,60.6,M,,0000*7B
$GPGSA,A,3,32,19,14,28,08,11,22,01,27,03,,,1.5,0.8,1.3*35
$GPRMC,181846.000,A,6439.3459,N,02124.2622,W,27.98,241.01,290812,,,A*4E
$GPGGA,181847.000,6439.3420,N,02124.2780,W,1,10,0.8,42.0,M,60.6,M,,0000*77
$GPGSA,A,3,32,19,14,28,08,11,22,01,27,03,,,1.5,0.8,1.3*35
$GPRMC,181847.000,A,6439.3420,N,02124.2780,W,28.27,240.26,290812,,,A*47
$GPGGA,181848.000,6439.3382,N,02124.2938,W,1,10,0.8,42.1,M,60.6,M,,0000*7B
$GPGSA,A,3,32,19,14,28,08,11,22,01,27,03,,,1.5,0.8,1.3*35
$GPRMC,181848.000,A,6439.3382,N,02124.2938,W,28.03,240.97,290812,,,A*46
$GPGGA,181849.000,6439.3344,N,02124.3097,W,1,10,0.8,42.2,M,60.6,M,,0000*7E
$GPGSA,A,3,32,19,14,28,08,11,22,01,27,03,,,1.5,0.8,1.3*35
$GPGSV,3,1,12,11,66,207,29,01,50,224,24,19,50,131,29,28,41,296,23*76
$GPGSV,3,2,12,22,37,064,37,03,18,131,23,32,15,171,20,27,14,000,25*76
$GPGSV,3,3,12,08,13,259,21,14,12,086,22,18,09,033,24,06,07,123,24*74
$GPRMC,181849.000,A,6439.3344,N,02124.3097,W,28.03,241.30,290812,,,A*4C
$GPGGA,181850.000,6439.3308,N,02124.3257,W,1,10,0.8,42.4,M,60.6,M,,0000*76
$GPGSA,A,3,32,19,14,28,08,11,22,01,27,03,,,1.5,0.8,1.3*35
$GPRMC,181850.000,A,6439.3308,N,02124.3257,W,28.00,242.62,290812,,,A*45
$GPGGA,181851.000,6439.3272,N,02124.3417,W,1,09,0.8,42.5,M,60.6,M,,0000*70
$GPGSA,A,3,32,14,28,08,11,22,01,27,03,,,,1.6,0.8,1.4*39
$GPRMC,181851.000,A,6439.3272,N,02124.3417,W,27.92,242.71,290812,,,A*4C
$GPGGA,181852.000,6439.3237,N,02124.3574,W,1,10,0.8,42.6,M,60.6,M,,0000*7D
$GPGSA,A,3,32,19,14,28,08,11,22,01,27,03,,,1.5,0.8,1.3*35
$GPRMC,181852.000,A,6439.3237,N,02124.3574,W,27.47,242.98,290812,,,A*45
$GPGGA,181853.000,6439.3203,N,02124.3727,W,1,10,0.8,42.8,M,60.6,M,,0000*71
$GPGSA,A,3,32,19,14,28,08,11,22,01,27,03,,,1.5,0.8,1.3*35
$GPRMC,181853.000,A,6439.3203,N,02124.3727,W,26.57,242.56,290812,,,A*45
$GPGGA,181854.000,6439.3169,N,02124.3880,W,1,10,0.8,42.9,M,60.6,M,,0000*7A
$GPGSA,A,3,32,19,14,28,08,11,22,01,27,03,,,1.5,0.8,1.3*35
$GPGSV,3,1,12,11,66,207,33,01,50,224,30,19,50,131,37,28,41,296,26*72
$GPGSV,3,2,12,22,37,064,36,03,18,131,23,32,15,171,20,27,14,000,25*77
$GPGSV,3,3,12,08,13,259,22,14,12,086,26,18,09,033,22,06,07,123,30*70
$GPRMC,181854.000,A,6439.3169,N,02124.3880,W,26.58,242.87,290812,,,A*4C
$GPGGA,181855.000,6439.3133,N,02124.4030,W,1,10,0.8,43.1,M,60.6,M,,0000*79
$GPGSA,A,3,32,19,14,28,08,11,22,01,27,03,,,1.5,0.8,1.3*35
$GPRMC,181855.000,A,6439.3133,N,02124.4030,W,26.51,241.16,290812,,,A*44
$GPGGA,181856.000,6439.3096,N,02124.4183,W,1,10,0.8,43.2,M,60.6,M,,0000*7E
$GPGSA,A,3,32,19,14,28,08,11,22,01,27,03,,,1.5,0.8,1.3*35
$GPRMC,181856.000,A,6439.3096,N,02124.4183,W,27.03,240.63,290812,,,A*45
$GPGGA,181857.000,6439.3059,N,02124.4337,W,1,10,0.8,43.3,M,60.6,M,,0000*70
$GPGSA,A,3,32,19,14,28,08,11,22,01,27,03,,,1.5,0.8,1.3*35
$GPRMC,181857.000,A,6439.3059,N,02124.4337,W,27.37,240.69,290812,,,A*47
$GPGGA,181858.000,6439.3022,N,02124.4496,W,1,10,0.8,43.5,M,60.6,M,,0000*79
$GPGSA,A,3,32,19,14,28,08,11,22,01,27,03,,,1.5,0.8,1.3*35
$GPRMC,181858.000,A,6439.3022,N,02124.4496,W,27.98,241.63,290812,,,A*46
$GPGGA,181859.000,6439.2986,N,02124.4657,W,1,10,0.8,43.7,M,60.6,M,,0000*73
$GPGSA,A,3,32,19,14,28,08,11,22,01,27,03,,,1.5,0.8,1.3*35
$GPGSV,3,1,12,11,66,207,34,01,50,224,24,19,50,131,31,28,41,296,33*72
$GPGSV,3,2,12,22,37,064,36,03,18,131,26,32,15,171,28,27,14,000,31*7F
$GPGSV,3,3,12,08,13,259,25,14,12,086,32,18,09,033,23,06,07,123,30*73
$GPRMC,181859.000,A,6439.2986,N,02124.4657,W,28.09,242.64,290812,,,A*4D
$GPGGA,181900.000,6439.2949,N,02124.4820,W,1,10,0.8,43.8,M,60.6,M,,0000*7C
$GPGSA,A,3,32,19,14,28,08,11,22,01,27,03,,,1.5,0.8,1.3*35
$GPRMC,181900.000,A,6439.2949,N,02124.4820,W,28.50,242.22,290812,,,A*43
$GPGGA,181901.000,6439.2911,N,02124.4983,W,1,10,0.8,44.1,M,60.6,M,,0000*76
$GPGSA,A,3,32,19,14,28,08,11,22,01,27,03,,,1.5,0.8,1.3*35
$GPRMC,181901.000,A,6439.2911,N,02124.4983,W,28.73,241.87,290812,,,A*4A
$GPGGA,181902.000,6439.2873,N,02124.5149,W,1,10,0.8,44.3,M,60.6,M,,0000*7D
$GPGSA,A,3,32,19,14,28,08,11,22,01,27,03,,,1.5,0.8,1.3*35
$GPRMC,181902.000,A,6439.2873,N,02124.5149,W,28.95,242.28,290812,,,A*4D
$GPGGA,181903.000,6439.2836,N,02124.5314,W,1,10,0.8,44.5,M,60.6,M,,0000*71
$GPGSA,A,3,32,19,14,28,08,11,22,01,27,03,,,1.5,0.8,1.3*35
$GPRMC,181903.000,A,6439.2836,N,02124.5314,W,28.92,242.65,290812,,,A*49
$GPGGA,181904.000,6439.2798,N,02124.5480,W,1,10,0.8,44.6,M,60.6,M,,0000*74
$GPGSA,A,3,32,19,14,28,08,11,22,01,27,03,,,1.5,0.8,1.3*35
$GPGSV,3,1,12,11,66,207,33,01,50,224,29,19,50,131,31,28,41,296,26*7C
$GPGSV,3,2,12,22,37,064,36,03,18,131,30,32,15,171,26,27,14,000,21*77
$GPGSV,3,3,12,08,13,259,26,14,12,086,32,18,09,033,22,06,07,123,26*76
$GPRMC,181904.000,A,6439.2798,N,02124.5480,W,28.95,242.16,290812,,,A*4C
$GPGGA,181905.000,6439.2760,N,02124.5646,W,1,10,0.8,44.8,M,60.6,M,,0000*74
$GPGSA,A,3,32,19,14,28,08,11,22,01,27,03,,,1.5,0.8,1.3*35
$GPRMC,181905.000,A,6439.2760,N,02124.5646,W,29.20,241.94,290812,,,A*44
$GPGGA,181906.000,6439.2722,N,02124.5816,W,1,10,0.8,45.0,M,60.6,M,,0000*73
$GPGSA,A,3,32,19,14,28,08,11,22,01,27,03,,,1.5,0.8,1.3*35
$GPRMC,181906.000,A,6439.2722,N,02124.5816,W,29.69,242.18,290812,,,A*40
$GPGGA,181907.000,6439.2681,N,02124.5985,W,1,10,0.8,45.3,M,60.6,M,,0000*72
$GPGSA,A,3,32,19,14,28,08,11,22,01,27,03,,,1.5,0.8,1.3*35
$GPRMC,181907.000,A,6439.2681,N,02124.5985,W,29.89,240.90,290812,,,A*4E
$GPGGA,181908.000,6439.2641,N,02124.6154,W,1,09,1.0,45.5,M,60.6,M,,0000*71
$GPGSA,A,3,32,19,14,28,08,11,22,01,03,,,,1.7,1.0,1.3*3B
$GPRMC,181908.000,A,6439.2641,N,02124.6154,W,30.00,241.03,290812,,,A*48
$GPGGA,181909.000,6439.2600,N,02124.6326,W,1,09,1.0,45.7,M,60.6,M,,0000*70
$GPGSA,A,3,32,19,14,28,08,11,22,01,03,,,,1.7,1.0,1.3*3B
$GPGSV,3,1,12,11,66,207,32,01,50,224,27,19,50,131,32,28,41,296,32*75
$GPGSV,3,2,12,22,37,064,36,03,18,131,31,32,15,171,25,27,14,000,*76
$GPGSV,3,3,12,08,13,259,23,14,12,086,31,18,09,033,22,06,07,123,27*71
$GPRMC,181909.000,A,6439.2600,N,02124.6326,W,30.38,240.76,290812,,,A*43
$GPGGA,181910.000,6439.2559,N,02124.6500,W,1,10,0.8,45.9,M,60.6,M,,0000*7A
$GPGSA,A,3,32,19,14,28,08,11,22,01,27,03,,,1.5,0.8,1.3*35
$GPRMC,181910.000,A,6439.2559,N,02124.6500,W,30.72,241.42,290812,,,A*4E
$GPGGA,181911.000,6439.2518,N,02124.6678,W,1,10,0.8,45.9,M,60.6,M,,0000*72
$GPGSA,A,3,32,19,14,28,08,11,22,01,27,03,,,1.5,0.8,1.3*35
$GPRMC,181911.000,A,6439.2518,N,02124.6678,W,31.20,242.05,290812,,,A*40
$GPGGA,181912.000,6439.2478,N,02124.6858,W,1,10,0.8,46.0,M,60.6,M,,0000*70
$GPGSA,A,3,32,19,14,28,08,11,22,01,27,03,,,1.5,0.8,1.3*35
$GPRMC,181912.000,A,6439.2478,N,02124.6858,W,31.36,242.35,290812,,,A*4C
$GPGGA,181913.000,6439.2437,N,02124.7036,W,1,10,0.8,46.0,M,60.6,M,,0000*7B
$GPGSA,A,3,32,19,14,28,08,11,22,01,27,03,,,1.5,0.8,1.3*35
$GPRMC,181913.000,A,6439.2437,N,02124.7036,W,31.27,241.57,290812,,,A*40
$GPGGA,181914.000,6439.2397,N,02124.7217,W,1,10,0.8,46.1,M,60.6,M,,0000*71
$GPGSA,A,3,32,19,14,28,08,11,22,01,27,03,,,1.5,0.8,1.3*35
$GPGSV,3,1,12,11,66,207,34,01,50,224,27,19,50,131,31,28,41,296,31*73
$GPGSV,3,2,12,22,37,064,35,03,18,131,21,32,15,171,23,27,14,000,30*71
$GPGSV,3,3,12,08,13,259,22,14,12,086,26,18,09,033,27,06,07,123,21*75
$GPRMC,181914.000,A,6439.2397,N,02124.7217,W,31.60,242.22,290812,,,A*49
$GPGGA,181915.000,6439.2356,N,02124.7399,W,1,10,0.8,46.2,M,60.6,M,,0000*79
$GPGSA,A,3,32,19,14,28,08,11,22,01,27,03,,,1.5,0.8,1.3*35
$GPRMC,181915.000,A,6439.2356,N,02124.7399,W,31.75,242.43,290812,,,A*41
$GPGGA,181916.000,6439.2315,N,02124.7581,W,1,10,0.8,46.5,M,60.6,M,,0000*75
$GPGSA,A,3,32,19,14,28,08,11,22,01,27,03,,,1.5,0.8,1.3*35
$GPRMC,181916.000,A,6439.2315,N,02124.7581,W,31.89,242.16,290812,,,A*49
$GPGGA,181917.000,6439.2274,N,02124.7763,W,1,10,0.8,46.7,M,60.6,M,,0000*7E
$GPGSA,A,3,32,19,14,28,08,11,22,01,27,03,,,1.5,0.8,1.3*35
$GPRMC,181917.000,A,6439.2274,N,02124.7763,W,31.87,241.69,290812,,,A*45
$GPGGA,181918.000,6439.2232,N,02124.7946,W,1,10,0.8,46.9,M,60.6,M,,0000*74
$GPGSA,A,3,32,19,14,28,08,11,22,01,27,03,,,1.5,0.8,1.3*35
$GPRMC,181918.000,A,6439.2232,N,02124.7946,W,32.07,241.74,290812,,,A*46
$GPGGA,181919.000,6439.2191,N,02124.8129,W,1,10,0.8,47.2,M,60.6,M,,0000*7B
$GPGSA,A,3,32,19,14,28,08,11,22,01,27,03,,,1.5,0.8,1.3*35
$GPGSV,3,1,12,11,66,207,31,01,50,224,23,19,50,131,31,28,41,296,31*72
$GPGSV,3,2,12,22,37,064,35,03,18,131,29,32,15,171,21,27,14,000,28*72
$GPGSV,3,3,12,08,13,259,26,14,12,086,35,18,09,033,17,06,07,123,13*71
$GPRMC,181919.000,A,6439.2191,N,02124.8129,W,31.98,242.06,290812,,,A*40
$GPGGA,181920.000,6439.2148,N,02124.8311,W,1,10,0.8,47.4,M,60.6,M,,0000*7A
$GPGSA,A,3,32,19,14,28,08,11,22,01,27,03,,,1.5,0.8,1.3*35
$GPRMC,181920.000,A,6439.2148,N,02124.8311,W,32.00,241.20,290812,,,A*42
$GPGGA,181921.000,6439.2107,N,02124.8492,W,1,10,0.8,47.7,M,60.6,M,,0000*7F
$GPGSA,A,3,32,19,14,28,08,11,22,01,27,03,,,1.5,0.8,1.3*35
$GPRMC,181921.000,A,6439.2107,N,02124.8492,W,31.74,241.67,290812,,,A*47
$GPGGA,181922.000,6439.2066,N,02124.8673,W,1,10,0.8,48.0,M,60.6,M,,0000*7F
$GPGSA,A,3,32,19,14,28,08,11,22,01,27,03,,,1.5,0.8,1.3*35
$GPRMC,181922.000,A,6439.2066,N,02124.8673,W,31.52,242.01,290812,,,A*48
$GPGGA,181923.000,6439.2024,N,02124.8852,W,1,09,0.8,48.3,M,60.6,M,,0000*7E
$GPGSA,A,3,32,19,14,28,08,11,22,01,27,,,,1.6,0.8,1.3*35
$GPRMC,181923.000,A,6439.2024,N,02124.8852,W,31.34,241.51,290812,,,A*44
