$GPGGA,121806.000,5333.2567,N,00959.5273,E,1,07,1.0,-2.2,M,46.0,M,,0000*7F
$GPGSA,A,3,31,25,05,30,16,21,29,,,,,,2.2,1.0,2.0*3D
$GPRMC,121806.000,A,5333.2567,N,00959.5273,E,1.04,134.88,150912,,,A*69
$GPGGA,121807.000,5333.2565,N,00959.5276,E,1,07,1.0,-2.1,M,46.0,M,,0000*7A
$GPGSA,A,3,31,25,05,30,16,21,29,,,,,,2.2,1.0,2.0*3D
$GPRMC,121807.000,A,5333.2565,N,00959.5276,E,1.18,141.47,150912,,,A*63
$GPGGA,121808.000,5333.2563,N,00959.5280,E,1,07,1.0,-2.1,M,46.0,M,,0000*7A
$GPGSA,A,3,31,25,05,30,16,21,29,,,,,,2.2,1.0,2.0*3D
$GPRMC,121808.000,A,5333.2563,N,00959.5280,E,1.05,132.71,150912,,,A*6E
$GPGGA,121809.000,5333.2561,N,00959.5284,E,1,07,1.0,-2.0,M,46.0,M,,0000*7C
$GPGSA,A,3,31,25,05,30,16,21,29,,,,,,2.2,1.0,2.0*3D
$GPGSV,3,1,12,30,62,284,22,21,59,165,18,29,46,077,42,16,33,301,33*7F
$GPGSV,3,2,12,31,31,216,17,25,21,135,35,05,20,049,42,06,18,264,*7E
$GPGSV,3,3,12,13,08,333,16,23,03,302,20,18,01,152,,03,01,267,*7A
$GPRMC,121809.000,A,5333.2561,N,00959.5284,E,1.25,135.81,150912,,,A*63
$GPGGA,121810.000,5333.2559,N,00959.5288,E,1,07,1.0,-1.9,M,46.0,M,,0000*79
$GPGSA,A,3,31,25,05,30,16,21,29,,,,,,2.2,1.0,2.0*3D
$GPRMC,121810.000,A,5333.2559,N,00959.5288,E,1.18,138.17,150912,,,A*60
$GPGGA,121811.000,5333.2557,N,00959.5291,E,1,07,1.0,-1.8,M,46.0,M,,0000*7F
$GPGSA,A,3,31,25,05,30,16,21,29,,,,,,2.2,1.0,2.0*3D
$GPRMC,121811.000,A,5333.2557,N,00959.5291,E,1.01,142.30,150912,,,A*67
$GPGGA,121812.000,5333.2556,N,00959.5295,E,1,07,1.0,-1.7,M,46.0,M,,0000*76
$GPGSA,A,3,31,25,05,30,16,21,29,,,,,,2.2,1.0,2.0*3D
$GPRMC,121812.000,A,5333.2556,N,00959.5295,E,1.06,128.44,150912,,,A*69
$GPGGA,121813.000,5333.2554,N,00959.5301,E,1,07,1.0,-1.6,M,46.0,M,,0000*78
$GPGSA,A,3,31,25,05,30,16,21,29,,,,,,2.2,1.0,2.0*3D
$GPRMC,121813.000,A,5333.2554,N,00959.5301,E,1.46,127.59,150912,,,A*61
$GPGGA,121814.000,5333.2552,N,00959.5307,E,1,04,1.9,-1.6,M,46.0,M,,0000*75
$GPGSA,A,3,25,05,30,29,,,,,,,,,3.9,1.9,3.4*3D
$GPGSV,3,1,12,30,62,284,22,21,59,165,17,29,46,077,42,16,33,301,17*76
$GPGSV,3,2,12,31,31,216,16,25,21,135,35,05,20,049,42,06,18,264,*7F
$GPGSV,3,3,12,13,08,333,15,23,03,302,18,18,01,152,,03,01,267,*72
$GPRMC,121814.000,A,5333.2552,N,00959.5307,E,1.33,122.38,150912,,,A*66
$GPGGA,121815.000,5333.2549,N,00959.5315,E,1,06,1.1,-1.5,M,46.0,M,,0000*74
$GPGSA,A,3,31,25,05,30,16,29,,,,,,,2.6,1.1,2.4*3F
$GPRMC,121815.000,A,5333.2549,N,00959.5315,E,1.97,123.25,150912,,,A*6D
$GPGGA,121816.000,5333.2548,N,00959.5321,E,1,04,1.9,-1.5,M,46.0,M,,0000*7B
$GPGSA,A,3,25,05,30,29,,,,,,,,,3.9,1.9,3.4*3D
$GPRMC,121816.000,A,5333.2548,N,00959.5321,E,1.09,124.92,150912,,,A*64
$GPGGA,121817.000,5333.2545,N,00959.5322,E,1,04,1.9,-1.6,M,46.0,M,,0000*77
$GPGSA,A,3,25,05,30,29,,,,,,,,,3.9,1.9,3.4*3D
$GPRMC,121817.000,A,5333.2545,N,00959.5322,E,0.95,171.77,150912,,,A*64
$GPGGA,121818.000,5333.2543,N,00959.5320,E,0,03,,-1.6,M,46.0,M,,0000*5C
$GPGSA,A,1,25,05,29,,,,,,,,,,,,*17
$GPRMC,121820.000,A,5333.2539,N,00959.5318,E,0.94,219.54,150912,,,A*6F
$GPGGA,121821.000,5333.2537,N,00959.5319,E,1,05,1.4,-1.7,M,46.0,M,,0000*72
$GPGSA,A,3,25,05,30,16,29,,,,,,,,2.8,1.4,2.5*37
$GPRMC,121824.000,A,5333.2537,N,00959.5333,E,1.40,88.14,150912,,,A*5A
$GPGGA,121825.000,5333.2536,N,00959.5344,E,1,04,1.4,-1.7,M,46.0,M,,0000*7E
$GPGSA,A,3,25,05,16,29,,,,,,,,,3.6,1.4,3.3*3C
$GPRMC,121825.000,A,5333.2536,N,00959.5344,E,2.00,89.30,150912,,,A*5A
$GPGGA,121826.000,5333.2536,N,00959.5354,E,0,03,,-1.8,M,46.0,M,,0000*5E
$GPGSA,A,1,25,05,29,,,,,,,,,,,,*17
$GPRMC,121832.000,A,5333.2534,N,00959.5411,E,1.93,96.06,150912,,,A*5B
$GPGGA,121833.000,5333.2534,N,00959.5421,E,1,05,1.3,-2.3,M,46.0,M,,0000*7E
$GPGSA,A,3,25,05,16,21,29,,,,,,,,2.7,1.3,2.4*3E
$GPRMC,121833.000,A,5333.2534,N,00959.5421,E,1.32,96.80,150912,,,A*5C
$GPGGA,121834.000,5333.2533,N,00959.5427,E,0,03,,-2.3,M,46.0,M,,0000*53
$GPGSA,A,1,25,05,29,,,,,,,,,,,,*17
$GPGSV,3,1,12,30,62,284,18,21,59,165,15,29,46,077,40,16,33,301,17*7F
$GPGSV,3,2,12,31,31,216,17,25,21,135,37,05,20,049,42,06,18,264,*7C
$GPGSV,3,3,12,13,08,333,15,23,03,302,16,18,01,152,,03,01,267,*7C
$GPRMC,121845.000,A,5333.2521,N,00959.5468,E,0.90,141.98,150912,,,A*6F
$GPGGA,121846.000,5333.2519,N,00959.5475,E,1,04,3.8,-3.7,M,46.0,M,,0000*7F
$GPGSA,A,3,25,05,21,29,,,,,,,,,5.1,3.8,3.4*30
$GPRMC,121846.000,A,5333.2519,N,00959.5475,E,1.08,135.83,150912,,,A*62
$GPGGA,121847.000,5333.2516,N,00959.5484,E,1,05,1.8,-3.9,M,46.0,M,,0000*72
$GPGSA,A,3,25,05,30,21,29,,,,,,,,3.5,1.8,2.9*3F
$GPRMC,121847.000,A,5333.2516,N,00959.5484,E,1.60,119.73,150912,,,A*6D
$GPGGA,121848.000,5333.2514,N,00959.5492,E,1,05,1.4,-4.0,M,46.0,M,,0000*7A
$GPGSA,A,3,25,05,30,16,29,,,,,,,,2.8,1.4,2.5*37
$GPRMC,121848.000,A,5333.2514,N,00959.5492,E,1.10,128.00,150912,,,A*66
$GPGGA,121849.000,5333.2512,N,00959.5500,E,1,04,1.4,-4.1,M,46.0,M,,0000*77
$GPGSA,A,3,25,05,16,29,,,,,,,,,3.6,1.4,3.3*3C
$GPGSV,3,1,12,30,62,283,19,21,60,165,,29,46,077,41,16,34,301,18*7E
$GPGSV,3,2,12,31,31,216,,05,20,048,43,25,20,135,44,06,18,264,*7F
$GPGSV,3,3,12,13,08,333,18,23,03,302,17,18,02,152,,03,02,268,14*7A
$GPRMC,121849.000,A,5333.2512,N,00959.5500,E,1.26,136.22,150912,,,A*61
$GPGGA,121850.000,5333.2509,N,00959.5506,E,1,05,1.4,-4.3,M,46.0,M,,0000*70
$GPGSA,A,3,25,05,30,16,29,,,,,,,,2.8,1.4,2.5*37
$GPRMC,121850.000,A,5333.2509,N,00959.5506,E,0.89,155.56,150912,,,A*67
$GPGGA,121851.000,5333.2507,N,00959.5514,E,1,05,1.4,-4.5,M,46.0,M,,0000*7A
$GPGSA,A,3,25,05,30,16,29,,,,,,,,2.8,1.4,2.5*37
$GPRMC,121851.000,A,5333.2507,N,00959.5514,E,1.17,137.25,150912,,,A*6D
$GPGGA,121852.000,5333.2505,N,00959.5521,E,1,05,1.4,-4.7,M,46.0,M,,0000*7F
$GPGSA,A,3,25,05,30,16,29,,,,,,,,2.8,1.4,2.5*37
$GPRMC,121852.000,A,5333.2505,N,00959.5521,E,0.85,144.30,150912,,,A*60
$GPGGA,121853.000,5333.2502,N,00959.5524,E,1,05,1.4,-5.0,M,46.0,M,,0000*7A
$GPGSA,A,3,25,05,30,16,29,,,,,,,,2.8,1.4,2.5*37
$GPRMC,121854.000,A,5333.2501,N,00959.5523,E,1.02,237.72,150912,,,A*6F
$GPGGA,121855.000,5333.2500,N,00959.5521,E,1,04,1.4,-5.4,M,46.0,M,,0000*7E
$GPGSA,A,3,25,05,16,29,,,,,,,,,3.6,1.4,3.3*3C
$GPRMC,121855.000,A,5333.2500,N,00959.5521,E,1.27,252.48,150912,,,A*60
$GPGGA,121856.000,5333.2500,N,00959.5518,E,1,04,3.8,-5.6,M,46.0,M,,0000*7B
$GPGSA,A,3,25,05,29,21,,,,,,,,,5.1,3.8,3.4*30
$GPRMC,121856.000,A,5333.2500,N,00959.5518,E,1.22,266.59,150912,,,A*6B
$GPGGA,121857.000,5333.2500,N,00959.5518,E,1,04,3.8,-5.9,M,46.0,M,,0000*75
$GPGSA,A,3,25,05,29,21,,,,,,,,,5.1,3.8,3.4*30
$GPRMC,121901.000,A,5333.2500,N,00959.5533,E,0.93,96.79,150912,,,A*55
$GPGGA,121902.000,5333.2501,N,00959.5540,E,1,06,1.3,-7.1,M,46.0,M,,0000*79
$GPGSA,A,3,25,05,30,16,29,21,,,,,,,2.5,1.3,2.2*39
$GPRMC,121902.000,A,5333.2501,N,00959.5540,E,1.26,92.08,150912,,,A*5E
$GPGGA,121903.000,5333.2500,N,00959.5544,E,1,06,1.3,-7.3,M,46.0,M,,0000*7F
$GPGSA,A,3,25,05,30,16,29,21,,,,,,,2.5,1.3,2.2*39
$GPRMC,121905.000,A,5333.2499,N,00959.5552,E,1.26,116.87,150912,,,A*60
$GPGGA,121906.000,5333.2497,N,00959.5557,E,1,04,1.9,-7.6,M,46.0,M,,0000*7A
$GPGSA,A,3,25,05,30,29,,,,,,,,,3.9,1.9,3.4*3D
$GPRMC,121906.000,A,5333.2497,N,00959.5557,E,1.22,118.28,150912,,,A*67
$GPGGA,121907.000,5333.2497,N,00959.5561,E,1,06,1.3,-7.7,M,46.0,M,,0000*77
$GPGSA,A,3,25,05,30,16,21,29,,,,,,,2.5,1.3,2.2*39
$GPRMC,121907.000,A,5333.2497,N,00959.5561,E,0.91,96.40,150912,,,A*53
$GPGGA,121908.000,5333.2497,N,00959.5564,E,1,05,1.3,-7.7,M,46.0,M,,0000*7E
$GPGSA,A,3,25,05,16,21,29,,,,,,,,2.7,1.3,2.4*3E
$GPRMC,121909.000,A,5333.2496,N,00959.5569,E,1.05,94.21,150912,,,A*5D
$GPGGA,121910.000,5333.2496,N,00959.5574,E,1,04,3.8,-7.5,M,46.0,M,,0000*7D
$GPGSA,A,3,25,05,21,29,,,,,,,,,5.1,3.8,3.4*30
$GPRMC,121910.000,A,5333.2496,N,00959.5574,E,1.13,94.03,150912,,,A*5E
$GPGGA,121911.000,5333.2495,N,00959.5578,E,1,04,3.8,-7.3,M,46.0,M,,0000*75
$GPGSA,A,3,25,05,21,29,,,,,,,,,5.1,3.8,3.4*30
$GPRMC,121911.000,A,5333.2495,N,00959.5578,E,1.11,93.14,150912,,,A*53
$GPGGA,121912.000,5333.2495,N,00959.5581,E,1,04,3.8,-7.2,M,46.0,M,,0000*71
$GPGSA,A,3,25,05,21,29,,,,,,,,,5.1,3.8,3.4*30
$GPRMC,121912.000,A,5333.2495,N,00959.5581,E,0.89,92.36,150912,,,A*57
$GPGGA,121913.000,5333.2494,N,00959.5585,E,1,05,1.3,-6.9,M,46.0,M,,0000*77
$GPGSA,A,3,25,05,16,21,29,,,,,,,,2.7,1.3,2.4*3E
$GPRMC,121913.000,A,5333.2494,N,00959.5585,E,0.90,93.30,150912,,,A*5C
$GPGGA,121914.000,5333.2493,N,00959.5587,E,1,05,1.8,-6.7,M,46.0,M,,0000*70
$GPGSA,A,3,25,05,30,21,29,,,,,,,,3.5,1.8,2.9*3F
$GPGSV,3,1,12,30,62,283,17,21,60,165,26,29,46,077,42,16,34,301,15*7A
$GPGSV,3,2,12,31,31,216,15,05,20,048,47,25,20,135,37,06,18,264,*7B
$GPGSV,3,3,12,13,08,333,17,23,03,302,21,18,02,152,,03,02,268,13*77
$GPRMC,121922.000,A,5333.2490,N,00959.5569,E,0.82,280.48,150912,,,A*64
$GPGGA,121923.000,5333.2490,N,00959.5564,E,1,04,3.8,-4.3,M,46.0,M,,0000*7F
$GPGSA,A,3,25,05,21,29,,,,,,,,,5.1,3.8,3.4*30
$GPRMC,121924.000,A,5333.2489,N,00959.5558,E,0.92,278.43,150912,,,A*65
$GPGGA,121925.000,5333.2489,N,00959.5550,E,1,05,1.3,-3.8,M,46.0,M,,0000*72
$GPGSA,A,3,25,05,16,21,29,,,,,,,,2.7,1.3,2.4*3E
$GPRMC,121925.000,A,5333.2489,N,00959.5550,E,1.17,276.95,150912,,,A*65
$GPGGA,121926.000,5333.2489,N,00959.5542,E,1,05,1.3,-3.5,M,46.0,M,,0000*7F
$GPGSA,A,3,25,05,16,21,29,,,,,,,,2.7,1.3,2.4*3E
$GPRMC,121926.000,A,5333.2489,N,00959.5542,E,0.98,278.43,150912,,,A*66
$GPGGA,121927.000,5333.2488,N,00959.5536,E,1,05,1.3,-3.3,M,46.0,M,,0000*7A
$GPGSA,A,3,25,05,16,21,29,,,,,,,,2.7,1.3,2.4*3E
$GPRMC,121951.000,A,5333.2479,N,00959.5490,E,0.91,202.57,150912,,,A*66
$GPGGA,121952.000,5333.2477,N,00959.5487,E,1,06,1.1,-2.0,M,46.0,M,,0000*70
$GPGSA,A,3,31,25,05,16,21,29,,,,,,,2.5,1.1,2.2*3A
$GPRMC,121952.000,A,5333.2477,N,00959.5487,E,1.00,203.10,150912,,,A*66
$GPGGA,121953.000,5333.2475,N,00959.5480,E,1,06,1.1,-2.1,M,46.0,M,,0000*75
$GPGSA,A,3,31,25,05,16,21,29,,,,,,,2.5,1.1,2.2*3A
$GPRMC,121953.000,A,5333.2475,N,00959.5480,E,1.29,230.30,150912,,,A*6B
$GPGGA,121954.000,5333.2472,N,00959.5473,E,1,06,1.1,-2.2,M,46.0,M,,0000*7A
$GPGSA,A,3,31,25,05,16,21,29,,,,,,,2.5,1.1,2.2*3A
$GPGSV,3,1,12,30,62,283,16,21,60,164,27,29,45,078,42,16,34,301,15*77
$GPGSV,3,2,12,31,30,216,14,05,20,048,45,25,20,135,38,06,19,264,*77
$GPGSV,3,3,12,13,08,332,,23,03,302,14,18,02,152,,03,02,268,*74
$GPRMC,121954.000,A,5333.2472,N,00959.5473,E,1.41,231.37,150912,,,A*6F
$GPGGA,121955.000,5333.2470,N,00959.5466,E,1,05,1.1,-2.4,M,46.0,M,,0000*78
$GPGSA,A,3,31,25,05,16,29,,,,,,,,3.5,1.1,3.3*38
$GPRMC,121955.000,A,5333.2470,N,00959.5466,E,1.48,229.31,150912,,,A*6E
$GPGGA,121956.000,5333.2467,N,00959.5459,E,1,07,1.0,-2.5,M,46.0,M,,0000*73
$GPGSA,A,3,31,21,25,05,16,30,29,,,,,,2.2,1.0,1.9*37
$GPRMC,121956.000,A,5333.2467,N,00959.5459,E,1.50,225.62,150912,,,A*64
$GPGGA,121957.000,5333.2465,N,00959.5454,E,1,07,1.0,-2.6,M,46.0,M,,0000*7E
$GPGSA,A,3,31,21,25,05,16,30,29,,,,,,2.2,1.0,1.9*37
$GPRMC,121957.000,A,5333.2465,N,00959.5454,E,1.07,228.67,150912,,,A*60
$GPGGA,121958.000,5333.2462,N,00959.5451,E,1,07,1.0,-2.7,M,46.0,M,,0000*72
$GPGSA,A,3,31,21,25,05,16,30,29,,,,,,2.2,1.0,1.9*37
$GPRMC,121958.000,A,5333.2462,N,00959.5451,E,1.12,194.17,150912,,,A*6A
$GPGGA,121959.000,5333.2459,N,00959.5450,E,1,07,1.0,-2.8,M,46.0,M,,0000*75
$GPGSA,A,3,31,21,25,05,16,30,29,,,,,,2.2,1.0,1.9*37
$GPGSV,3,1,12,30,62,283,25,21,60,164,38,29,45,078,43,16,34,301,16*7B
$GPGSV,3,2,12,31,30,216,19,05,20,048,46,25,20,135,40,06,19,264,*76
$GPGSV,3,3,12,13,08,332,,23,03,302,14,18,02,152,,03,02,268,*74
$GPRMC,121959.000,A,5333.2459,N,00959.5450,E,1.07,181.21,150912,,,A*67
$GPGGA,122000.000,5333.2456,N,00959.5452,E,1,07,1.0,-2.9,M,46.0,M,,0000*7F
$GPGSA,A,3,31,21,25,05,16,30,29,,,,,,2.2,1.0,1.9*37
$GPRMC,122000.000,A,5333.2456,N,00959.5452,E,1.18,153.08,150912,,,A*66
$GPGGA,122001.000,5333.2455,N,00959.5453,E,1,07,1.0,-2.9,M,46.0,M,,0000*7C
$GPGSA,A,3,31,21,25,05,16,30,29,,,,,,2.2,1.0,1.9*37
$GPRMC,122002.000,A,5333.2452,N,00959.5454,E,1.05,150.10,150912,,,A*60
$GPGGA,122003.000,5333.2451,N,00959.5455,E,1,07,1.0,-3.0,M,46.0,M,,0000*74
$GPGSA,A,3,31,21,25,05,16,30,29,,,,,,2.2,1.0,1.9*37
$GPRMC,122004.000,A,5333.2449,N,00959.5457,E,1.01,145.37,150912,,,A*6A
$GPGGA,122005.000,5333.2447,N,00959.5458,E,1,07,1.0,-3.0,M,46.0,M,,0000*78
$GPGSA,A,3,31,21,25,05,16,30,29,,,,,,2.2,1.0,1.9*37
$GPRMC,122005.000,A,5333.2447,N,00959.5458,E,0.81,144.50,150912,,,A*63
$GPGGA,122006.000,5333.2445,N,00959.5460,E,1,07,1.0,-2.9,M,46.0,M,,0000*7A
$GPGSA,A,3,31,21,25,05,16,30,29,,,,,,2.2,1.0,1.9*37
$GPRMC,122006.000,A,5333.2445,N,00959.5460,E,0.99,150.52,150912,,,A*67
$GPGGA,122007.000,5333.2444,N,00959.5461,E,1,07,1.0,-2.9,M,46.0,M,,0000*7B
$GPGSA,A,3,31,21,25,05,16,30,29,,,,,,2.2,1.0,1.9*37
$GPRMC,122007.000,A,5333.2444,N,00959.5461,E,0.81,137.92,150912,,,A*62
$GPGGA,122008.000,5333.2443,N,00959.5463,E,1,07,1.0,-2.9,M,46.0,M,,0000*71
$GPGSA,A,3,31,21,25,05,16,30,29,,,,,,2.2,1.0,1.9*37
$GPRMC,122009.000,A,5333.2440,N,00959.5465,E,1.09,148.29,150912,,,A*65
$GPGGA,122010.000,5333.2438,N,00959.5468,E,1,07,1.0,-3.0,M,46.0,M,,0000*77
$GPGSA,A,3,31,21,25,05,16,30,29,,,,,,2.2,1.0,1.9*37
$GPRMC,122010.000,A,5333.2438,N,00959.5468,E,1.26,148.33,150912,,,A*69
$GPGGA,122011.000,5333.2435,N,00959.5470,E,1,07,1.0,-3.0,M,46.0,M,,0000*72
$GPGSA,A,3,31,21,25,05,16,30,29,,,,,,2.2,1.0,1.9*37
$GPRMC,122011.000,A,5333.2435,N,00959.5470,E,1.30,150.03,150912,,,A*61
$GPGGA,122012.000,5333.2433,N,00959.5471,E,1,07,1.0,-3.0,M,46.0,M,,0000*76
$GPGSA,A,3,31,21,25,05,16,30,29,,,,,,2.2,1.0,1.9*37
$GPRMC,122012.000,A,5333.2433,N,00959.5471,E,0.88,141.14,150912,,,A*61
$GPGGA,122013.000,5333.2431,N,00959.5473,E,1,07,1.0,-3.0,M,46.0,M,,0000*77
$GPGSA,A,3,31,21,25,05,16,30,29,,,,,,2.2,1.0,1.9*37
$GPRMC,122013.000,A,5333.2431,N,00959.5473,E,0.81,146.26,150912,,,A*6F
$GPGGA,122014.000,5333.2428,N,00959.5475,E,1,07,1.0,-3.0,M,46.0,M,,0000*7E
$GPGSA,A,3,31,21,25,05,16,30,29,,,,,,2.2,1.0,1.9*37
$GPGSV,3,1,12,30,62,283,43,21,60,164,37,29,45,078,43,16,34,301,29*78
$GPGSV,3,2,12,31,30,216,41,05,20,048,36,25,20,135,40,06,19,264,*7C
$GPGSV,3,3,12,13,08,332,,23,03,302,,18,02,152,,03,02,268,*71
$GPRMC,122014.000,A,5333.2428,N,00959.5475,E,1.22,147.01,150912,,,A*6A
$GPGGA,122015.000,5333.2425,N,00959.5478,E,1,07,1.0,-3.0,M,46.0,M,,0000*7F
$GPGSA,A,3,31,21,25,05,16,30,29,,,,,,2.2,1.0,1.9*37
$GPRMC,122015.000,A,5333.2425,N,00959.5478,E,1.33,143.64,150912,,,A*6C
$GPGGA,122016.000,5333.2422,N,00959.5481,E,1,07,1.0,-2.9,M,46.0,M,,0000*75
$GPGSA,A,3,31,21,25,05,16,30,29,,,,,,2.2,1.0,1.9*37
$GPRMC,122016.000,A,5333.2422,N,00959.5481,E,1.38,145.64,150912,,,A*63
$GPGGA,122017.000,5333.2418,N,00959.5484,E,1,07,1.0,-2.8,M,46.0,M,,0000*79
$GPGSA,A,3,31,21,25,05,16,30,29,,,,,,2.2,1.0,1.9*37
$GPRMC,122017.000,A,5333.2418,N,00959.5484,E,1.48,144.33,150912,,,A*6A
$GPGGA,122018.000,5333.2415,N,00959.5489,E,1,07,1.0,-2.7,M,46.0,M,,0000*79
$GPGSA,A,3,31,21,25,05,16,30,29,,,,,,2.2,1.0,1.9*37
$GPRMC,122018.000,A,5333.2415,N,00959.5489,E,1.58,136.29,150912,,,A*6A
$GPGGA,122019.000,5333.2412,N,00959.5495,E,1,07,1.0,-2.5,M,46.0,M,,0000*70
$GPGSA,A,3,31,21,25,05,16,30,29,,,,,,2.2,1.0,1.9*37
$GPGSV,3,1,12,30,63,283,40,21,60,164,37,29,45,078,44,16,34,301,32*77
$GPGSV,3,2,12,31,30,216,42,05,20,047,36,25,19,135,41,06,19,264,20*79
$GPGSV,3,3,12,13,08,332,,23,03,301,,18,02,151,,03,02,268,*71
$GPRMC,122019.000,A,5333.2412,N,00959.5495,E,1.64,121.30,150912,,,A*60
$GPGGA,122020.000,5333.2410,N,00959.5500,E,1,07,1.0,-2.2,M,46.0,M,,0000*72
$GPGSA,A,3,31,21,25,05,16,30,29,,,,,,2.2,1.0,1.9*37
$GPRMC,122020.000,A,5333.2410,N,00959.5500,E,1.56,122.95,150912,,,A*68
$GPGGA,122021.000,5333.2407,N,00959.5505,E,1,07,1.0,-1.9,M,46.0,M,,0000*78
$GPGSA,A,3,31,21,25,05,16,30,29,,,,,,2.2,1.0,1.9*37
$GPRMC,122021.000,A,5333.2407,N,00959.5505,E,1.32,126.25,150912,,,A*67
$GPGGA,122022.000,5333.2405,N,00959.5509,E,1,07,1.0,-1.6,M,46.0,M,,0000*7A
$GPGSA,A,3,31,21,25,05,16,30,29,,,,,,2.2,1.0,1.9*37
$GPRMC,122022.000,A,5333.2405,N,00959.5509,E,1.31,122.68,150912,,,A*64
$GPGGA,122023.000,5333.2403,N,00959.5514,E,1,07,1.0,-1.4,M,46.0,M,,0000*73
$GPGSA,A,3,31,21,25,05,16,30,29,,,,,,2.2,1.0,1.9*37
$GPRMC,122023.000,A,5333.2403,N,00959.5514,E,1.48,124.52,150912,,,A*6E
$GPGGA,122024.000,5333.2400,N,00959.5519,E,1,07,1.0,-1.1,M,46.0,M,,0000*7F
$GPGSA,A,3,31,21,25,05,16,30,29,,,,,,2.2,1.0,1.9*37
$GPGSV,3,1,12,30,63,283,38,21,60,164,38,29,45,078,43,16,34,301,30*72
$GPGSV,3,2,12,31,30,216,43,05,20,047,35,25,19,135,38,06,19,264,36*72
$GPGSV,3,3,12,13,08,332,,23,03,301,,18,02,151,,03,02,268,*71
$GPRMC,122024.000,A,5333.2400,N,00959.5519,E,1.54,127.85,150912,,,A*63
$GPGGA,122025.000,5333.2397,N,00959.5524,E,1,07,1.0,-0.9,M,46.0,M,,0000*70
$GPGSA,A,3,31,21,25,05,16,30,29,,,,,,2.2,1.0,1.9*37
$GPRMC,122025.000,A,5333.2397,N,00959.5524,E,1.43,132.80,150912,,,A*62
$GPGGA,122026.000,5333.2394,N,00959.5529,E,1,07,1.0,-0.6,M,46.0,M,,0000*72
$GPGSA,A,3,31,21,25,05,16,30,29,,,,,,2.2,1.0,1.9*37
$GPRMC,122026.000,A,5333.2394,N,00959.5529,E,1.56,134.52,150912,,,A*62
$GPGGA,122027.000,5333.2390,N,00959.5532,E,1,07,1.0,-0.4,M,46.0,M,,0000*7F
$GPGSA,A,3,31,21,25,05,16,30,29,,,,,,2.2,1.0,1.9*37
$GPRMC,122027.000,A,5333.2390,N,00959.5532,E,1.47,143.41,150912,,,A*6F
$GPGGA,122028.000,5333.2387,N,00959.5535,E,1,07,1.0,-0.3,M,46.0,M,,0000*76
$GPGSA,A,3,31,21,25,05,16,30,29,,,,,,2.2,1.0,1.9*37
$GPRMC,122028.000,A,5333.2387,N,00959.5535,E,1.38,148.15,150912,,,A*63
$GPGGA,122029.000,5333.2384,N,00959.5538,E,1,07,1.0,-0.2,M,46.0,M,,0000*78
$GPGSA,A,3,31,21,25,05,16,30,29,,,,,,2.2,1.0,1.9*37
$GPGSV,3,1,12,30,63,283,45,21,60,164,38,29,45,078,41,16,34,301,38*72
$GPGSV,3,2,12,31,30,216,43,05,20,047,32,25,19,135,40,06,19,264,31*7D
$GPGSV,3,3,12,13,08,332,23,23,03,301,,18,02,151,,03,02,268,*70
$GPRMC,122029.000,A,5333.2384,N,00959.5538,E,1.40,153.30,150912,,,A*6E
$GPGGA,122030.000,5333.2380,N,00959.5540,E,1,07,1.0,-0.2,M,46.0,M,,0000*7B
$GPGSA,A,3,31,21,25,05,16,30,29,,,,,,2.2,1.0,1.9*37
$GPRMC,122030.000,A,5333.2380,N,00959.5540,E,1.40,160.67,150912,,,A*6F
$GPGGA,122031.000,5333.2376,N,00959.5541,E,1,07,1.0,-0.1,M,46.0,M,,0000*71
$GPGSA,A,3,31,21,25,05,16,30,29,,,,,,2.2,1.0,1.9*37
$GPRMC,122031.000,A,5333.2376,N,00959.5541,E,1.41,163.34,150912,,,A*62
$GPGGA,122032.000,5333.2373,N,00959.5543,E,1,07,1.0,0.0,M,46.0,M,,0000*59
$GPGSA,A,3,31,21,25,05,16,30,29,,,,,,2.2,1.0,1.9*37
$GPRMC,122032.000,A,5333.2373,N,00959.5543,E,1.33,163.05,150912,,,A*61
$GPGGA,122033.000,5333.2369,N,00959.5544,E,1,07,1.0,0.2,M,46.0,M,,0000*56
$GPGSA,A,3,31,21,25,05,16,30,29,,,,,,2.2,1.0,1.9*37
$GPRMC,122033.000,A,5333.2369,N,00959.5544,E,1.36,160.95,150912,,,A*63
$GPGGA,122034.000,5333.2365,N,00959.5546,E,1,07,1.0,0.5,M,46.0,M,,0000*58
$GPGSA,A,3,31,21,25,05,16,30,29,,,,,,2.2,1.0,1.9*37
$GPGSV,3,1,12,30,63,283,46,21,60,164,38,29,45,078,41,16,34,301,40*7E
$GPGSV,3,2,12,31,30,216,42,05,20,047,44,25,19,135,44,06,19,264,33*7B
$GPGSV,3,3,12,13,08,332,24,23,03,301,24,18,02,151,18,03,02,268,*78
$GPRMC,122034.000,A,5333.2365,N,00959.5546,E,1.41,158.35,150912,,,A*6B
$GPGGA,122035.000,5333.2361,N,00959.5547,E,1,07,1.0,0.8,M,46.0,M,,0000*51
$GPGSA,A,3,31,21,25,05,16,30,29,,,,,,2.2,1.0,1.9*37
$GPRMC,122035.000,A,5333.2361,N,00959.5547,E,1.25,158.42,150912,,,A*6D
$GPGGA,122036.000,5333.2358,N,00959.5548,E,1,07,1.0,1.0,M,46.0,M,,0000*5E
$GPGSA,A,3,31,21,25,05,16,30,29,,,,,,2.2,1.0,1.9*37
$GPRMC,122036.000,A,5333.2358,N,00959.5548,E,1.08,155.53,150912,,,A*69
$GPGGA,122037.000,5333.2354,N,00959.5550,E,1,07,1.0,1.3,M,46.0,M,,0000*59
$GPGSA,A,3,31,21,25,05,16,30,29,,,,,,2.2,1.0,1.9*37
$GPRMC,122037.000,A,5333.2354,N,00959.5550,E,1.25,157.44,150912,,,A*66
$GPGGA,122038.000,5333.2350,N,00959.5551,E,1,07,1.0,1.4,M,46.0,M,,0000*54
$GPGSA,A,3,31,21,25,05,16,30,29,,,,,,2.2,1.0,1.9*37
$GPRMC,122038.000,A,5333.2350,N,00959.5551,E,1.39,154.31,150912,,,A*60
$GPGGA,122039.000,5333.2347,N,00959.5553,E,1,07,1.0,1.5,M,46.0,M,,0000*50
$GPGSA,A,3,31,21,25,05,16,30,29,,,,,,2.2,1.0,1.9*37
$GPGSV,3,1,12,30,63,283,45,21,60,164,37,29,45,078,39,16,34,301,36*7C
$GPGSV,3,2,12,31,30,216,43,05,20,047,38,25,19,135,43,06,19,264,35*70
$GPGSV,3,3,12,13,08,332,24,23,03,301,,18,02,151,18,03,02,268,*7E
$GPRMC,122039.000,A,5333.2347,N,00959.5553,E,1.23,150.27,150912,,,A*6D
$GPGGA,122040.000,5333.2345,N,00959.5554,E,1,06,1.3,1.5,M,46.0,M,,0000*59
$GPGSA,A,3,31,21,25,05,30,29,,,,,,,2.5,1.3,2.1*3F
$GPRMC,122044.000,A,5333.2339,N,00959.5558,E,1.14,147.12,150912,,,A*61
$GPGGA,122045.000,5333.2336,N,00959.5561,E,1,07,1.0,1.3,M,46.0,M,,0000*5A
$GPGSA,A,3,31,21,25,05,16,30,29,,,,,,2.2,1.0,1.9*37
$GPRMC,122045.000,A,5333.2336,N,00959.5561,E,1.42,145.41,150912,,,A*62
$GPGGA,122046.000,5333.2333,N,00959.5565,E,1,07,1.0,1.2,M,46.0,M,,0000*59
$GPGSA,A,3,31,21,25,05,16,30,29,,,,,,2.2,1.0,1.9*37
$GPRMC,122046.000,A,5333.2333,N,00959.5565,E,1.69,144.81,150912,,,A*64
$GPGGA,122047.000,5333.2329,N,00959.5569,E,1,07,1.0,1.0,M,46.0,M,,0000*5D
$GPGSA,A,3,31,21,25,05,16,30,29,,,,,,2.2,1.0,1.9*37
$GPRMC,122047.000,A,5333.2329,N,00959.5569,E,1.50,145.38,150912,,,A*6B
$GPGGA,122048.000,5333.2326,N,00959.5572,E,1,07,1.0,0.9,M,46.0,M,,0000*5F
$GPGSA,A,3,31,21,25,05,16,30,29,,,,,,2.2,1.0,1.9*37
$GPRMC,122048.000,A,5333.2326,N,00959.5572,E,1.50,150.38,150912,,,A*65
$GPGGA,122049.000,5333.2322,N,00959.5574,E,1,07,1.0,0.8,M,46.0,M,,0000*5D
$GPGSA,A,3,31,21,25,05,16,30,29,,,,,,2.2,1.0,1.9*37
$GPGSV,3,1,12,30,63,283,44,21,60,164,37,29,45,078,41,16,34,301,36*72
$GPGSV,3,2,12,31,30,216,44,05,20,047,42,25,19,135,41,06,19,264,36*7B
$GPGSV,3,3,12,13,08,332,26,23,03,301,,18,02,151,19,03,02,268,*7D
$GPRMC,122049.000,A,5333.2322,N,00959.5574,E,1.53,153.45,150912,,,A*6C
$GPGGA,122050.000,5333.2319,N,00959.5576,E,1,07,1.0,0.7,M,46.0,M,,0000*50
$GPGSA,A,3,31,21,25,05,16,30,29,,,,,,2.2,1.0,1.9*37
$GPRMC,122050.000,A,5333.2319,N,00959.5576,E,1.37,159.96,150912,,,A*68
$GPGGA,122051.000,5333.2315,N,00959.5579,E,1,07,1.0,0.5,M,46.0,M,,0000*50
$GPGSA,A,3,31,21,25,05,16,30,29,,,,,,2.2,1.0,1.9*37
$GPRMC,122051.000,A,5333.2315,N,00959.5579,E,1.61,158.39,150912,,,A*6D
$GPGGA,122052.000,5333.2312,N,00959.5581,E,1,07,1.0,0.3,M,46.0,M,,0000*55
$GPGSA,A,3,31,21,25,05,16,30,29,,,,,,2.2,1.0,1.9*37
$GPRMC,122052.000,A,5333.2312,N,00959.5581,E,1.38,155.68,150912,,,A*6B
$GPGGA,122053.000,5333.2308,N,00959.5585,E,1,07,1.0,0.2,M,46.0,M,,0000*5A
$GPGSA,A,3,31,21,25,05,16,30,29,,,,,,2.2,1.0,1.9*37
$GPRMC,122053.000,A,5333.2308,N,00959.5585,E,1.80,148.22,150912,,,A*64
$GPGGA,122054.000,5333.2305,N,00959.5589,E,1,07,1.0,0.0,M,46.0,M,,0000*5E
$GPGSA,A,3,31,21,25,05,16,30,29,,,,,,2.2,1.0,1.9*37
$GPGSV,3,1,12,30,63,283,44,21,60,164,37,29,45,078,41,16,34,301,37*73
$GPGSV,3,2,12,31,30,216,43,05,20,047,42,25,19,135,39,06,19,264,40*72
$GPGSV,3,3,12,13,08,332,27,23,03,301,,18,02,151,,03,02,268,*74
$GPRMC,122054.000,A,5333.2305,N,00959.5589,E,1.33,144.27,150912,,,A*63
$GPGGA,122055.000,5333.2301,N,00959.5593,E,1,07,1.0,-0.1,M,46.0,M,,0000*7C
$GPGSA,A,3,31,21,25,05,16,30,29,,,,,,2.2,1.0,1.9*37
$GPRMC,122055.000,A,5333.2301,N,00959.5593,E,1.62,139.24,150912,,,A*60
$GPGGA,122056.000,5333.2299,N,00959.5598,E,1,07,1.0,-0.3,M,46.0,M,,0000*76
$GPGSA,A,3,31,21,25,05,16,30,29,,,,,,2.2,1.0,1.9*37
$GPRMC,122056.000,A,5333.2299,N,00959.5598,E,1.52,134.61,150912,,,A*67
$GPGGA,122057.000,5333.2295,N,00959.5604,E,1,07,1.0,-0.5,M,46.0,M,,0000*7B
$GPGSA,A,3,31,21,25,05,16,30,29,,,,,,2.2,1.0,1.9*37
$GPRMC,122057.000,A,5333.2295,N,00959.5604,E,1.82,133.94,150912,,,A*6C
$GPGGA,122058.000,5333.2292,N,00959.5610,E,1,07,1.0,-0.6,M,46.0,M,,0000*75
$GPGSA,A,3,31,21,25,05,16,30,29,,,,,,2.2,1.0,1.9*37
$GPRMC,122058.000,A,5333.2292,N,00959.5610,E,1.78,135.39,150912,,,A*65
$GPGGA,122059.000,5333.2290,N,00959.5614,E,1,07,1.0,-0.8,M,46.0,M,,0000*7C
$GPGSA,A,3,31,21,25,05,16,30,29,,,,,,2.2,1.0,1.9*37
$GPGSV,3,1,12,30,63,283,43,21,60,164,37,29,45,078,41,16,34,301,35*76
$GPGSV,3,2,12,31,30,216,44,05,20,047,43,25,19,135,36,06,19,264,41*7A
$GPGSV,3,3,12,13,08,332,27,23,03,301,27,18,02,151,,03,02,268,*71
$GPRMC,122059.000,A,5333.2290,N,00959.5614,E,1.23,135.76,150912,,,A*67
$GPGGA,122100.000,5333.2287,N,00959.5618,E,1,07,1.0,-0.9,M,46.0,M,,0000*7A
$GPGSA,A,3,31,21,25,05,16,30,29,,,,,,2.2,1.0,1.9*37
$GPRMC,122100.000,A,5333.2287,N,00959.5618,E,1.50,136.67,150912,,,A*67
$GPGGA,122101.000,5333.2284,N,00959.5623,E,1,07,1.0,-1.0,M,46.0,M,,0000*78
$GPGSA,A,3,31,21,25,05,16,30,29,,,,,,2.2,1.0,1.9*37
$GPRMC,122101.000,A,5333.2284,N,00959.5623,E,1.50,137.77,150912,,,A*6D
$GPGGA,122102.000,5333.2281,N,00959.5627,E,1,08,0.9,-1.1,M,46.0,M,,0000*7C
$GPGSA,A,3,31,21,06,25,05,16,30,29,,,,,1.9,0.9,1.6*3E
$GPRMC,122102.000,A,5333.2281,N,00959.5627,E,1.45,138.08,150912,,,A*6C
$GPGGA,122103.000,5333.2278,N,00959.5632,E,1,08,0.9,-1.2,M,46.0,M,,0000*7C
$GPGSA,A,3,31,21,06,25,05,16,30,29,,,,,1.9,0.9,1.6*3E
$GPRMC,122103.000,A,5333.2278,N,00959.5632,E,1.72,138.95,150912,,,A*6F
$GPGGA,122104.000,5333.2275,N,00959.5637,E,1,08,0.9,-1.3,M,46.0,M,,0000*72
$GPGSA,A,3,31,21,06,25,05,16,30,29,,,,,1.9,0.9,1.6*3E
$GPGSV,3,1,12,30,63,282,42,21,61,163,38,29,45,078,41,16,35,301,34*7F
$GPGSV,3,2,12,31,30,215,45,05,20,047,44,06,19,265,40,25,19,135,37*7E
$GPGSV,3,3,12,13,08,332,27,18,03,151,,03,03,268,,23,02,301,27*70
$GPRMC,122104.000,A,5333.2275,N,00959.5637,E,1.53,134.11,150912,,,A*63
$GPGGA,122105.000,5333.2271,N,00959.5644,E,1,08,0.9,-1.3,M,46.0,M,,0000*73
$GPGSA,A,3,31,21,06,25,05,16,30,29,,,,,1.9,0.9,1.6*3E
$GPRMC,122105.000,A,5333.2271,N,00959.5644,E,1.98,132.30,150912,,,A*60
$GPGGA,122106.000,5333.2268,N,00959.5652,E,1,08,0.9,-1.4,M,46.0,M,,0000*78
$GPGSA,A,3,31,21,06,25,05,16,30,29,,,,,1.9,0.9,1.6*3E
$GPRMC,122106.000,A,5333.2268,N,00959.5652,E,2.17,131.16,150912,,,A*6F
$GPGGA,122107.000,5333.2266,N,00959.5656,E,1,08,0.9,-1.4,M,46.0,M,,0000*73
$GPGSA,A,3,31,21,06,25,05,16,30,29,,,,,1.9,0.9,1.6*3E
$GPRMC,122107.000,A,5333.2266,N,00959.5656,E,1.19,127.03,150912,,,A*6A
$GPGGA,122108.000,5333.2265,N,00959.5657,E,1,08,0.9,-1.5,M,46.0,M,,0000*7F
$GPGSA,A,3,31,21,06,25,05,16,30,29,,,,,1.9,0.9,1.6*3E
$GPRMC,122112.000,A,5333.2263,N,00959.5664,E,1.15,130.18,150912,,,A*6A
$GPGGA,122113.000,5333.2260,N,00959.5668,E,1,08,0.9,-1.7,M,46.0,M,,0000*7E
$GPGSA,A,3,31,21,06,25,05,16,30,29,,,,,1.9,0.9,1.6*3E
$GPRMC,122113.000,A,5333.2260,N,00959.5668,E,1.38,136.62,150912,,,A*60
$GPGGA,122114.000,5333.2257,N,00959.5672,E,1,08,0.9,-1.7,M,46.0,M,,0000*76
$GPGSA,A,3,31,21,06,25,05,16,30,29,,,,,1.9,0.9,1.6*3E
$GPGSV,3,1,12,30,63,282,39,21,61,163,39,29,45,078,42,16,35,301,36*73
$GPGSV,3,2,12,31,30,215,45,05,20,047,38,06,19,265,42,25,19,135,37*77
$GPGSV,3,3,12,13,08,332,26,18,03,151,,03,03,268,,23,02,301,*74
$GPRMC,122114.000,A,5333.2257,N,00959.5672,E,1.44,143.10,150912,,,A*64
$GPGGA,122115.000,5333.2254,N,00959.5679,E,1,08,0.9,-1.8,M,46.0,M,,0000*70
$GPGSA,A,3,31,21,06,25,05,16,30,29,,,,,1.9,0.9,1.6*3E
$GPRMC,122115.000,A,5333.2254,N,00959.5679,E,1.67,123.49,150912,,,A*66
$GPGGA,122116.000,5333.2252,N,00959.5686,E,1,08,0.9,-1.8,M,46.0,M,,0000*75
$GPGSA,A,3,31,21,06,25,05,16,30,29,,,,,1.9,0.9,1.6*3E
$GPRMC,122116.000,A,5333.2252,N,00959.5686,E,1.63,120.34,150912,,,A*6E
$GPGGA,122117.000,5333.2250,N,00959.5690,E,1,08,0.9,-1.8,M,46.0,M,,0000*71
$GPGSA,A,3,31,21,06,25,05,16,30,29,,,,,1.9,0.9,1.6*3E
$GPRMC,122117.000,A,5333.2250,N,00959.5690,E,0.96,119.49,150912,,,A*61
$GPGGA,122118.000,5333.2250,N,00959.5691,E,1,08,0.9,-1.7,M,46.0,M,,0000*70
$GPGSA,A,3,31,21,06,25,05,16,30,29,,,,,1.9,0.9,1.6*3E
$GPRMC,122318.000,A,5333.2244,N,00959.5713,E,1.25,112.23,150912,,,A*6D
$GPGGA,122319.000,5333.2241,N,00959.5719,E,1,08,0.9,-5.2,M,46.0,M,,0000*73
$GPGSA,A,3,31,21,06,25,05,16,30,29,,,,,1.9,0.9,1.6*3E
$GPGSV,3,1,12,30,64,280,38,21,61,162,38,29,44,078,44,16,36,301,32*77
$GPGSV,3,2,12,31,29,215,45,06,20,265,39,05,20,046,41,25,18,136,35*76
$GPGSV,3,3,12,13,08,331,29,18,03,151,,03,03,268,,23,02,300,*79
$GPRMC,122319.000,A,5333.2241,N,00959.5719,E,1.68,123.87,150912,,,A*66
$GPGGA,122320.000,5333.2238,N,00959.5725,E,1,08,0.9,-5.1,M,46.0,M,,0000*7B
$GPGSA,A,3,31,21,06,25,05,16,30,29,,,,,1.9,0.9,1.6*3E
$GPRMC,122320.000,A,5333.2238,N,00959.5725,E,1.99,130.14,150912,,,A*6B
$GPGGA,122321.000,5333.2235,N,00959.5732,E,1,08,0.9,-5.1,M,46.0,M,,0000*71
$GPGSA,A,3,31,21,06,25,05,16,30,29,,,,,1.9,0.9,1.6*3E
$GPRMC,122321.000,A,5333.2235,N,00959.5732,E,1.99,128.82,150912,,,A*67
$GPGGA,122322.000,5333.2232,N,00959.5739,E,1,08,0.9,-5.0,M,46.0,M,,0000*7F
$GPGSA,A,3,31,21,06,25,05,16,30,29,,,,,1.9,0.9,1.6*3E
$GPRMC,122322.000,A,5333.2232,N,00959.5739,E,1.99,128.91,150912,,,A*6A
$GPGGA,122323.000,5333.2229,N,00959.5745,E,1,08,0.9,-5.0,M,46.0,M,,0000*7F
$GPGSA,A,3,31,21,06,25,05,16,30,29,,,,,1.9,0.9,1.6*3E
$GPRMC,122323.000,A,5333.2229,N,00959.5745,E,1.81,129.35,150912,,,A*6C
$GPGGA,122324.000,5333.2225,N,00959.5751,E,1,08,0.9,-5.0,M,46.0,M,,0000*71
$GPGSA,A,3,31,21,06,25,05,16,30,29,,,,,1.9,0.9,1.6*3E
$GPGSV,3,1,12,30,64,280,41,21,61,162,38,29,44,078,41,16,36,301,33*7D
$GPGSV,3,2,12,31,29,215,44,06,20,265,42,05,20,046,42,25,18,136,32*7F
$GPGSV,3,3,12,13,08,331,30,18,03,151,,03,03,269,,23,02,300,*70
$GPRMC,122324.000,A,5333.2225,N,00959.5751,E,1.95,136.51,150912,,,A*6B
$GPGGA,122325.000,5333.2222,N,00959.5756,E,1,08,0.9,-5.0,M,46.0,M,,0000*70
$GPGSA,A,3,31,21,06,25,05,16,30,29,,,,,1.9,0.9,1.6*3E
$GPRMC,122325.000,A,5333.2222,N,00959.5756,E,1.78,136.09,150912,,,A*64
$GPGGA,122326.000,5333.2219,N,00959.5762,E,1,08,0.9,-5.0,M,46.0,M,,0000*7C
$GPGSA,A,3,31,21,06,25,05,16,30,29,,,,,1.9,0.9,1.6*3E
$GPRMC,122326.000,A,5333.2219,N,00959.5762,E,1.73,130.86,150912,,,A*62
$GPGGA,122327.000,5333.2216,N,00959.5768,E,1,08,0.9,-5.0,M,46.0,M,,0000*78
$GPGSA,A,3,31,21,06,25,05,16,30,29,,,,,1.9,0.9,1.6*3E
$GPRMC,122327.000,A,5333.2216,N,00959.5768,E,1.90,129.79,150912,,,A*63
$GPGGA,122328.000,5333.2213,N,00959.5774,E,1,08,0.9,-5.1,M,46.0,M,,0000*7E
$GPGSA,A,3,31,21,06,25,05,16,30,29,,,,,1.9,0.9,1.6*3E
$GPRMC,122328.000,A,5333.2213,N,00959.5774,E,1.81,132.97,150912,,,A*6E
$GPGGA,122329.000,5333.2210,N,00959.5780,E,1,08,0.9,-5.1,M,46.0,M,,0000*77
$GPGSA,A,3,31,21,06,25,05,16,30,29,,,,,1.9,0.9,1.6*3E
$GPGSV,3,1,12,30,64,280,41,21,61,162,38,29,44,078,43,16,36,301,36*7A
$GPGSV,3,2,12,31,29,215,43,06,20,265,42,05,20,046,43,25,18,136,32*79
$GPGSV,3,3,12,13,08,331,31,18,03,151,,03,03,269,16,23,02,300,*76
$GPRMC,122329.000,A,5333.2210,N,00959.5780,E,1.81,129.93,150912,,,A*69
$GPGGA,122330.000,5333.2206,N,00959.5786,E,1,08,0.9,-5.1,M,46.0,M,,0000*7E
$GPGSA,A,3,31,21,06,25,05,16,30,29,,,,,1.9,0.9,1.6*3E
$GPRMC,122330.000,A,5333.2206,N,00959.5786,E,1.80,132.86,150912,,,A*6F
$GPGGA,122331.000,5333.2203,N,00959.5791,E,1,08,0.9,-5.1,M,46.0,M,,0000*7C
$GPGSA,A,3,31,21,06,25,05,16,30,29,,,,,1.9,0.9,1.6*3E
$GPRMC,122331.000,A,5333.2203,N,00959.5791,E,1.67,136.11,150912,,,A*6E
$GPGGA,122332.000,5333.2199,N,00959.5796,E,1,08,0.9,-5.1,M,46.0,M,,0000*78
$GPGSA,A,3,31,21,06,25,05,16,30,29,,,,,1.9,0.9,1.6*3E
$GPRMC,122332.000,A,5333.2199,N,00959.5796,E,1.86,144.31,150912,,,A*62
$GPGGA,122333.000,5333.2195,N,00959.5801,E,1,08,0.9,-5.0,M,46.0,M,,0000*75
$GPGSA,A,3,31,21,06,25,05,16,30,29,,,,,1.9,0.9,1.6*3E
$GPRMC,122333.000,A,5333.2195,N,00959.5801,E,1.92,145.13,150912,,,A*6A
$GPGGA,122334.000,5333.2191,N,00959.5806,E,1,08,0.9,-5.0,M,46.0,M,,0000*71
$GPGSA,A,3,31,21,06,25,05,16,30,29,,,,,1.9,0.9,1.6*3E
$GPGSV,3,1,12,30,64,280,42,21,61,162,38,29,44,078,43,16,36,301,37*78
$GPGSV,3,2,12,31,29,215,43,06,20,265,43,05,20,046,44,25,18,136,36*7B
$GPGSV,3,3,12,13,08,331,31,18,03,151,,03,03,269,,23,02,300,*71
$GPRMC,122334.000,A,5333.2191,N,00959.5806,E,1.88,143.82,150912,,,A*6B
$GPGGA,122335.000,5333.2187,N,00959.5810,E,1,08,0.9,-5.0,M,46.0,M,,0000*70
$GPGSA,A,3,31,21,06,25,05,16,30,29,,,,,1.9,0.9,1.6*3E
$GPRMC,122335.000,A,5333.2187,N,00959.5810,E,1.86,146.63,150912,,,A*6E
$GPGGA,122336.000,5333.2184,N,00959.5815,E,1,08,0.9,-4.9,M,46.0,M,,0000*7D
$GPGSA,A,3,31,21,06,25,05,16,30,29,,,,,1.9,0.9,1.6*3E
$GPRMC,122336.000,A,5333.2184,N,00959.5815,E,1.91,142.25,150912,,,A*6B
$GPGGA,122337.000,5333.2179,N,00959.5820,E,1,08,0.9,-4.9,M,46.0,M,,0000*78
$GPGSA,A,3,31,21,06,25,05,16,30,29,,,,,1.9,0.9,1.6*3E
$GPRMC,122337.000,A,5333.2179,N,00959.5820,E,2.05,142.11,150912,,,A*67
$GPGGA,122338.000,5333.2175,N,00959.5826,E,1,08,0.9,-4.8,M,46.0,M,,0000*7C
$GPGSA,A,3,31,21,06,25,05,16,30,29,,,,,1.9,0.9,1.6*3E
$GPRMC,122338.000,A,5333.2175,N,00959.5826,E,2.09,142.95,150912,,,A*62
$GPGGA,122339.000,5333.2171,N,00959.5832,E,1,08,0.9,-4.8,M,46.0,M,,0000*7C
$GPGSA,A,3,31,21,06,25,05,16,30,29,,,,,1.9,0.9,1.6*3E
$GPGSV,3,1,12,30,64,280,43,21,61,162,38,29,44,078,43,16,36,301,38*76
$GPGSV,3,2,12,31,29,215,42,06,20,265,42,05,20,046,45,25,18,136,36*7A
$GPGSV,3,3,12,13,08,331,30,18,03,151,,03,03,269,,23,02,300,*70
$GPRMC,122339.000,A,5333.2171,N,00959.5832,E,2.01,138.63,150912,,,A*6E
$GPGGA,122340.000,5333.2167,N,00959.5837,E,1,08,0.9,-4.7,M,46.0,M,,0000*7F
$GPGSA,A,3,31,21,06,25,05,16,30,29,,,,,1.9,0.9,1.6*3E
$GPRMC,122340.000,A,5333.2167,N,00959.5837,E,2.00,138.61,150912,,,A*61
$GPGGA,122341.000,5333.2163,N,00959.5843,E,1,08,0.9,-4.7,M,46.0,M,,0000*79
$GPGSA,A,3,31,21,06,25,05,16,30,29,,,,,1.9,0.9,1.6*3E
$GPRMC,122341.000,A,5333.2163,N,00959.5843,E,1.97,139.17,150912,,,A*6A
$GPGGA,122342.000,5333.2160,N,00959.5849,E,1,08,0.9,-4.6,M,46.0,M,,0000*72
$GPGSA,A,3,31,21,06,25,05,16,30,29,,,,,1.9,0.9,1.6*3E
$GPRMC,122342.000,A,5333.2160,N,00959.5849,E,1.95,136.70,150912,,,A*6C
$GPGGA,122343.000,5333.2156,N,00959.5854,E,1,08,0.9,-4.6,M,46.0,M,,0000*7A
$GPGSA,A,3,31,21,06,25,05,16,30,29,,,,,1.9,0.9,1.6*3E
$GPRMC,122343.000,A,5333.2156,N,00959.5854,E,1.93,139.23,150912,,,A*6B
$GPGGA,122344.000,5333.2152,N,00959.5860,E,1,08,0.9,-4.6,M,46.0,M,,0000*7E
$GPGSA,A,3,31,21,06,25,05,16,30,29,,,,,1.9,0.9,1.6*3E
$GPGSV,3,1,12,30,64,280,43,21,61,162,38,29,44,078,43,16,36,301,38*76
$GPGSV,3,2,12,31,29,215,42,06,20,265,42,05,20,046,45,25,18,136,34*78
$GPGSV,3,3,12,13,08,331,27,18,03,151,,03,03,269,,23,02,300,*76
$GPRMC,122344.000,A,5333.2152,N,00959.5860,E,1.93,139.46,150912,,,A*6C
$GPGGA,122345.000,5333.2148,N,00959.5866,E,1,08,0.9,-4.6,M,46.0,M,,0000*72
$GPGSA,A,3,31,21,06,25,05,16,30,29,,,,,1.9,0.9,1.6*3E
$GPRMC,122345.000,A,5333.2148,N,00959.5866,E,2.06,137.87,150912,,,A*6C
$GPGGA,122346.000,5333.2144,N,00959.5871,E,1,08,0.9,-4.5,M,46.0,M,,0000*78
$GPGSA,A,3,31,21,06,25,05,16,30,29,,,,,1.9,0.9,1.6*3E
$GPRMC,122346.000,A,5333.2144,N,00959.5871,E,1.92,140.20,150912,,,A*66
$GPGGA,122347.000,5333.2140,N,00959.5876,E,1,08,0.9,-4.5,M,46.0,M,,0000*7A
$GPGSA,A,3,31,21,06,25,05,16,30,29,,,,,1.9,0.9,1.6*3E
$GPRMC,122347.000,A,5333.2140,N,00959.5876,E,1.92,141.51,150912,,,A*63
$GPGGA,122348.000,5333.2136,N,00959.5881,E,1,08,0.9,-4.5,M,46.0,M,,0000*7C
$GPGSA,A,3,31,21,06,25,05,16,30,29,,,,,1.9,0.9,1.6*3E
$GPRMC,122348.000,A,5333.2136,N,00959.5881,E,1.82,141.42,150912,,,A*66
$GPGGA,122349.000,5333.2132,N,00959.5886,E,1,08,0.9,-4.5,M,46.0,M,,0000*7E
$GPGSA,A,3,31,21,06,25,05,16,30,29,,,,,1.9,0.9,1.6*3E
$GPGSV,3,1,12,30,64,280,44,21,62,162,38,29,44,078,43,16,36,301,38*72
$GPGSV,3,2,12,31,29,215,42,06,20,265,42,05,20,046,46,25,18,136,33*7C
$GPGSV,3,3,12,13,08,331,34,18,04,151,,03,04,269,,23,02,300,*74
$GPRMC,122349.000,A,5333.2132,N,00959.5886,E,1.83,142.19,150912,,,A*68
$GPGGA,122350.000,5333.2128,N,00959.5891,E,1,08,0.9,-4.5,M,46.0,M,,0000*7B
$GPGSA,A,3,31,21,06,25,05,16,30,29,,,,,1.9,0.9,1.6*3E
$GPRMC,122350.000,A,5333.2128,N,00959.5891,E,1.84,141.76,150912,,,A*60
$GPGGA,122351.000,5333.2125,N,00959.5895,E,1,08,0.9,-4.5,M,46.0,M,,0000*73
$GPGSA,A,3,31,21,06,25,05,16,30,29,,,,,1.9,0.9,1.6*3E
$GPRMC,122351.000,A,5333.2125,N,00959.5895,E,1.51,142.99,150912,,,A*62
$GPGGA,122352.000,5333.2122,N,00959.5899,E,1,08,0.9,-4.4,M,46.0,M,,0000*7A
$GPGSA,A,3,31,21,06,25,05,16,30,29,,,,,1.9,0.9,1.6*3E
$GPRMC,122352.000,A,5333.2122,N,00959.5899,E,1.66,143.92,150912,,,A*64
$GPGGA,122353.000,5333.2118,N,00959.5903,E,1,08,0.9,-4.4,M,46.0,M,,0000*70
$GPGSA,A,3,31,21,06,25,05,16,30,29,,,,,1.9,0.9,1.6*3E
$GPRMC,122353.000,A,5333.2118,N,00959.5903,E,1.71,144.91,150912,,,A*6C
$GPGGA,122354.000,5333.2114,N,00959.5908,E,1,08,0.9,-4.4,M,46.0,M,,0000*70
$GPGSA,A,3,31,21,06,25,05,16,30,29,,,,,1.9,0.9,1.6*3E
$GPGSV,3,1,12,30,64,280,44,21,62,162,38,29,44,078,43,16,36,301,38*72
$GPGSV,3,2,12,31,29,215,43,06,20,265,42,05,20,046,45,25,18,136,35*78
$GPGSV,3,3,12,13,08,331,29,18,04,151,,03,04,269,,23,02,300,*78
$GPRMC,122354.000,A,5333.2114,N,00959.5908,E,1.84,142.92,150912,,,A*63
$GPGGA,122355.000,5333.2110,N,00959.5913,E,1,08,0.9,-4.4,M,46.0,M,,0000*7F
$GPGSA,A,3,31,21,06,25,05,16,30,29,,,,,1.9,0.9,1.6*3E
$GPRMC,122355.000,A,5333.2110,N,00959.5913,E,1.82,143.25,150912,,,A*67
$GPGGA,122356.000,5333.2107,N,00959.5917,E,1,08,0.9,-4.4,M,46.0,M,,0000*7E
$GPGSA,A,3,31,21,06,25,05,16,30,29,,,,,1.9,0.9,1.6*3E
$GPRMC,122356.000,A,5333.2107,N,00959.5917,E,1.65,144.14,150912,,,A*6A
$GPGGA,122357.000,5333.2102,N,00959.5921,E,1,08,0.9,-4.3,M,46.0,M,,0000*78
$GPGSA,A,3,31,21,06,25,05,16,30,29,,,,,1.9,0.9,1.6*3E
$GPRMC,122357.000,A,5333.2102,N,00959.5921,E,1.88,147.17,150912,,,A*68
$GPGGA,122358.000,5333.2098,N,00959.5926,E,1,08,0.9,-4.3,M,46.0,M,,0000*72
$GPGSA,A,3,31,21,06,25,05,16,30,29,,,,,1.9,0.9,1.6*3E
$GPRMC,122358.000,A,5333.2098,N,00959.5926,E,1.78,145.94,150912,,,A*64
$GPGGA,122359.000,5333.2095,N,00959.5930,E,1,08,0.9,-4.2,M,46.0,M,,0000*78
$GPGSA,A,3,31,21,06,25,05,16,30,29,,,,,1.9,0.9,1.6*3E
$GPGSV,3,1,12,30,64,280,44,21,62,162,38,29,44,078,43,16,36,301,38*72
$GPGSV,3,2,12,31,29,215,43,06,20,265,42,05,20,046,37,25,18,136,35*7D
$GPGSV,3,3,12,13,08,331,33,18,04,151,,03,04,269,,23,02,300,*73
$GPRMC,122359.000,A,5333.2095,N,00959.5930,E,1.57,141.53,150912,,,A*6D
$GPGGA,122400.000,5333.2092,N,00959.5936,E,1,08,0.9,-4.2,M,46.0,M,,0000*72
$GPGSA,A,3,31,21,06,25,05,16,30,29,,,,,1.9,0.9,1.6*3E
$GPRMC,122400.000,A,5333.2092,N,00959.5936,E,1.89,131.13,150912,,,A*67
$GPGGA,122401.000,5333.2089,N,00959.5942,E,1,08,0.9,-4.1,M,46.0,M,,0000*79
$GPGSA,A,3,31,21,06,25,05,16,30,29,,,,,1.9,0.9,1.6*3E
$GPRMC,122401.000,A,5333.2089,N,00959.5942,E,1.79,127.60,150912,,,A*63
$GPGGA,122402.000,5333.2086,N,00959.5947,E,1,08,0.9,-4.0,M,46.0,M,,0000*71
$GPGSA,A,3,31,21,06,25,05,16,30,29,,,,,1.9,0.9,1.6*3E
$GPRMC,122402.000,A,5333.2086,N,00959.5947,E,1.56,129.62,150912,,,A*6B
$GPGGA,122403.000,5333.2084,N,00959.5951,E,1,08,0.9,-3.9,M,46.0,M,,0000*7B
$GPGSA,A,3,31,21,06,25,05,16,30,29,,,,,1.9,0.9,1.6*3E
$GPRMC,122403.000,A,5333.2084,N,00959.5951,E,1.22,135.63,150912,,,A*60
$GPGGA,122404.000,5333.2082,N,00959.5953,E,1,08,0.9,-3.8,M,46.0,M,,0000*79
$GPGSA,A,3,31,21,06,25,05,16,30,29,,,,,1.9,0.9,1.6*3E
$GPGSV,3,1,12,30,64,280,42,21,62,162,38,29,44,078,43,16,36,301,38*74
$GPGSV,3,2,12,31,29,215,41,06,20,265,42,05,20,046,43,25,18,136,36*7F
$GPGSV,3,3,12,13,08,331,34,18,04,151,,03,04,269,,23,02,300,*74
$GPRMC,122431.000,A,5333.2065,N,00959.5974,E,1.02,136.46,150912,,,A*6F
$GPGGA,122432.000,5333.2062,N,00959.5978,E,1,08,0.9,-4.4,M,46.0,M,,0000*70
$GPGSA,A,3,31,21,06,25,05,16,30,29,,,,,1.9,0.9,1.6*3E
$GPRMC,122432.000,A,5333.2062,N,00959.5978,E,1.19,137.32,150912,,,A*6F
$GPGGA,122433.000,5333.2060,N,00959.5981,E,1,08,0.9,-4.5,M,46.0,M,,0000*74
$GPGSA,A,3,31,21,06,25,05,16,30,29,,,,,1.9,0.9,1.6*3E
$GPRMC,122433.000,A,5333.2060,N,00959.5981,E,1.15,137.14,150912,,,A*62
$GPGGA,122434.000,5333.2057,N,00959.5984,E,1,08,0.9,-4.5,M,46.0,M,,0000*72
$GPGSA,A,3,31,21,06,25,05,16,30,29,,,,,1.9,0.9,1.6*3E
$GPGSV,3,1,12,30,64,280,42,21,62,162,38,29,44,078,42,16,36,301,41*7B
$GPGSV,3,2,12,31,29,215,46,06,20,265,41,05,20,046,44,25,18,136,37*7D
$GPGSV,3,3,12,13,08,331,34,18,04,151,,03,04,269,,23,02,300,*74
$GPRMC,122434.000,A,5333.2057,N,00959.5984,E,1.09,136.35,150912,,,A*6B
$GPGGA,122435.000,5333.2055,N,00959.5987,E,1,08,0.9,-4.6,M,46.0,M,,0000*71
$GPGSA,A,3,31,21,06,25,05,16,30,29,,,,,1.9,0.9,1.6*3E
$GPRMC,122435.000,A,5333.2055,N,00959.5987,E,0.96,132.45,150912,,,A*6F
$GPGGA,122436.000,5333.2053,N,00959.5991,E,1,08,0.9,-4.7,M,46.0,M,,0000*72
$GPGSA,A,3,31,21,06,25,05,16,30,29,,,,,1.9,0.9,1.6*3E
$GPRMC,122436.000,A,5333.2053,N,00959.5991,E,1.17,130.45,150912,,,A*67
$GPGGA,122437.000,5333.2051,N,00959.5995,E,1,08,0.9,-4.8,M,46.0,M,,0000*7A
$GPGSA,A,3,31,21,06,25,05,16,30,29,,,,,1.9,0.9,1.6*3E
$GPRMC,122437.000,A,5333.2051,N,00959.5995,E,1.06,123.83,150912,,,A*68
$GPGGA,122438.000,5333.2049,N,00959.6000,E,1,08,0.9,-4.9,M,46.0,M,,0000*7B
$GPGSA,A,3,31,21,06,25,05,16,30,29,,,,,1.9,0.9,1.6*3E
$GPRMC,122438.000,A,5333.2049,N,00959.6000,E,1.38,122.92,150912,,,A*64
$GPGGA,122439.000,5333.2048,N,00959.6004,E,1,08,0.9,-4.9,M,46.0,M,,0000*7F
$GPGSA,A,3,31,21,06,25,05,16,30,29,,,,,1.9,0.9,1.6*3E
$GPGSV,3,1,12,30,64,280,40,21,62,162,38,29,44,078,43,16,36,301,31*7F
$GPGSV,3,2,12,31,29,215,46,06,20,265,41,05,20,046,42,25,18,136,33*7F
$GPGSV,3,3,12,13,08,331,34,18,04,151,,03,04,269,,23,02,300,*74
$GPRMC,122439.000,A,5333.2048,N,00959.6004,E,1.03,118.00,150912,,,A*6A
$GPGGA,122440.000,5333.2046,N,00959.6009,E,1,07,1.2,-5.0,M,46.0,M,,0000*7F
$GPGSA,A,3,31,21,06,05,16,30,29,,,,,,2.2,1.2,1.9*34
$GPRMC,122440.000,A,5333.2046,N,00959.6009,E,1.31,122.83,150912,,,A*64
$GPGGA,122441.000,5333.2044,N,00959.6013,E,1,08,0.9,-5.1,M,46.0,M,,0000*73
$GPGSA,A,3,31,21,06,25,05,16,30,29,,,,,1.9,0.9,1.6*3E
$GPRMC,122441.000,A,5333.2044,N,00959.6013,E,1.09,127.03,150912,,,A*6A
$GPGGA,122442.000,5333.2042,N,00959.6016,E,1,08,0.9,-5.2,M,46.0,M,,0000*70
$GPGSA,A,3,31,21,06,25,05,16,30,29,,,,,1.9,0.9,1.6*3E
$GPRMC,122442.000,A,5333.2042,N,00959.6016,E,0.85,119.89,150912,,,A*60
$GPGGA,122443.000,5333.2041,N,00959.6017,E,1,08,0.9,-5.2,M,46.0,M,,0000*73
$GPGSA,A,3,31,21,06,25,05,16,30,29,,,,,1.9,0.9,1.6*3E
$GPRMC,122445.000,A,5333.2038,N,00959.6023,E,1.11,121.31,150912,,,A*68
$GPGGA,122446.000,5333.2035,N,00959.6029,E,1,08,0.9,-5.4,M,46.0,M,,0000*7E
$GPGSA,A,3,31,21,06,25,05,16,30,29,,,,,1.9,0.9,1.6*3E
$GPRMC,122446.000,A,5333.2035,N,00959.6029,E,1.66,127.01,150912,,,A*69
$GPGGA,122447.000,5333.2032,N,00959.6033,E,1,08,0.9,-5.5,M,46.0,M,,0000*72
$GPGSA,A,3,31,21,06,25,05,16,30,29,,,,,1.9,0.9,1.6*3E
$GPRMC,122447.000,A,5333.2032,N,00959.6033,E,1.45,139.70,150912,,,A*6C
$GPGGA,122448.000,5333.2029,N,00959.6037,E,1,08,0.9,-5.5,M,46.0,M,,0000*73
$GPGSA,A,3,31,21,06,25,05,16,30,29,,,,,1.9,0.9,1.6*3E
$GPRMC,122448.000,A,5333.2029,N,00959.6037,E,1.56,145.09,150912,,,A*6A
$GPGGA,122449.000,5333.2025,N,00959.6041,E,1,08,0.9,-5.6,M,46.0,M,,0000*7C
$GPGSA,A,3,31,21,06,25,05,16,30,29,,,,,1.9,0.9,1.6*3E
$GPGSV,3,1,12,30,64,279,41,21,62,162,39,29,43,079,44,16,36,301,38*71
$GPGSV,3,2,12,31,28,215,43,06,21,265,41,05,20,045,42,25,17,136,35*70
$GPGSV,3,3,12,13,08,330,32,18,04,151,,03,04,269,,23,02,300,*73
$GPRMC,122449.000,A,5333.2025,N,00959.6041,E,1.45,140.00,150912,,,A*68
$GPGGA,122450.000,5333.2022,N,00959.6046,E,1,08,0.9,-5.6,M,46.0,M,,0000*74
$GPGSA,A,3,31,21,06,25,05,16,30,29,,,,,1.9,0.9,1.6*3E
$GPRMC,122450.000,A,5333.2022,N,00959.6046,E,1.56,134.67,150912,,,A*60
$GPGGA,122451.000,5333.2019,N,00959.6052,E,1,08,0.9,-5.6,M,46.0,M,,0000*78
$GPGSA,A,3,31,21,06,25,05,16,30,29,,,,,1.9,0.9,1.6*3E
$GPRMC,122451.000,A,5333.2019,N,00959.6052,E,1.57,130.70,150912,,,A*6F
$GPGGA,122452.000,5333.2016,N,00959.6056,E,1,08,0.9,-5.7,M,46.0,M,,0000*71
$GPGSA,A,3,31,21,06,25,05,16,30,29,,,,,1.9,0.9,1.6*3E
$GPRMC,122452.000,A,5333.2016,N,00959.6056,E,1.43,136.96,150912,,,A*6C
$GPGGA,122453.000,5333.2013,N,00959.6060,E,1,08,0.9,-5.7,M,46.0,M,,0000*70
$GPGSA,A,3,31,21,06,25,05,16,30,29,,,,,1.9,0.9,1.6*3E
$GPRMC,122453.000,A,5333.2013,N,00959.6060,E,1.52,140.73,150912,,,A*67
$GPGGA,122454.000,5333.2010,N,00959.6064,E,1,08,0.9,-5.7,M,46.0,M,,0000*70
$GPGSA,A,3,31,21,06,25,05,16,30,29,,,,,1.9,0.9,1.6*3E
$GPGSV,3,1,12,30,64,279,42,21,62,162,39,29,43,079,44,16,36,301,38*72
$GPGSV,3,2,12,31,28,215,43,06,21,265,42,05,20,045,37,25,17,136,35*71
$GPGSV,3,3,12,13,08,330,29,18,04,151,,03,04,269,,23,02,300,*79
$GPRMC,122454.000,A,5333.2010,N,00959.6064,E,1.24,139.13,150912,,,A*6E
$GPGGA,122455.000,5333.2007,N,00959.6069,E,1,08,0.9,-5.7,M,46.0,M,,0000*7A
$GPGSA,A,3,31,21,06,25,05,16,30,29,,,,,1.9,0.9,1.6*3E
$GPRMC,122455.000,A,5333.2007,N,00959.6069,E,1.61,135.92,150912,,,A*60
$GPGGA,122456.000,5333.2004,N,00959.6074,E,1,08,0.9,-5.7,M,46.0,M,,0000*76
$GPGSA,A,3,31,21,06,25,05,16,30,29,,,,,1.9,0.9,1.6*3E
$GPRMC,122456.000,A,5333.2004,N,00959.6074,E,1.60,135.14,150912,,,A*63
$GPGGA,122457.000,5333.2000,N,00959.6079,E,1,08,0.9,-5.7,M,46.0,M,,0000*7E
$GPGSA,A,3,31,21,06,25,05,16,30,29,,,,,1.9,0.9,1.6*3E
$GPRMC,122457.000,A,5333.2000,N,00959.6079,E,1.71,139.10,150912,,,A*63
$GPGGA,122458.000,5333.1997,N,00959.6083,E,1,08,0.9,-5.7,M,46.0,M,,0000*70
$GPGSA,A,3,31,21,06,25,05,16,30,29,,,,,1.9,0.9,1.6*3E
$GPRMC,122458.000,A,5333.1997,N,00959.6083,E,1.47,137.76,150912,,,A*66
$GPGGA,122459.000,5333.1994,N,00959.6087,E,1,08,0.9,-5.7,M,46.0,M,,0000*76
$GPGSA,A,3,31,21,06,25,05,16,30,29,,,,,1.9,0.9,1.6*3E
$GPGSV,3,1,12,30,64,279,42,21,62,162,39,29,43,079,44,16,36,301,39*73
$GPGSV,3,2,12,31,28,215,39,06,21,265,42,05,20,045,36,25,17,136,35*7D
$GPGSV,3,3,12,13,08,330,31,18,04,151,,03,04,269,,23,02,300,*70
$GPRMC,122459.000,A,5333.1994,N,00959.6087,E,1.38,143.00,150912,,,A*6A
$GPGGA,122500.000,5333.1991,N,00959.6091,E,1,08,0.9,-5.7,M,46.0,M,,0000*79
$GPGSA,A,3,31,21,06,25,05,16,30,29,,,,,1.9,0.9,1.6*3E
$GPRMC,122500.000,A,5333.1991,N,00959.6091,E,1.70,142.98,150912,,,A*69
$GPGGA,122501.000,5333.1988,N,00959.6095,E,1,08,0.9,-5.7,M,46.0,M,,0000*74
$GPGSA,A,3,31,21,06,25,05,16,30,29,,,,,1.9,0.9,1.6*3E
$GPRMC,122501.000,A,5333.1988,N,00959.6095,E,1.42,141.42,150912,,,A*61
$GPGGA,122502.000,5333.1984,N,00959.6100,E,1,08,0.9,-5.6,M,46.0,M,,0000*77
$GPGSA,A,3,31,21,06,25,05,16,30,29,,,,,1.9,0.9,1.6*3E
$GPRMC,122502.000,A,5333.1984,N,00959.6100,E,1.66,140.42,150912,,,A*64
$GPGGA,122503.000,5333.1982,N,00959.6104,E,1,08,0.9,-5.6,M,46.0,M,,0000*74
$GPGSA,A,3,31,21,06,25,05,16,30,29,,,,,1.9,0.9,1.6*3E
$GPRMC,122503.000,A,5333.1982,N,00959.6104,E,1.44,137.76,150912,,,A*60
$GPGGA,122504.000,5333.1979,N,00959.6108,E,1,08,0.9,-5.6,M,46.0,M,,0000*7B
$GPGSA,A,3,31,21,06,25,05,16,30,29,,,,,1.9,0.9,1.6*3E
$GPGSV,3,1,12,30,64,279,43,21,62,162,38,29,43,079,45,16,36,301,34*7F
$GPGSV,3,2,12,31,28,215,37,06,21,265,38,05,20,045,37,25,17,136,35*7F
$GPGSV,3,3,12,13,08,330,33,18,04,151,,03,04,269,,23,02,300,*72
$GPRMC,122504.000,A,5333.1979,N,00959.6108,E,1.42,136.20,150912,,,A*6B
$GPGGA,122505.000,5333.1977,N,00959.6113,E,1,08,0.9,-5.6,M,46.0,M,,0000*7E
$GPGSA,A,3,31,21,06,25,05,16,30,29,,,,,1.9,0.9,1.6*3E
$GPRMC,122505.000,A,5333.1977,N,00959.6113,E,1.44,126.49,150912,,,A*66
$GPGGA,122506.000,5333.1974,N,00959.6118,E,1,08,0.9,-5.5,M,46.0,M,,0000*76
$GPGSA,A,3,31,21,06,25,05,16,30,29,,,,,1.9,0.9,1.6*3E
$GPRMC,122506.000,A,5333.1974,N,00959.6118,E,1.38,128.01,150912,,,A*64
$GPGGA,122507.000,5333.1971,N,00959.6123,E,1,08,0.9,-5.5,M,46.0,M,,0000*7A
$GPGSA,A,3,31,21,06,25,05,16,30,29,,,,,1.9,0.9,1.6*3E
$GPRMC,122507.000,A,5333.1971,N,00959.6123,E,1.59,132.73,150912,,,A*61
$GPGGA,122508.000,5333.1969,N,00959.6127,E,1,08,0.9,-5.5,M,46.0,M,,0000*78
$GPGSA,A,3,31,21,06,25,05,16,30,29,,,,,1.9,0.9,1.6*3E
$GPRMC,122508.000,A,5333.1969,N,00959.6127,E,1.24,134.77,150912,,,A*6B
$GPGGA,122509.000,5333.1966,N,00959.6132,E,1,08,0.9,-5.4,M,46.0,M,,0000*73
$GPGSA,A,3,31,21,06,25,05,16,30,29,,,,,1.9,0.9,1.6*3E
$GPGSV,3,1,12,30,64,279,43,21,62,162,38,29,43,079,41,16,36,301,37*78
$GPGSV,3,2,12,31,28,215,41,06,21,265,41,05,20,045,43,25,17,136,35*73
$GPGSV,3,3,12,13,08,330,33,18,04,151,,03,04,269,,23,02,300,*72
$GPRMC,122509.000,A,5333.1966,N,00959.6132,E,1.67,140.02,150912,,,A*67
$GPGGA,122510.000,5333.1963,N,00959.6136,E,1,08,0.9,-5.4,M,46.0,M,,0000*7A
$GPGSA,A,3,31,21,06,25,05,16,30,29,,,,,1.9,0.9,1.6*3E
$GPRMC,122510.000,A,5333.1963,N,00959.6136,E,1.44,141.41,150912,,,A*69
$GPGGA,122511.000,5333.1960,N,00959.6139,E,1,08,0.9,-5.4,M,46.0,M,,0000*77
$GPGSA,A,3,31,21,06,25,05,16,30,29,,,,,1.9,0.9,1.6*3E
$GPRMC,122511.000,A,5333.1960,N,00959.6139,E,1.32,146.69,150912,,,A*68
$GPGGA,122512.000,5333.1958,N,00959.6142,E,1,08,0.9,-5.4,M,46.0,M,,0000*73
$GPGSA,A,3,31,21,06,25,05,16,30,29,,,,,1.9,0.9,1.6*3E
$GPRMC,122512.000,A,5333.1958,N,00959.6142,E,1.22,139.81,150912,,,A*63
$GPGGA,122513.000,5333.1955,N,00959.6144,E,1,08,0.9,-5.3,M,46.0,M,,0000*7E
$GPGSA,A,3,31,21,06,25,05,16,30,29,,,,,1.9,0.9,1.6*3E
$GPRMC,122513.000,A,5333.1955,N,00959.6144,E,1.13,154.17,150912,,,A*6F
$GPGGA,122514.000,5333.1952,N,00959.6146,E,1,08,0.9,-5.3,M,46.0,M,,0000*7C
$GPGSA,A,3,31,21,06,25,05,16,30,29,,,,,1.9,0.9,1.6*3E
$GPGSV,3,1,12,30,64,279,43,21,62,162,38,29,43,079,43,16,36,301,42*78
$GPGSV,3,2,12,31,28,215,40,06,21,265,42,05,20,045,40,25,17,136,42*72
$GPGSV,3,3,12,13,08,330,33,18,04,151,,03,04,269,,23,02,300,*72
$GPRMC,122514.000,A,5333.1952,N,00959.6146,E,1.36,155.59,150912,,,A*61
$GPGGA,122515.000,5333.1951,N,00959.6147,E,1,08,0.9,-5.2,M,46.0,M,,0000*7E
$GPGSA,A,3,31,21,06,25,05,16,30,29,,,,,1.9,0.9,1.6*3E
$GPRMC,122527.000,A,5333.1949,N,00959.6149,E,1.04,166.40,150912,,,A*6D
$GPGGA,122528.000,5333.1946,N,00959.6150,E,1,08,0.9,-4.6,M,46.0,M,,0000*75
$GPGSA,A,3,31,21,06,25,05,16,30,29,,,,,1.9,0.9,1.6*3E
$GPRMC,122528.000,A,5333.1946,N,00959.6150,E,0.99,168.82,150912,,,A*60
$GPGGA,122529.000,5333.1943,N,00959.6150,E,1,08,0.9,-4.6,M,46.0,M,,0000*71
$GPGSA,A,3,31,21,06,25,05,16,30,29,,,,,1.9,0.9,1.6*3E
$GPGSV,3,1,12,30,65,279,45,21,62,161,40,29,43,079,37,16,36,301,45*77
$GPGSV,3,2,12,31,28,215,35,06,21,265,42,05,19,045,37,25,17,136,32*7D
$GPGSV,3,3,12,13,08,330,35,18,04,150,,03,04,269,,23,02,299,*74
$GPRMC,122529.000,A,5333.1943,N,00959.6150,E,1.08,175.42,150912,,,A*6D
$GPGGA,122530.000,5333.1942,N,00959.6150,E,1,08,0.9,-4.5,M,46.0,M,,0000*7B
$GPGSA,A,3,31,21,06,25,05,16,30,29,,,,,1.9,0.9,1.6*3E
$GPRMC,122609.000,A,5333.1942,N,00959.6145,E,0.90,203.98,150912,,,A*6C
$GPGGA,122610.000,5333.1939,N,00959.6142,E,1,08,0.9,-3.4,M,46.0,M,,0000*73
$GPGSA,A,3,31,21,06,25,05,16,30,29,,,,,1.8,0.9,1.6*3F
$GPRMC,122610.000,A,5333.1939,N,00959.6142,E,1.11,209.26,150912,,,A*68
$GPGGA,122611.000,5333.1937,N,00959.6140,E,1,08,0.9,-3.5,M,46.0,M,,0000*7F
$GPGSA,A,3,31,21,06,25,05,16,30,29,,,,,1.8,0.9,1.6*3F
$GPRMC,122640.000,A,5333.1927,N,00959.6136,E,0.96,134.63,150912,,,A*63
$GPGGA,122641.000,5333.1926,N,00959.6140,E,1,08,0.9,-2.4,M,46.0,M,,0000*7A
$GPGSA,A,3,31,21,06,25,05,16,30,29,,,,,1.8,0.9,1.6*3F
$GPRMC,122641.000,A,5333.1926,N,00959.6140,E,1.14,121.41,150912,,,A*6D
$GPGGA,122642.000,5333.1925,N,00959.6144,E,1,08,0.9,-2.5,M,46.0,M,,0000*7F
$GPGSA,A,3,31,21,06,25,05,16,30,29,,,,,1.8,0.9,1.6*3F
$GPRMC,122642.000,A,5333.1925,N,00959.6144,E,0.84,101.49,150912,,,A*6B
$GPGGA,122643.000,5333.1925,N,00959.6147,E,1,08,0.9,-2.5,M,46.0,M,,0000*7D
$GPGSA,A,3,31,21,06,25,05,16,30,29,,,,,1.8,0.9,1.6*3F
$GPRMC,122649.000,A,5333.1921,N,00959.6166,E,0.96,111.01,150912,,,A*6A
$GPGGA,122650.000,5333.1921,N,00959.6169,E,1,08,0.9,-2.7,M,46.0,M,,0000*75
$GPGSA,A,3,31,21,06,25,05,16,30,29,,,,,1.8,0.9,1.6*3F
$GPRMC,122651.000,A,5333.1922,N,00959.6174,E,0.93,74.51,150912,,,A*51
$GPGGA,122652.000,5333.1922,N,00959.6178,E,1,08,0.9,-2.5,M,46.0,M,,0000*76
$GPGSA,A,3,31,21,06,25,05,16,30,29,,,,,1.8,0.9,1.6*3F
$GPRMC,122652.000,A,5333.1922,N,00959.6178,E,0.81,72.58,150912,,,A*52
$GPGGA,122653.000,5333.1920,N,00959.6183,E,1,08,0.9,-2.5,M,46.0,M,,0000*71
$GPGSA,A,3,31,21,06,25,05,16,30,29,,,,,1.8,0.9,1.6*3F
$GPRMC,122653.000,A,5333.1920,N,00959.6183,E,1.25,125.07,150912,,,A*63
$GPGGA,122654.000,5333.1916,N,00959.6189,E,1,08,0.9,-2.4,M,46.0,M,,0000*78
$GPGSA,A,3,31,21,06,25,05,16,30,29,,,,,1.8,0.9,1.6*3F
$GPGSV,3,1,12,30,65,278,43,21,63,161,38,29,43,079,45,16,37,301,35*7D
$GPGSV,3,2,12,31,28,214,44,06,21,266,39,05,19,045,44,25,17,136,30*73
$GPGSV,3,3,12,13,08,330,34,18,04,150,15,03,04,269,,23,01,299,*72
$GPRMC,122654.000,A,5333.1916,N,00959.6189,E,1.50,138.27,150912,,,A*67
$GPGGA,122655.000,5333.1912,N,00959.6195,E,1,08,0.9,-2.4,M,46.0,M,,0000*70
$GPGSA,A,3,31,21,06,25,05,16,30,29,,,,,1.8,0.9,1.6*3F
$GPRMC,122655.000,A,5333.1912,N,00959.6195,E,1.60,139.18,150912,,,A*61
$GPGGA,122656.000,5333.1908,N,00959.6201,E,1,08,0.9,-2.5,M,46.0,M,,0000*77
$GPGSA,A,3,31,21,06,25,05,16,30,29,,,,,1.8,0.9,1.6*3F
$GPRMC,122656.000,A,5333.1908,N,00959.6201,E,1.77,138.26,150912,,,A*6D
$GPGGA,122657.000,5333.1904,N,00959.6206,E,1,08,0.9,-2.6,M,46.0,M,,0000*7E
$GPGSA,A,3,31,21,06,25,05,16,30,29,,,,,1.8,0.9,1.6*3F
$GPRMC,122657.000,A,5333.1904,N,00959.6206,E,1.37,136.51,150912,,,A*6D
$GPGGA,122658.000,5333.1901,N,00959.6211,E,1,08,0.9,-2.7,M,46.0,M,,0000*73
$GPGSA,A,3,31,21,06,25,05,16,30,29,,,,,1.8,0.9,1.6*3F
$GPRMC,122658.000,A,5333.1901,N,00959.6211,E,1.26,137.66,150912,,,A*64
$GPGGA,122659.000,5333.1898,N,00959.6216,E,1,08,0.9,-2.8,M,46.0,M,,0000*7B
$GPGSA,A,3,31,21,06,25,05,16,30,29,,,,,1.8,0.9,1.6*3F
$GPGSV,3,1,12,30,65,278,44,21,63,161,38,29,43,079,45,16,37,301,40*78
$GPGSV,3,2,12,31,28,214,44,06,21,266,42,05,19,045,45,25,17,136,27*78
$GPGSV,3,3,12,13,08,330,31,18,04,150,,03,04,269,,23,01,299,*73
$GPRMC,122659.000,A,5333.1898,N,00959.6216,E,1.43,139.41,150912,,,A*6B
$GPGGA,122700.000,5333.1894,N,00959.6222,E,1,08,0.9,-2.9,M,46.0,M,,0000*7C
$GPGSA,A,3,31,21,06,25,05,16,30,29,,,,,1.8,0.9,1.6*3F
$GPRMC,122700.000,A,5333.1894,N,00959.6222,E,1.61,137.57,150912,,,A*64
$GPGGA,122701.000,5333.1890,N,00959.6227,E,1,08,0.9,-3.1,M,46.0,M,,0000*75
$GPGSA,A,3,31,21,06,25,05,16,30,29,,,,,1.8,0.9,1.6*3F
$GPRMC,122701.000,A,5333.1890,N,00959.6227,E,1.43,139.49,150912,,,A*65
$GPGGA,122702.000,5333.1888,N,00959.6233,E,1,08,0.9,-3.3,M,46.0,M,,0000*78
$GPGSA,A,3,31,21,06,25,05,16,30,29,,,,,1.8,0.9,1.6*3F
$GPRMC,122702.000,A,5333.1888,N,00959.6233,E,1.22,123.79,150912,,,A*65
$GPGGA,122703.000,5333.1885,N,00959.6239,E,1,08,0.9,-3.5,M,46.0,M,,0000*78
$GPGSA,A,3,31,21,06,25,05,16,30,29,,,,,1.8,0.9,1.6*3F
$GPRMC,122703.000,A,5333.1885,N,00959.6239,E,1.57,127.59,150912,,,A*67
$GPGGA,122704.000,5333.1881,N,00959.6243,E,1,08,0.9,-3.8,M,46.0,M,,0000*7B
$GPGSA,A,3,31,21,06,25,05,16,30,29,,,,,1.8,0.9,1.6*3F
$GPGSV,3,1,12,30,65,278,43,21,63,161,26,29,43,079,45,16,37,301,40*70
$GPGSV,3,2,12,31,28,214,41,06,21,266,43,05,19,045,40,25,17,136,27*79
$GPGSV,3,3,12,13,08,330,33,18,04,150,,03,04,269,,23,01,299,*71
$GPRMC,122704.000,A,5333.1881,N,00959.6243,E,1.38,149.05,150912,,,A*61
$GPGGA,122705.000,5333.1877,N,00959.6246,E,1,08,0.9,-4.2,M,46.0,M,,0000*7B
$GPGSA,A,3,31,21,06,25,05,16,30,29,,,,,1.8,0.9,1.6*3F
$GPRMC,122705.000,A,5333.1877,N,00959.6246,E,1.51,157.47,150912,,,A*6A
$GPGGA,122706.000,5333.1872,N,00959.6249,E,1,08,0.9,-4.8,M,46.0,M,,0000*78
$GPGSA,A,3,31,21,06,25,05,16,30,29,,,,,1.8,0.9,1.6*3F
$GPRMC,122706.000,A,5333.1872,N,00959.6249,E,1.68,158.84,150912,,,A*69
$GPGGA,122707.000,5333.1869,N,00959.6254,E,1,08,0.9,-5.2,M,46.0,M,,0000*74
$GPGSA,A,3,31,21,06,25,05,16,30,29,,,,,1.8,0.9,1.6*3F
$GPRMC,122707.000,A,5333.1869,N,00959.6254,E,1.39,141.71,150912,,,A*68
$GPGGA,122708.000,5333.1866,N,00959.6259,E,1,08,0.9,-5.4,M,46.0,M,,0000*7F
$GPGSA,A,3,31,21,06,25,05,16,30,29,,,,,1.8,0.9,1.6*3F
$GPRMC,122708.000,A,5333.1866,N,00959.6259,E,1.66,138.84,150912,,,A*6B
$GPGGA,122709.000,5333.1863,N,00959.6264,E,1,08,0.9,-5.4,M,46.0,M,,0000*75
$GPGSA,A,3,31,21,06,25,05,16,30,29,,,,,1.8,0.9,1.6*3F
$GPGSV,3,1,12,30,65,278,43,21,63,161,23,29,43,079,46,16,37,301,41*77
$GPGSV,3,2,12,31,28,214,24,06,21,266,44,05,19,045,42,25,17,136,34*7D
$GPGSV,3,3,12,13,08,330,31,18,04,150,,03,04,269,,23,01,299,*73
$GPRMC,122709.000,A,5333.1863,N,00959.6264,E,1.45,131.03,150912,,,A*66
$GPGGA,122710.000,5333.1860,N,00959.6270,E,1,08,0.9,-5.4,M,46.0,M,,0000*7B
$GPGSA,A,3,31,21,06,25,05,16,30,29,,,,,1.8,0.9,1.6*3F
$GPRMC,122710.000,A,5333.1860,N,00959.6270,E,1.47,131.48,150912,,,A*65
$GPGGA,122711.000,5333.1857,N,00959.6273,E,1,08,0.9,-5.4,M,46.0,M,,0000*7D
$GPGSA,A,3,31,21,06,25,05,16,30,29,,,,,1.8,0.9,1.6*3F
$GPRMC,122711.000,A,5333.1857,N,00959.6273,E,1.26,144.31,150912,,,A*68
$GPGGA,122712.000,5333.1855,N,00959.6276,E,1,08,0.9,-5.4,M,46.0,M,,0000*79
$GPGSA,A,3,31,21,06,25,05,16,30,29,,,,,1.8,0.9,1.6*3F
$GPRMC,122712.000,A,5333.1855,N,00959.6276,E,1.03,146.20,150912,,,A*69
$GPGGA,122713.000,5333.1852,N,00959.6281,E,1,08,0.9,-5.3,M,46.0,M,,0000*70
$GPGSA,A,3,31,21,06,25,05,16,30,29,,,,,1.8,0.9,1.6*3F
$GPRMC,122713.000,A,5333.1852,N,00959.6281,E,1.32,139.40,150912,,,A*6B
$GPGGA,122714.000,5333.1850,N,00959.6284,E,1,08,0.9,-5.3,M,46.0,M,,0000*70
$GPGSA,A,3,31,21,06,25,05,16,30,29,,,,,1.8,0.9,1.6*3F
$GPGSV,3,1,12,30,65,278,24,21,63,161,23,29,43,079,41,16,37,301,32*75
$GPGSV,3,2,12,31,28,214,18,06,21,266,27,05,19,045,41,25,17,136,39*79
$GPGSV,3,3,12,13,08,330,35,18,04,150,,03,04,269,,23,01,299,*77
$GPRMC,122714.000,A,5333.1850,N,00959.6284,E,1.04,136.80,150912,,,A*6D
$GPGGA,122715.000,5333.1847,N,00959.6289,E,1,08,0.9,-5.3,M,46.0,M,,0000*7A
$GPGSA,A,3,31,21,06,25,05,16,30,29,,,,,1.8,0.9,1.6*3F
$GPRMC,122715.000,A,5333.1847,N,00959.6289,E,1.31,132.17,150912,,,A*6B
$GPGGA,122716.000,5333.1845,N,00959.6294,E,1,08,0.9,-5.2,M,46.0,M,,0000*76
$GPGSA,A,3,31,21,06,25,05,16,30,29,,,,,1.8,0.9,1.6*3F
$GPRMC,122716.000,A,5333.1845,N,00959.6294,E,1.29,134.46,150912,,,A*6D
$GPGGA,122717.000,5333.1842,N,00959.6299,E,1,08,0.9,-5.1,M,46.0,M,,0000*7E
$GPGSA,A,3,31,21,06,25,05,16,30,29,,,,,1.8,0.9,1.6*3F
$GPRMC,122717.000,A,5333.1842,N,00959.6299,E,1.21,130.80,150912,,,A*60
$GPGGA,122718.000,5333.1841,N,00959.6303,E,1,08,0.9,-5.0,M,46.0,M,,0000*71
$GPGSA,A,3,31,21,06,25,05,16,30,29,,,,,1.8,0.9,1.6*3F
$GPRMC,122720.000,A,5333.1838,N,00959.6313,E,0.91,119.11,150912,,,A*63
$GPGGA,122721.000,5333.1836,N,00959.6318,E,1,08,0.9,-4.5,M,46.0,M,,0000*75
$GPGSA,A,3,31,21,06,25,05,16,30,29,,,,,1.8,0.9,1.6*3F
$GPRMC,122721.000,A,5333.1836,N,00959.6318,E,0.82,127.56,150912,,,A*6B
$GPGGA,122722.000,5333.1834,N,00959.6324,E,1,08,0.9,-4.2,M,46.0,M,,0000*7C
$GPGSA,A,3,31,21,06,25,05,16,30,29,,,,,1.8,0.9,1.6*3F
$GPRMC,122723.000,A,5333.1831,N,00959.6330,E,1.19,151.18,150912,,,A*6C
$GPGGA,122724.000,5333.1829,N,00959.6337,E,1,08,0.9,-3.4,M,46.0,M,,0000*75
$GPGSA,A,3,31,21,06,25,05,16,30,29,,,,,1.8,0.9,1.6*3F
$GPGSV,3,1,12,30,65,278,21,21,63,161,22,29,43,079,45,16,37,301,22*74
$GPGSV,3,2,12,31,28,214,25,06,21,266,16,05,19,045,42,25,17,136,35*7A
$GPGSV,3,3,12,13,08,330,34,18,04,150,,03,04,269,22,23,01,299,19*7E
$GPRMC,122724.000,A,5333.1829,N,00959.6337,E,0.99,120.54,150912,,,A*62
$GPGGA,122725.000,5333.1828,N,00959.6342,E,1,08,0.9,-2.9,M,46.0,M,,0000*7B
$GPGSA,A,3,31,21,06,25,05,16,30,29,,,,,1.8,0.9,1.6*3F
$GPRMC,122726.000,A,5333.1825,N,00959.6347,E,1.11,159.13,150912,,,A*67
$GPGGA,122727.000,5333.1823,N,00959.6352,E,1,08,0.9,-1.9,M,46.0,M,,0000*70
$GPGSA,A,3,31,21,06,25,05,16,30,29,,,,,1.8,0.9,1.6*3F
$GPRMC,122727.000,A,5333.1823,N,00959.6352,E,0.97,160.80,150912,,,A*6B
$GPGGA,122728.000,5333.1820,N,00959.6356,E,1,08,0.9,-1.5,M,46.0,M,,0000*74
$GPGSA,A,3,31,21,06,25,05,16,30,29,,,,,1.8,0.9,1.6*3F
$GPRMC,122728.000,A,5333.1820,N,00959.6356,E,0.87,169.00,150912,,,A*63
$GPGGA,122729.000,5333.1818,N,00959.6360,E,1,08,0.9,-1.1,M,46.0,M,,0000*7F
$GPGSA,A,3,31,21,06,25,05,16,30,29,,,,,1.8,0.9,1.6*3F
$GPGSV,3,1,12,30,65,278,21,21,63,161,34,29,43,079,46,16,37,301,21*73
$GPGSV,3,2,12,31,28,214,28,06,21,266,15,05,19,045,42,25,17,136,38*79
$GPGSV,3,3,12,13,08,330,34,18,04,150,,03,04,269,21,23,01,299,18*7C
$GPRMC,122731.000,A,5333.1814,N,00959.6371,E,1.10,143.00,150912,,,A*6E
$GPGGA,122732.000,5333.1812,N,00959.6376,E,1,08,0.9,0.1,M,46.0,M,,0000*54
$GPGSA,A,3,31,21,06,25,05,16,30,29,,,,,1.8,0.9,1.6*3F
$GPRMC,122732.000,A,5333.1812,N,00959.6376,E,0.93,143.96,150912,,,A*69
$GPGGA,122733.000,5333.1809,N,00959.6381,E,1,08,0.9,0.4,M,46.0,M,,0000*52
$GPGSA,A,3,31,21,06,25,05,16,30,29,,,,,1.8,0.9,1.6*3F
$GPRMC,122733.000,A,5333.1809,N,00959.6381,E,1.21,144.73,150912,,,A*6E
$GPGGA,122734.000,5333.1807,N,00959.6385,E,1,08,0.9,0.6,M,46.0,M,,0000*5D
$GPGSA,A,3,31,21,06,25,05,16,30,29,,,,,1.8,0.9,1.6*3F
$GPGSV,3,1,12,30,65,278,42,21,63,161,39,29,43,079,45,16,37,301,22*7B
$GPGSV,3,2,12,31,28,214,40,06,21,266,19,05,19,045,44,25,17,136,38*7D
