$GPGGA,160818.000,6444.5253,N,02344.8512,W,1,12,0.7,34.3,M,61.2,M,,0000*71
$GPGSA,A,3,18,06,11,16,19,15,07,03,22,26,21,08,1.5,0.7,1.4*3B
$GPGSV,3,1,12,19,72,224,30,03,62,131,33,06,49,114,32,08,35,301,33*74
$GPGSV,3,2,12,18,32,064,31,07,30,253,32,22,29,112,28,11,23,223,30*70
$GPGSV,3,3,12,16,21,154,29,26,16,341,20,15,14,020,24,21,10,053,19*7B
$GPRMC,160818.000,A,6444.5253,N,02344.8512,W,39.49,59.31,050912,,,A*70
$GPGGA,160819.000,6444.5309,N,02344.8292,W,1,12,0.7,33.9,M,61.2,M,,0000*7C
$GPGSA,A,3,18,06,11,16,19,15,07,03,22,26,21,08,1.5,0.7,1.4*3B
$GPRMC,160819.000,A,6444.5309,N,02344.8292,W,39.53,59.13,050912,,,A*7B
$GPGGA,160820.000,6444.5365,N,02344.8072,W,1,12,0.7,33.6,M,61.2,M,,0000*7F
$GPGSA,A,3,18,06,11,16,19,15,07,03,22,26,21,08,1.5,0.7,1.4*3B
$GPRMC,160820.000,A,6444.5365,N,02344.8072,W,39.51,59.26,050912,,,A*73
$GPGGA,160821.000,6444.5422,N,02344.7854,W,1,12,0.7,33.5,M,61.2,M,,0000*7A
$GPGSA,A,3,18,06,11,16,19,15,07,03,22,26,21,08,1.5,0.7,1.4*3B
$GPRMC,160821.000,A,6444.5422,N,02344.7854,W,39.35,58.73,050912,,,A*76
$GPGGA,160822.000,6444.5479,N,02344.7637,W,1,12,0.7,33.5,M,61.2,M,,0000*7C
$GPGSA,A,3,18,06,11,16,19,15,07,03,22,26,21,08,1.5,0.7,1.4*3B
$GPRMC,160822.000,A,6444.5479,N,02344.7637,W,39.27,58.17,050912,,,A*71
$GPGGA,160823.000,6444.5537,N,02344.7422,W,1,12,0.7,33.7,M,61.2,M,,0000*72
$GPGSA,A,3,18,06,11,16,19,15,07,03,22,26,21,08,1.5,0.7,1.4*3B
$GPGSV,3,1,12,19,72,224,30,03,62,131,33,06,49,114,31,08,35,301,33*77
$GPGSV,3,2,12,18,32,064,31,07,30,253,36,22,29,112,29,11,23,223,26*72
$GPGSV,3,3,12,16,21,154,29,26,16,341,24,15,14,020,29,21,10,053,26*7E
$GPRMC,160823.000,A,6444.5537,N,02344.7422,W,39.20,57.85,050912,,,A*7E
$GPGGA,160824.000,6444.5594,N,02344.7206,W,1,12,0.7,34.0,M,61.2,M,,0000*7C
$GPGSA,A,3,18,06,11,16,19,15,07,03,22,26,21,08,1.5,0.7,1.4*3B
$GPRMC,160824.000,A,6444.5594,N,02344.7206,W,39.12,58.15,050912,,,A*77
$GPGGA,160825.000,6444.5651,N,02344.6989,W,1,12,0.7,34.4,M,61.2,M,,0000*7E
$GPGSA,A,3,18,06,11,16,19,15,07,03,22,26,21,08,1.5,0.7,1.4*3B
$GPRMC,160825.000,A,6444.5651,N,02344.6989,W,39.34,58.30,050912,,,A*72
$GPGGA,160826.000,6444.5710,N,02344.6771,W,1,12,0.7,34.8,M,61.2,M,,0000*7C
$GPGSA,A,3,18,06,11,16,19,15,07,03,22,26,21,08,1.5,0.7,1.4*3B
$GPRMC,160826.000,A,6444.5710,N,02344.6771,W,39.75,57.60,050912,,,A*73
$GPGGA,160827.000,6444.5770,N,02344.6554,W,1,12,0.7,35.2,M,61.2,M,,0000*75
$GPGSA,A,3,18,06,11,16,19,15,07,03,22,26,21,08,1.5,0.7,1.4*3B
$GPRMC,160827.000,A,6444.5770,N,02344.6554,W,39.78,57.36,050912,,,A*7F
$GPGGA,160828.000,6444.5829,N,02344.6335,W,1,11,0.8,35.6,M,61.2,M,,0000*70
$GPGSA,A,3,18,06,11,16,19,15,07,03,22,21,08,,1.6,0.8,1.4*33
$GPGSV,3,1,12,19,72,224,35,03,62,131,32,06,49,114,26,08,35,301,32*74
$GPGSV,3,2,12,18,32,064,31,07,30,253,36,22,29,112,29,11,23,223,23*77
$GPGSV,3,3,12,16,21,154,35,26,16,341,09,15,14,020,30,21,10,053,25*77
$GPRMC,160828.000,A,6444.5829,N,02344.6335,W,39.80,57.61,050912,,,A*77
$GPGGA,160829.000,6444.5887,N,02344.6116,W,1,11,0.8,35.9,M,61.2,M,,0000*79
$GPGSA,A,3,18,06,11,16,19,15,07,03,22,21,08,,1.6,0.8,1.4*33
$GPRMC,160829.000,A,6444.5887,N,02344.6116,W,39.89,57.74,050912,,,A*7C
$GPGGA,160830.000,6444.5946,N,02344.5896,W,1,11,0.8,36.2,M,61.2,M,,0000*77
$GPGSA,A,3,18,06,11,16,19,15,07,03,22,21,08,,1.6,0.8,1.4*33
$GPRMC,160830.000,A,6444.5946,N,02344.5896,W,40.07,57.79,050912,,,A*7F
$GPGGA,160831.000,6444.6006,N,02344.5677,W,1,11,0.8,36.4,M,61.2,M,,0000*7F
$GPGSA,A,3,18,06,11,16,19,15,07,03,22,21,08,,1.6,0.8,1.4*33
$GPRMC,160831.000,A,6444.6006,N,02344.5677,W,40.05,57.26,050912,,,A*79
$GPGGA,160832.000,6444.6066,N,02344.5460,W,1,11,0.8,36.7,M,61.2,M,,0000*7D
$GPGSA,A,3,18,06,11,16,19,15,07,03,22,21,08,,1.6,0.8,1.4*33
$GPRMC,160832.000,A,6444.6066,N,02344.5460,W,40.00,56.89,050912,,,A*79
$GPGGA,160833.000,6444.6127,N,02344.5242,W,1,11,0.8,36.9,M,61.2,M,,0000*70
$GPGSA,A,3,18,06,11,16,19,15,07,03,22,21,08,,1.6,0.8,1.4*33
$GPGSV,3,1,12,19,72,224,25,03,62,131,27,06,49,114,26,08,35,301,33*70
$GPGSV,3,2,12,18,32,064,32,07,30,253,33,22,29,112,35,11,23,223,24*7B
$GPGSV,3,3,12,16,21,154,34,26,16,341,,15,14,020,30,21,10,053,30*7B
$GPRMC,160833.000,A,6444.6127,N,02344.5242,W,40.09,56.79,050912,,,A*7C
$GPGGA,160834.000,6444.6187,N,02344.5024,W,1,12,0.7,37.1,M,61.2,M,,0000*7A
$GPGSA,A,3,18,06,11,16,19,15,07,03,22,26,21,08,1.5,0.7,1.4*3B
$GPRMC,160834.000,A,6444.6187,N,02344.5024,W,40.14,56.89,050912,,,A*70
$GPGGA,160835.000,6444.6248,N,02344.4807,W,1,12,0.7,37.3,M,61.2,M,,0000*71
$GPGSA,A,3,18,06,11,16,19,15,07,03,22,26,21,08,1.5,0.7,1.4*3B
$GPRMC,160835.000,A,6444.6248,N,02344.4807,W,39.99,56.91,050912,,,A*7B
$GPGGA,160836.000,6444.6307,N,02344.4590,W,1,12,0.7,37.5,M,61.2,M,,0000*7D
$GPGSA,A,3,18,06,11,16,19,15,07,03,22,26,21,08,1.5,0.7,1.4*3B
$GPRMC,160836.000,A,6444.6307,N,02344.4590,W,39.90,57.11,050912,,,A*71
$GPGGA,160837.000,6444.6367,N,02344.4373,W,1,12,0.7,37.7,M,61.2,M,,0000*73
$GPGSA,A,3,18,06,11,16,19,15,07,03,22,26,21,08,1.5,0.7,1.4*3B
$GPRMC,160837.000,A,6444.6367,N,02344.4373,W,39.83,57.07,050912,,,A*78
$GPGGA,160838.000,6444.6427,N,02344.4156,W,1,12,0.7,38.0,M,61.2,M,,0000*72
$GPGSA,A,3,18,06,11,16,19,15,07,03,22,26,21,08,1.5,0.7,1.4*3B
$GPGSV,3,1,12,19,72,224,34,03,62,131,27,06,49,114,25,08,35,301,27*76
$GPGSV,3,2,12,18,32,064,32,07,30,253,33,22,29,112,34,11,23,223,16*7B
$GPGSV,3,3,12,16,21,154,34,26,16,341,26,15,14,020,31,21,10,053,28*77
$GPRMC,160838.000,A,6444.6427,N,02344.4156,W,39.84,57.15,050912,,,A*75
$GPGGA,160839.000,6444.6486,N,02344.3938,W,1,12,0.7,38.3,M,61.2,M,,0000*7C
$GPGSA,A,3,18,06,11,16,19,15,07,03,22,26,21,08,1.5,0.7,1.4*3B
$GPRMC,160839.000,A,6444.6486,N,02344.3938,W,39.87,57.41,050912,,,A*7A
$GPGGA,160840.000,6444.6545,N,02344.3720,W,1,12,0.7,38.7,M,61.2,M,,0000*7F
$GPGSA,A,3,18,06,11,16,19,15,07,03,22,26,21,08,1.5,0.7,1.4*3B
$GPRMC,160840.000,A,6444.6545,N,02344.3720,W,39.98,57.51,050912,,,A*72
$GPGGA,160841.000,6444.6604,N,02344.3502,W,1,12,0.7,39.2,M,61.2,M,,0000*7E
$GPGSA,A,3,18,06,11,16,19,15,07,03,22,26,21,08,1.5,0.7,1.4*3B
$GPRMC,160841.000,A,6444.6604,N,02344.3502,W,39.90,57.34,050912,,,A*7C
$GPGGA,160842.000,6444.6663,N,02344.3285,W,1,12,0.7,39.6,M,61.2,M,,0000*70
$GPGSA,A,3,18,06,11,16,19,15,07,03,22,26,21,08,1.5,0.7,1.4*3B
$GPRMC,160842.000,A,6444.6663,N,02344.3285,W,39.75,57.34,050912,,,A*7D
$GPGGA,160843.000,6444.6722,N,02344.3066,W,1,12,0.7,40.1,M,61.2,M,,0000*73
$GPGSA,A,3,18,06,11,16,19,15,07,03,22,26,21,08,1.5,0.7,1.4*3B
$GPGSV,3,1,12,19,72,223,35,03,62,131,26,06,49,114,26,08,35,301,25*70
$GPGSV,3,2,12,18,32,063,30,22,30,112,33,07,29,253,33,11,23,223,20*7C
$GPGSV,3,3,12,16,21,154,35,26,16,341,21,15,15,020,32,21,09,053,27*74
$GPRMC,160843.000,A,6444.6722,N,02344.3066,W,40.07,57.68,050912,,,A*75
$GPGGA,160844.000,6444.6781,N,02344.2846,W,1,12,0.7,40.5,M,61.2,M,,0000*72
$GPGSA,A,3,18,06,11,16,19,15,07,03,22,26,21,08,1.5,0.7,1.4*3B
$GPRMC,160844.000,A,6444.6781,N,02344.2846,W,40.16,57.61,050912,,,A*79
$GPGGA,160845.000,6444.6841,N,02344.2628,W,1,12,0.7,41.0,M,61.2,M,,0000*72
$GPGSA,A,3,18,06,11,16,19,15,07,03,22,26,21,08,1.5,0.7,1.4*3B
$GPRMC,160845.000,A,6444.6841,N,02344.2628,W,40.10,57.11,050912,,,A*7C
$GPGGA,160846.000,6444.6901,N,02344.2410,W,1,12,0.7,41.4,M,61.2,M,,0000*79
$GPGSA,A,3,18,06,11,16,19,15,07,03,22,26,21,08,1.5,0.7,1.4*3B
$GPRMC,160846.000,A,6444.6901,N,02344.2410,W,40.02,57.29,050912,,,A*7B
$GPGGA,160847.000,6444.6960,N,02344.2193,W,1,12,0.7,41.8,M,61.2,M,,0000*7D
$GPGSA,A,3,18,06,11,16,19,15,07,03,22,26,21,08,1.5,0.7,1.4*3B
$GPRMC,160847.000,A,6444.6960,N,02344.2193,W,39.98,57.22,050912,,,A*75
$GPGGA,160848.000,6444.7019,N,02344.1974,W,1,12,0.7,42.2,M,61.2,M,,0000*7F
$GPGSA,A,3,18,06,11,16,19,15,07,03,22,26,21,08,1.5,0.7,1.4*3B
$GPGSV,3,1,12,19,72,223,34,03,62,131,26,06,49,114,26,08,35,301,25*71
$GPGSV,3,2,12,18,32,063,32,22,30,112,33,07,29,253,33,11,23,223,21*7F
$GPGSV,3,3,12,16,21,154,35,26,16,341,23,15,15,020,32,21,09,053,27*76
$GPRMC,160848.000,A,6444.7019,N,02344.1974,W,40.15,57.47,050912,,,A*76
$GPGGA,160849.000,6444.7079,N,02344.1755,W,1,12,0.7,42.5,M,61.2,M,,0000*72
$GPGSA,A,3,18,06,11,16,19,15,07,03,22,26,21,08,1.5,0.7,1.4*3B
$GPRMC,160849.000,A,6444.7079,N,02344.1755,W,40.19,57.25,050912,,,A*74
$GPGGA,160850.000,6444.7139,N,02344.1537,W,1,12,0.7,42.9,M,61.2,M,,0000*75
$GPGSA,A,3,18,06,11,16,19,15,07,03,22,26,21,08,1.5,0.7,1.4*3B
$GPRMC,160850.000,A,6444.7139,N,02344.1537,W,40.27,56.74,050912,,,A*77
$GPGGA,160851.000,6444.7200,N,02344.1319,W,1,12,0.7,43.3,M,61.2,M,,0000*7C
$GPGSA,A,3,18,06,11,16,19,15,07,03,22,26,21,08,1.5,0.7,1.4*3B
$GPRMC,160851.000,A,6444.7200,N,02344.1319,W,40.33,56.87,050912,,,A*7C
$GPGGA,160852.000,6444.7260,N,02344.1101,W,1,11,0.9,43.5,M,61.2,M,,0000*79
$GPGSA,A,3,18,06,11,19,15,07,03,22,26,21,08,,1.8,0.9,1.5*3E
$GPRMC,160852.000,A,6444.7260,N,02344.1101,W,40.26,56.89,050912,,,A*78
$GPGGA,160853.000,6444.7321,N,02344.0882,W,1,12,0.7,43.7,M,61.2,M,,0000*70
$GPGSA,A,3,18,06,11,16,19,15,07,03,22,26,21,08,1.5,0.7,1.4*3B
$GPGSV,3,1,12,19,72,223,31,03,62,131,30,06,49,114,36,08,35,301,38*7E
$GPGSV,3,2,12,18,32,063,43,22,30,112,37,07,29,253,33,11,23,223,29*75
$GPGSV,3,3,12,16,21,154,33,26,16,341,41,15,15,020,37,21,09,053,33*74
$GPRMC,160853.000,A,6444.7321,N,02344.0882,W,40.45,56.79,050912,,,A*74
$GPGGA,160854.000,6444.7382,N,02344.0666,W,1,12,0.7,44.0,M,61.2,M,,0000*7A
$GPGSA,A,3,18,06,11,16,19,15,07,03,22,26,21,08,1.5,0.7,1.4*3B
$GPRMC,160854.000,A,6444.7382,N,02344.0666,W,39.95,57.00,050912,,,A*72
$GPGGA,160855.000,6444.7442,N,02344.0448,W,1,12,0.7,44.4,M,61.2,M,,0000*7A
$GPGSA,A,3,18,06,11,16,19,15,07,03,22,26,21,08,1.5,0.7,1.4*3B
$GPRMC,160855.000,A,6444.7442,N,02344.0448,W,40.17,57.23,050912,,,A*73
$GPGGA,160856.000,6444.7502,N,02344.0231,W,1,11,0.8,44.7,M,61.2,M,,0000*7B
$GPGSA,A,3,18,06,11,16,19,15,07,22,26,21,08,,1.7,0.8,1.5*34
$GPRMC,160856.000,A,6444.7502,N,02344.0231,W,40.05,57.15,050912,,,A*7B
$GPGGA,160857.000,6444.7562,N,02344.0014,W,1,11,0.8,45.1,M,61.2,M,,0000*7E
$GPGSA,A,3,18,06,11,16,19,15,07,22,26,21,08,,1.7,0.8,1.5*34
$GPRMC,160857.000,A,6444.7562,N,02344.0014,W,39.97,57.30,050912,,,A*7B
$GPGGA,160858.000,6444.7623,N,02343.9799,W,1,11,0.8,45.5,M,61.2,M,,0000*7F
$GPGSA,A,3,18,06,11,16,19,15,07,22,26,21,08,,1.7,0.8,1.5*34
$GPGSV,3,1,12,19,72,223,28,03,62,131,,06,49,114,36,08,35,301,38*75
$GPGSV,3,2,12,18,32,063,25,22,30,112,35,07,29,253,24,11,23,223,30*79
$GPGSV,3,3,12,16,21,154,32,26,16,341,34,15,15,020,30,21,09,053,20*72
$GPRMC,160858.000,A,6444.7623,N,02343.9799,W,39.81,56.98,050912,,,A*7A
$GPGGA,160859.000,6444.7683,N,02343.9583,W,1,11,0.8,45.9,M,61.2,M,,0000*71
$GPGSA,A,3,18,06,11,16,19,15,07,22,26,21,08,,1.7,0.8,1.5*34
$GPRMC,160859.000,A,6444.7683,N,02343.9583,W,39.90,56.87,050912,,,A*76
$GPGGA,160900.000,6444.7744,N,02343.9365,W,1,11,0.8,46.3,M,61.2,M,,0000*71
$GPGSA,A,3,18,06,11,16,19,15,07,22,26,21,08,,1.7,0.8,1.5*34
$GPRMC,160900.000,A,6444.7744,N,02343.9365,W,40.19,57.18,050912,,,A*77
$GPGGA,160901.000,6444.7805,N,02343.9149,W,1,11,0.8,46.8,M,61.2,M,,0000*7D
$GPGSA,A,3,18,06,11,16,19,15,07,22,26,21,08,,1.7,0.8,1.5*34
$GPRMC,160901.000,A,6444.7805,N,02343.9149,W,40.02,56.89,050912,,,A*73
$GPGGA,160902.000,6444.7866,N,02343.8933,W,1,12,0.7,47.3,M,61.2,M,,0000*79
$GPGSA,A,3,18,06,11,16,19,15,07,03,22,26,21,08,1.5,0.7,1.4*3B
$GPRMC,160902.000,A,6444.7866,N,02343.8933,W,39.98,57.11,050912,,,A*7C
$GPGGA,160903.000,6444.7926,N,02343.8716,W,1,12,0.7,47.9,M,61.2,M,,0000*7E
$GPGSA,A,3,18,06,11,16,19,15,07,03,22,26,21,08,1.5,0.7,1.4*3B
$GPGSV,3,1,12,19,72,223,18,03,62,131,33,06,49,114,36,08,35,301,33*7D
$GPGSV,3,2,12,18,32,063,26,22,30,112,35,07,29,253,27,11,23,223,23*7B
$GPGSV,3,3,12,16,21,154,27,26,16,341,27,15,15,020,30,21,09,053,20*74
$GPRMC,160903.000,A,6444.7926,N,02343.8716,W,39.94,57.15,050912,,,A*79
$GPGGA,160904.000,6444.7986,N,02343.8499,W,1,12,0.7,48.4,M,61.2,M,,0000*75
$GPGSA,A,3,18,06,11,16,19,15,07,03,22,26,21,08,1.5,0.7,1.4*3B
$GPRMC,160904.000,A,6444.7986,N,02343.8499,W,39.81,57.32,050912,,,A*71
$GPGGA,160905.000,6444.8046,N,02343.8283,W,1,12,0.7,48.9,M,61.2,M,,0000*7E
$GPGSA,A,3,18,06,11,16,19,15,07,03,22,26,21,08,1.5,0.7,1.4*3B
$GPRMC,160905.000,A,6444.8046,N,02343.8283,W,39.71,57.36,050912,,,A*7C
$GPGGA,160906.000,6444.8105,N,02343.8068,W,1,12,0.7,49.4,M,61.2,M,,0000*70
$GPGSA,A,3,18,06,11,16,19,15,07,03,22,26,21,08,1.5,0.7,1.4*3B
$GPRMC,160906.000,A,6444.8105,N,02343.8068,W,39.58,57.21,050912,,,A*73
$GPGGA,160907.000,6444.8165,N,02343.7851,W,1,12,0.7,49.8,M,61.2,M,,0000*76
$GPGSA,A,3,18,06,11,16,19,15,07,03,22,26,21,08,1.5,0.7,1.4*3B
$GPRMC,160907.000,A,6444.8165,N,02343.7851,W,39.84,57.22,050912,,,A*7B
$GPGGA,160908.000,6444.8226,N,02343.7634,W,1,12,0.7,50.1,M,61.2,M,,0000*71
$GPGSA,A,3,18,06,11,16,19,15,07,03,22,26,21,08,1.5,0.7,1.4*3B
$GPGSV,3,1,12,19,72,223,20,03,62,131,29,06,49,114,29,08,35,301,36*76
$GPGSV,3,2,12,18,32,063,36,22,30,112,26,07,29,253,27,11,23,223,17*7F
$GPGSV,3,3,12,16,21,154,21,26,16,341,22,15,15,020,31,21,09,053,21*77
$GPRMC,160908.000,A,6444.8226,N,02343.7634,W,40.07,57.20,050912,,,A*7A
$GPGGA,160909.000,6444.8285,N,02343.7416,W,1,12,0.7,50.3,M,61.2,M,,0000*79
$GPGSA,A,3,18,06,11,16,19,15,07,03,22,26,21,08,1.5,0.7,1.4*3B
$GPRMC,160909.000,A,6444.8285,N,02343.7416,W,39.88,57.44,050912,,,A*7B
$GPGGA,160910.000,6444.8345,N,02343.7199,W,1,12,0.7,50.6,M,61.2,M,,0000*7B
$GPGSA,A,3,18,06,11,16,19,15,07,03,22,26,21,08,1.5,0.7,1.4*3B
$GPRMC,160910.000,A,6444.8345,N,02343.7199,W,39.97,57.11,050912,,,A*72
$GPGGA,160911.000,6444.8406,N,02343.6981,W,1,12,0.7,50.8,M,61.2,M,,0000*74
$GPGSA,A,3,18,06,11,16,19,15,07,03,22,26,21,08,1.5,0.7,1.4*3B
$GPRMC,160911.000,A,6444.8406,N,02343.6981,W,40.14,57.18,050912,,,A*7F
$GPGGA,160912.000,6444.8466,N,02343.6763,W,1,12,0.7,51.1,M,61.2,M,,0000*7B
$GPGSA,A,3,18,06,11,16,19,15,07,03,22,26,21,08,1.5,0.7,1.4*3B
$GPRMC,160912.000,A,6444.8466,N,02343.6763,W,40.12,57.29,050912,,,A*7C
$GPGGA,160913.000,6444.8526,N,02343.6545,W,1,12,0.7,51.4,M,61.2,M,,0000*7C
$GPGSA,A,3,18,06,11,16,19,15,07,03,22,26,21,08,1.5,0.7,1.4*3B
$GPGSV,3,1,12,19,72,223,26,03,62,131,31,06,49,114,29,08,35,301,35*7A
$GPGSV,3,2,12,18,32,063,35,22,30,112,35,07,29,253,27,11,23,223,17*7E
$GPGSV,3,3,12,16,21,154,24,26,16,341,25,15,15,020,21,21,09,053,21*74
$GPRMC,160913.000,A,6444.8526,N,02343.6545,W,40.13,57.20,050912,,,A*76
$GPGGA,160914.000,6444.8587,N,02343.6327,W,1,12,0.7,51.6,M,61.2,M,,0000*70
$GPGSA,A,3,18,06,11,16,19,15,07,03,22,26,21,08,1.5,0.7,1.4*3B
$GPRMC,160914.000,A,6444.8587,N,02343.6327,W,40.27,56.78,050912,,,A*73
$GPGGA,160915.000,6444.8648,N,02343.6110,W,1,12,0.7,51.9,M,61.2,M,,0000*78
$GPGSA,A,3,18,06,11,16,19,15,07,03,22,26,21,08,1.5,0.7,1.4*3B
$GPRMC,160915.000,A,6444.8648,N,02343.6110,W,40.14,56.58,050912,,,A*76
$GPGGA,160916.000,6444.8709,N,02343.5893,W,1,12,0.7,52.2,M,61.2,M,,0000*76
$GPGSA,A,3,18,06,11,16,19,15,07,03,22,26,21,08,1.5,0.7,1.4*3B
$GPRMC,160916.000,A,6444.8709,N,02343.5893,W,40.14,56.78,050912,,,A*72
$GPGGA,160917.000,6444.8769,N,02343.5675,W,1,12,0.7,52.4,M,61.2,M,,0000*71
$GPGSA,A,3,18,06,11,16,19,15,07,03,22,26,21,08,1.5,0.7,1.4*3B
$GPRMC,160917.000,A,6444.8769,N,02343.5675,W,39.95,57.24,050912,,,A*7C
$GPGGA,160918.000,6444.8829,N,02343.5458,W,1,12,0.7,52.5,M,61.2,M,,0000*79
$GPGSA,A,3,18,06,11,16,19,15,07,03,22,26,21,08,1.5,0.7,1.4*3B
$GPGSV,3,1,12,19,72,223,28,03,62,131,31,06,49,114,35,08,35,301,35*79
$GPGSV,3,2,12,18,32,063,37,22,30,112,37,07,29,253,26,11,23,223,24*7F
$GPGSV,3,3,12,16,21,154,24,26,16,341,26,15,15,019,23,21,09,053,21*7F
$GPRMC,160918.000,A,6444.8829,N,02343.5458,W,40.04,57.21,050912,,,A*76
$GPGGA,160919.000,6444.8889,N,02343.5242,W,1,12,0.7,52.7,M,61.2,M,,0000*7D
$GPGSA,A,3,18,06,11,16,19,15,07,03,22,26,21,08,1.5,0.7,1.4*3B
$GPRMC,160919.000,A,6444.8889,N,02343.5242,W,39.82,57.01,050912,,,A*72
$GPGGA,160920.000,6444.8949,N,02343.5026,W,1,12,0.7,52.8,M,61.2,M,,0000*75
$GPGSA,A,3,18,06,11,16,19,15,07,03,22,26,21,08,1.5,0.7,1.4*3B
$GPRMC,160920.000,A,6444.8949,N,02343.5026,W,39.81,56.64,050912,,,A*74
$GPGGA,160921.000,6444.9011,N,02343.4811,W,1,12,0.7,52.9,M,61.2,M,,0000*7D
$GPGSA,A,3,18,06,11,16,19,15,07,03,22,26,21,08,1.5,0.7,1.4*3B
$GPRMC,160921.000,A,6444.9011,N,02343.4811,W,40.04,56.28,050912,,,A*76
$GPGGA,160922.000,6444.9072,N,02343.4595,W,1,12,0.7,53.1,M,61.2,M,,0000*73
$GPGSA,A,3,18,06,11,16,19,15,07,03,22,26,21,08,1.5,0.7,1.4*3B
$GPRMC,160922.000,A,6444.9072,N,02343.4595,W,40.10,56.46,050912,,,A*7C
$GPGGA,160923.000,6444.9132,N,02343.4379,W,1,12,0.7,53.3,M,61.2,M,,0000*71
$GPGSA,A,3,18,06,11,16,19,15,07,03,22,26,21,08,1.5,0.7,1.4*3B
$GPGSV,3,1,12,19,72,223,20,03,62,131,26,06,49,114,30,08,35,301,35*72
$GPGSV,3,2,12,18,32,063,37,22,30,112,31,07,29,253,25,11,23,223,23*7D
$GPGSV,3,3,12,16,21,154,19,26,16,341,25,15,15,019,29,21,09,053,20*79
$GPRMC,160923.000,A,6444.9132,N,02343.4379,W,39.70,57.09,050912,,,A*7E
$GPGGA,160924.000,6444.9190,N,02343.4162,W,1,12,0.7,53.3,M,61.2,M,,0000*76
$GPGSA,A,3,18,06,11,16,19,15,07,03,22,26,21,08,1.5,0.7,1.4*3B
$GPRMC,160924.000,A,6444.9190,N,02343.4162,W,39.69,57.70,050912,,,A*7F
$GPGGA,160925.000,6444.9250,N,02343.3944,W,1,11,0.8,53.2,M,61.2,M,,0000*7E
$GPGSA,A,3,18,06,11,16,19,07,03,22,26,21,08,,1.6,0.8,1.4*33
$GPRMC,160925.000,A,6444.9250,N,02343.3944,W,39.93,57.33,050912,,,A*78
$GPGGA,160926.000,6444.9306,N,02343.3730,W,1,12,0.7,53.1,M,61.2,M,,0000*7D
$GPGSA,A,3,18,06,11,16,19,15,07,03,22,26,21,08,1.5,0.7,1.4*3B
$GPRMC,160926.000,A,6444.9306,N,02343.3730,W,38.87,58.34,050912,,,A*78
$GPGGA,160927.000,6444.9366,N,02343.3514,W,1,12,0.7,53.1,M,61.2,M,,0000*7E
$GPGSA,A,3,18,06,11,16,19,15,07,03,22,26,21,08,1.5,0.7,1.4*3B
$GPRMC,160927.000,A,6444.9366,N,02343.3514,W,39.82,57.13,050912,,,A*75
$GPGGA,160928.000,6444.9426,N,02343.3297,W,1,12,0.7,53.1,M,61.2,M,,0000*7E
$GPGSA,A,3,18,06,11,16,19,15,07,03,22,26,21,08,1.5,0.7,1.4*3B
$GPGSV,3,1,12,19,72,223,35,03,62,131,39,06,49,114,40,08,35,301,35*7F
$GPGSV,3,2,12,18,32,063,37,22,30,112,41,07,29,253,36,11,23,223,24*7F
$GPGSV,3,3,12,16,21,154,33,26,16,341,35,15,15,019,36,21,09,053,31*7E
$GPRMC,160928.000,A,6444.9426,N,02343.3297,W,39.83,57.16,050912,,,A*71
$GPGGA,160929.000,6444.9485,N,02343.3080,W,1,12,0.7,53.1,M,61.2,M,,0000*72
$GPGSA,A,3,18,06,11,16,19,15,07,03,22,26,21,08,1.5,0.7,1.4*3B
$GPRMC,160929.000,A,6444.9485,N,02343.3080,W,39.83,57.41,050912,,,A*7F
$GPGGA,160930.000,6444.9544,N,02343.2863,W,1,12,0.7,53.1,M,61.2,M,,0000*72
$GPGSA,A,3,18,06,11,16,19,15,07,03,22,26,21,08,1.5,0.7,1.4*3B
$GPRMC,160930.000,A,6444.9544,N,02343.2863,W,39.71,57.50,050912,,,A*72
$GPGGA,160931.000,6444.9603,N,02343.2648,W,1,12,0.7,53.2,M,61.2,M,,0000*77
$GPGSA,A,3,18,06,11,16,19,15,07,03,22,26,21,08,1.5,0.7,1.4*3B
$GPRMC,160931.000,A,6444.9603,N,02343.2648,W,39.60,57.34,050912,,,A*76
$GPGGA,160932.000,6444.9662,N,02343.2432,W,1,12,0.7,53.3,M,61.2,M,,0000*7D
$GPGSA,A,3,18,06,11,16,19,15,07,03,22,26,21,08,1.5,0.7,1.4*3B
$GPRMC,160932.000,A,6444.9662,N,02343.2432,W,39.57,57.21,050912,,,A*7D
$GPGGA,160933.000,6444.9721,N,02343.2217,W,1,11,0.8,53.4,M,61.2,M,,0000*70
$GPGSA,A,3,18,06,11,16,19,15,07,03,22,21,08,,1.6,0.8,1.4*33
$GPGSV,3,1,12,19,72,223,37,03,62,131,39,06,49,114,40,08,35,301,42*7D
$GPGSV,3,2,12,18,32,063,37,22,30,112,40,07,29,253,36,11,23,223,24*7E
$GPGSV,3,3,12,16,21,154,37,26,16,341,,15,15,019,39,21,09,053,31*73
$GPRMC,160933.000,A,6444.9721,N,02343.2217,W,39.62,57.30,050912,,,A*7D
$GPGGA,160934.000,6444.9780,N,02343.2001,W,1,12,0.7,53.5,M,61.2,M,,0000*74
$GPGSA,A,3,18,06,11,16,19,15,07,03,22,26,21,08,1.5,0.7,1.4*3B
$GPRMC,160934.000,A,6444.9780,N,02343.2001,W,39.63,57.26,050912,,,A*72
$GPGGA,160935.000,6444.9840,N,02343.1786,W,1,12,0.7,53.6,M,61.2,M,,0000*7E
$GPGSA,A,3,18,06,11,16,19,15,07,03,22,26,21,08,1.5,0.7,1.4*3B
$GPRMC,160935.000,A,6444.9840,N,02343.1786,W,39.67,57.02,050912,,,A*79
$GPGGA,160936.000,6444.9899,N,02343.1571,W,1,12,0.7,53.7,M,61.2,M,,0000*72
$GPGSA,A,3,18,06,11,16,19,15,07,03,22,26,21,08,1.5,0.7,1.4*3B
$GPRMC,160936.000,A,6444.9899,N,02343.1571,W,39.62,56.96,050912,,,A*7D
$GPGGA,160937.000,6444.9959,N,02343.1356,W,1,12,0.7,53.9,M,61.2,M,,0000*73
$GPGSA,A,3,18,06,11,16,19,15,07,03,22,26,21,08,1.5,0.7,1.4*3B
$GPRMC,160937.000,A,6444.9959,N,02343.1356,W,39.64,56.77,050912,,,A*7B
$GPGGA,160938.000,6445.0019,N,02343.1142,W,1,11,0.8,54.1,M,61.2,M,,0000*7D
$GPGSA,A,3,18,06,11,16,19,15,07,03,22,26,08,,1.7,0.8,1.5*34
$GPGSV,3,1,12,19,72,223,37,03,62,131,39,06,49,114,40,08,35,301,41*7E
$GPGSV,3,2,12,18,32,063,32,22,30,112,40,07,29,253,36,11,23,223,22*7D
$GPGSV,3,3,12,16,21,154,36,26,16,341,37,15,15,019,39,21,09,053,31*76
$GPRMC,160938.000,A,6445.0019,N,02343.1142,W,39.54,56.86,050912,,,A*7B
$GPGGA,160939.000,6445.0078,N,02343.0926,W,1,11,0.8,54.4,M,61.2,M,,0000*75
$GPGSA,A,3,18,06,11,16,19,15,07,03,22,26,08,,1.7,0.8,1.5*34
$GPRMC,160939.000,A,6445.0078,N,02343.0926,W,39.45,57.49,050912,,,A*74
$GPGGA,160940.000,6445.0136,N,02343.0710,W,1,11,0.8,54.7,M,61.2,M,,0000*78
$GPGSA,A,3,18,06,11,16,19,15,07,03,22,26,08,,1.7,0.8,1.5*34
$GPRMC,160940.000,A,6445.0136,N,02343.0710,W,39.42,57.86,050912,,,A*7E
$GPGGA,160941.000,6445.0194,N,02343.0495,W,1,11,0.8,55.1,M,61.2,M,,0000*78
$GPGSA,A,3,18,06,11,16,19,15,07,03,22,26,08,,1.7,0.8,1.5*34
$GPRMC,160941.000,A,6445.0194,N,02343.0495,W,39.31,57.51,050912,,,A*77
$GPGGA,160942.000,6445.0253,N,02343.0280,W,1,11,0.8,55.5,M,61.2,M,,0000*75
$GPGSA,A,3,18,06,11,16,19,15,07,03,22,26,08,,1.7,0.8,1.5*34
$GPRMC,160942.000,A,6445.0253,N,02343.0280,W,39.35,57.49,050912,,,A*73
$GPGGA,160943.000,6445.0311,N,02343.0067,W,1,11,0.8,55.9,M,61.2,M,,0000*74
$GPGSA,A,3,18,06,11,16,19,15,07,03,22,26,08,,1.7,0.8,1.5*34
$GPGSV,3,1,12,19,72,222,31,03,62,131,39,06,49,114,40,08,35,301,36*79
$GPGSV,3,2,12,18,32,063,30,22,30,112,35,07,29,253,36,11,24,223,23*7B
$GPGSV,3,3,12,16,21,154,35,26,16,341,30,15,15,019,39,21,09,053,28*7A
$GPRMC,160943.000,A,6445.0311,N,02343.0067,W,39.30,57.18,050912,,,A*7F
$GPGGA,160944.000,6445.0371,N,02342.9849,W,1,11,0.8,56.3,M,61.2,M,,0000*70
$GPGSA,A,3,18,06,11,16,19,15,07,03,22,26,08,,1.7,0.8,1.5*34
$GPRMC,160944.000,A,6445.0371,N,02342.9849,W,39.83,57.43,050912,,,A*74
$GPGGA,160945.000,6445.0431,N,02342.9632,W,1,11,0.8,56.5,M,61.2,M,,0000*76
$GPGSA,A,3,18,06,11,16,19,15,07,03,22,26,08,,1.7,0.8,1.5*34
$GPRMC,160945.000,A,6445.0431,N,02342.9632,W,39.97,56.96,050912,,,A*78
$GPGGA,160946.000,6445.0491,N,02342.9414,W,1,11,0.8,56.7,M,61.2,M,,0000*7B
$GPGSA,A,3,18,06,11,16,19,15,07,03,22,26,08,,1.7,0.8,1.5*34
$GPRMC,160946.000,A,6445.0491,N,02342.9414,W,40.07,57.02,050912,,,A*7C
$GPGGA,160947.000,6445.0551,N,02342.9195,W,1,11,0.8,56.7,M,61.2,M,,0000*7B
$GPGSA,A,3,18,06,11,16,19,15,07,03,22,26,08,,1.7,0.8,1.5*34
$GPRMC,160947.000,A,6445.0551,N,02342.9195,W,40.17,57.41,050912,,,A*7A
$GPGGA,160948.000,6445.0611,N,02342.8976,W,1,11,0.8,56.7,M,61.2,M,,0000*77
$GPGSA,A,3,18,06,11,16,19,15,07,03,22,26,08,,1.7,0.8,1.5*34
$GPGSV,3,1,12,19,72,222,37,03,62,131,36,06,49,114,41,08,35,300,33*75
$GPGSV,3,2,12,18,32,063,42,22,30,112,39,07,29,253,37,11,24,223,26*76
$GPGSV,3,3,12,16,21,154,32,26,16,341,29,15,15,019,32,21,09,053,38*7F
$GPRMC,160948.000,A,6445.0611,N,02342.8976,W,40.18,57.35,050912,,,A*7A
$GPGGA,160949.000,6445.0672,N,02342.8758,W,1,11,0.8,56.5,M,61.2,M,,0000*73
$GPGSA,A,3,18,06,11,16,19,15,07,03,22,26,08,,1.7,0.8,1.5*34
$GPRMC,160949.000,A,6445.0672,N,02342.8758,W,40.16,56.83,050912,,,A*7E
$GPGGA,160950.000,6445.0732,N,02342.8541,W,1,11,0.8,56.4,M,61.2,M,,0000*75
$GPGSA,A,3,18,06,11,16,19,15,07,03,22,26,08,,1.7,0.8,1.5*34
$GPRMC,160950.000,A,6445.0732,N,02342.8541,W,39.99,56.86,050912,,,A*75
$GPGGA,160951.000,6445.0792,N,02342.8325,W,1,11,0.8,56.3,M,61.2,M,,0000*7D
$GPGSA,A,3,18,06,11,16,19,15,07,03,22,26,08,,1.7,0.8,1.5*34
$GPRMC,160951.000,A,6445.0792,N,02342.8325,W,39.92,56.94,050912,,,A*72
$GPGGA,160952.000,6445.0852,N,02342.8108,W,1,11,0.8,56.3,M,61.2,M,,0000*70
$GPGSA,A,3,18,06,11,16,19,15,07,03,22,26,08,,1.7,0.8,1.5*34
$GPRMC,160952.000,A,6445.0852,N,02342.8108,W,39.79,57.11,050912,,,A*76
$GPGGA,160953.000,6445.0911,N,02342.7891,W,1,11,0.8,56.4,M,61.2,M,,0000*76
$GPGSA,A,3,18,06,11,16,19,15,07,03,22,26,08,,1.7,0.8,1.5*34
$GPGSV,3,1,12,19,72,222,38,03,62,131,33,06,49,114,41,08,35,300,33*7F
$GPGSV,3,2,12,18,32,063,42,22,30,112,34,07,29,253,39,11,24,223,20*73
$GPGSV,3,3,12,16,21,154,34,26,16,341,34,15,15,019,32,21,09,053,35*78
$GPRMC,160953.000,A,6445.0911,N,02342.7891,W,39.66,57.55,050912,,,A*79
$GPGGA,160954.000,6445.0970,N,02342.7675,W,1,11,0.8,56.6,M,61.2,M,,0000*70
$GPGSA,A,3,18,06,11,16,19,15,07,03,22,26,08,,1.7,0.8,1.5*34
$GPRMC,160954.000,A,6445.0970,N,02342.7675,W,39.58,57.54,050912,,,A*71
$GPGGA,160955.000,6445.1028,N,02342.7459,W,1,11,0.8,56.8,M,61.2,M,,0000*76
$GPGSA,A,3,18,06,11,16,19,15,07,03,22,26,08,,1.7,0.8,1.5*34
$GPRMC,160955.000,A,6445.1028,N,02342.7459,W,39.43,57.57,050912,,,A*70
$GPGGA,160956.000,6445.1087,N,02342.7244,W,1,11,0.8,57.2,M,61.2,M,,0000*71
$GPGSA,A,3,18,06,11,16,19,15,07,03,22,26,08,,1.7,0.8,1.5*34
$GPRMC,160956.000,A,6445.1087,N,02342.7244,W,39.34,57.68,050912,,,A*70
$GPGGA,160957.000,6445.1146,N,02342.7029,W,1,11,0.8,57.6,M,61.2,M,,0000*71
$GPGSA,A,3,18,06,11,16,19,15,07,03,22,26,08,,1.7,0.8,1.5*34
$GPRMC,160957.000,A,6445.1146,N,02342.7029,W,39.44,57.40,050912,,,A*79
$GPGGA,160958.000,6445.1205,N,02342.6813,W,1,11,0.8,57.9,M,61.2,M,,0000*75
$GPGSA,A,3,18,06,11,16,19,15,07,03,22,26,08,,1.7,0.8,1.5*34
$GPGSV,3,1,12,19,72,222,38,03,62,131,35,06,49,114,41,08,35,300,32*78
$GPGSV,3,2,12,18,32,063,42,22,30,112,35,07,29,253,40,11,24,223,24*78
$GPGSV,3,3,12,16,21,154,33,26,16,341,34,15,15,019,32,21,09,053,35*7F
$GPRMC,160958.000,A,6445.1205,N,02342.6813,W,39.74,57.27,050912,,,A*70
$GPGGA,160959.000,6445.1265,N,02342.6596,W,1,11,0.8,58.2,M,61.2,M,,0000*76
$GPGSA,A,3,18,06,11,16,19,15,07,03,22,26,08,,1.7,0.8,1.5*34
$GPRMC,160959.000,A,6445.1265,N,02342.6596,W,39.90,57.17,050912,,,A*7E
$GPGGA,161000.000,6445.1325,N,02342.6379,W,1,11,0.8,58.4,M,61.2,M,,0000*76
$GPGSA,A,3,18,06,11,16,19,15,07,03,22,26,08,,1.7,0.8,1.5*34
$GPRMC,161000.000,A,6445.1325,N,02342.6379,W,39.89,57.07,050912,,,A*71
$GPGGA,161001.000,6445.1385,N,02342.6162,W,1,11,0.8,58.6,M,61.2,M,,0000*77
$GPGSA,A,3,18,06,11,16,19,15,07,03,22,26,08,,1.7,0.8,1.5*34
$GPRMC,161001.000,A,6445.1385,N,02342.6162,W,39.83,57.05,050912,,,A*7A
$GPGGA,161002.000,6445.1445,N,02342.5946,W,1,11,0.8,58.9,M,61.2,M,,0000*7D
$GPGSA,A,3,18,06,11,16,19,15,07,03,22,26,08,,1.7,0.8,1.5*34
$GPRMC,161002.000,A,6445.1445,N,02342.5946,W,39.75,57.25,050912,,,A*74
$GPGGA,161003.000,6445.1504,N,02342.5730,W,1,11,0.8,59.2,M,61.2,M,,0000*7D
$GPGSA,A,3,18,06,11,16,19,15,07,03,22,26,08,,1.7,0.8,1.5*34
$GPGSV,3,1,12,19,72,222,39,03,62,131,35,06,49,114,41,08,35,300,31*7A
$GPGSV,3,2,12,18,32,063,42,22,30,112,35,07,29,253,41,11,24,223,25*78
$GPGSV,3,3,12,16,21,154,33,26,16,341,34,15,15,019,32,21,09,053,36*7C
$GPRMC,161003.000,A,6445.1504,N,02342.5730,W,39.68,57.40,050912,,,A*71
$GPGGA,161004.000,6445.1563,N,02342.5513,W,1,11,0.8,59.5,M,61.2,M,,0000*7F
$GPGSA,A,3,18,06,11,16,19,15,07,03,22,26,08,,1.7,0.8,1.5*34
$GPRMC,161004.000,A,6445.1563,N,02342.5513,W,39.62,57.77,050912,,,A*7A
$GPGGA,161005.000,6445.1621,N,02342.5296,W,1,11,0.8,60.0,M,61.2,M,,0000*7E
$GPGSA,A,3,18,06,11,16,19,15,07,03,22,26,08,,1.7,0.8,1.5*34
$GPRMC,161005.000,A,6445.1621,N,02342.5296,W,39.50,57.88,050912,,,A*75
$GPGGA,161006.000,6445.1680,N,02342.5082,W,1,11,0.8,60.5,M,61.2,M,,0000*74
$GPGSA,A,3,18,06,11,16,19,15,07,03,22,26,08,,1.7,0.8,1.5*34
$GPRMC,161006.000,A,6445.1680,N,02342.5082,W,39.31,57.06,050912,,,A*7B
$GPGGA,161007.000,6445.1740,N,02342.4870,W,1,11,0.8,61.1,M,61.2,M,,0000*79
$GPGSA,A,3,18,06,11,16,19,15,07,03,22,26,08,,1.7,0.8,1.5*34
$GPRMC,161007.000,A,6445.1740,N,02342.4870,W,39.26,56.68,050912,,,A*7C
$GPGGA,161008.000,6445.1800,N,02342.4656,W,1,11,0.8,61.8,M,61.2,M,,0000*7E
$GPGSA,A,3,18,06,11,16,19,15,07,03,22,26,08,,1.7,0.8,1.5*34
$GPGSV,3,1,12,19,72,222,39,03,62,131,36,06,49,114,41,08,35,300,25*7C
$GPGSV,3,2,12,18,32,063,42,22,30,112,35,07,29,253,41,11,24,223,26*7B
$GPGSV,3,3,12,16,21,154,33,26,16,341,33,15,15,019,31,21,09,053,36*78
$GPRMC,161008.000,A,6445.1800,N,02342.4656,W,39.38,57.12,050912,,,A*71
$GPGGA,161009.000,6445.1858,N,02342.4441,W,1,11,0.8,62.6,M,61.2,M,,0000*7B
$GPGSA,A,3,18,06,11,16,19,15,07,03,22,26,08,,1.7,0.8,1.5*34
$GPRMC,161009.000,A,6445.1858,N,02342.4441,W,39.32,57.48,050912,,,A*7C
$GPGGA,161010.000,6445.1917,N,02342.4227,W,1,11,0.8,63.4,M,61.2,M,,0000*7C
$GPGSA,A,3,18,06,11,16,19,15,07,03,22,26,08,,1.7,0.8,1.5*34
$GPRMC,161010.000,A,6445.1917,N,02342.4227,W,39.30,57.54,050912,,,A*77
$GPGGA,161011.000,6445.1976,N,02342.4011,W,1,11,0.8,64.3,M,61.2,M,,0000*7D
$GPGSA,A,3,18,06,11,16,19,15,07,03,22,26,08,,1.7,0.8,1.5*34
$GPRMC,161011.000,A,6445.1976,N,02342.4011,W,39.56,57.40,050912,,,A*73
$GPGGA,161012.000,6445.2036,N,02342.3795,W,1,11,0.8,65.3,M,61.2,M,,0000*7D
$GPGSA,A,3,18,06,11,16,19,15,07,03,22,26,08,,1.7,0.8,1.5*34
$GPRMC,161012.000,A,6445.2036,N,02342.3795,W,39.67,57.21,050912,,,A*77
$GPGGA,161013.000,6445.2096,N,02342.3579,W,1,11,0.8,66.2,M,61.2,M,,0000*74
$GPGSA,A,3,18,06,11,16,19,15,07,03,22,26,08,,1.7,0.8,1.5*34
$GPGSV,3,1,12,19,72,222,38,03,62,131,37,06,49,114,41,08,35,300,27*7E
$GPGSV,3,2,12,18,32,063,42,22,30,112,36,07,29,253,41,11,24,223,26*78
$GPGSV,3,3,12,16,21,154,33,26,16,341,33,15,15,019,26,21,09,053,36*7E
$GPRMC,161013.000,A,6445.2096,N,02342.3579,W,39.74,57.08,050912,,,A*75
$GPGGA,161014.000,6445.2156,N,02342.3362,W,1,11,0.8,67.1,M,61.2,M,,0000*70
$GPGSA,A,3,18,06,11,16,19,15,07,03,22,26,08,,1.7,0.8,1.5*34
$GPRMC,161014.000,A,6445.2156,N,02342.3362,W,39.97,57.08,050912,,,A*7E
$GPGGA,161015.000,6445.2217,N,02342.3145,W,1,11,0.8,67.9,M,61.2,M,,0000*78
$GPGSA,A,3,18,06,11,16,19,15,07,03,22,26,08,,1.7,0.8,1.5*34
$GPRMC,161015.000,A,6445.2217,N,02342.3145,W,40.06,56.92,050912,,,A*7A
$GPGGA,161016.000,6445.2277,N,02342.2927,W,1,11,0.8,68.6,M,61.2,M,,0000*70
$GPGSA,A,3,18,06,11,16,19,15,07,03,22,26,08,,1.7,0.8,1.5*34
$GPRMC,161016.000,A,6445.2277,N,02342.2927,W,40.09,57.05,050912,,,A*72
$GPGGA,161017.000,6445.2338,N,02342.2709,W,1,11,0.8,69.3,M,61.2,M,,0000*7D
$GPGSA,A,3,18,06,11,16,19,15,07,03,22,26,08,,1.7,0.8,1.5*34
$GPRMC,161017.000,A,6445.2338,N,02342.2709,W,40.22,57.14,050912,,,A*72
$GPGGA,161018.000,6445.2398,N,02342.2491,W,1,10,0.8,69.9,M,61.2,M,,0000*71
$GPGSA,A,3,18,06,11,16,19,15,03,22,26,08,,,1.7,0.8,1.5*33
$GPGSV,3,1,12,19,72,222,33,03,62,131,39,06,49,114,41,08,35,300,36*7B
$GPGSV,3,2,12,18,32,063,41,22,30,112,40,07,29,253,34,11,24,223,35*7A
$GPGSV,3,3,12,16,21,154,35,26,16,341,34,15,15,019,38,21,09,053,29*7E
$GPRMC,161018.000,A,6445.2398,N,02342.2491,W,40.04,57.20,050912,,,A*76
$GPGGA,161019.000,6445.2457,N,02342.2275,W,1,10,0.9,70.4,M,61.2,M,,0000*7C
$GPGSA,A,3,18,06,16,19,15,07,03,22,26,08,,,1.8,0.9,1.6*39
$GPRMC,161019.000,A,6445.2457,N,02342.2275,W,39.56,57.15,050912,,,A*70
$GPGGA,161020.000,6445.2518,N,02342.2058,W,1,09,0.9,71.0,M,61.2,M,,0000*7C
$GPGSA,A,3,18,06,16,19,15,07,03,22,26,,,,1.8,0.9,1.6*31
$GPRMC,161020.000,A,6445.2518,N,02342.2058,W,40.18,56.73,050912,,,A*78
$GPGGA,161021.000,6445.2579,N,02342.1839,W,1,10,0.9,71.6,M,61.2,M,,0000*78
$GPGSA,A,3,18,06,16,19,15,07,03,22,26,08,,,1.8,0.9,1.6*39
$GPRMC,161021.000,A,6445.2579,N,02342.1839,W,40.32,56.67,050912,,,A*7F
$GPGGA,161022.000,6445.2639,N,02342.1623,W,1,10,0.9,72.2,M,61.2,M,,0000*7E
$GPGSA,A,3,18,06,16,19,15,07,03,22,26,08,,,1.8,0.9,1.6*39
$GPRMC,161022.000,A,6445.2639,N,02342.1623,W,39.82,56.94,050912,,,A*77
$GPGGA,161023.000,6445.2700,N,02342.1405,W,1,11,0.8,72.8,M,61.2,M,,0000*78
$GPGSA,A,3,18,06,11,16,19,15,07,03,22,26,08,,1.7,0.8,1.5*34
$GPGSV,3,1,12,19,72,222,24,03,62,131,28,06,49,114,30,08,35,300,26*7A
$GPGSV,3,2,12,18,32,063,24,22,30,112,32,07,29,253,28,11,24,223,20*75
$GPGSV,3,3,12,16,21,154,25,26,16,341,27,15,15,019,18,21,09,053,13*76
$GPRMC,161023.000,A,6445.2700,N,02342.1405,W,40.04,56.99,050912,,,A*76
$GPGGA,161024.000,6445.2759,N,02342.1188,W,1,11,0.8,73.3,M,61.2,M,,0000*79
$GPGSA,A,3,18,06,11,16,19,15,07,03,22,26,08,,1.7,0.8,1.5*34
$GPRMC,161024.000,A,6445.2759,N,02342.1188,W,39.81,57.12,050912,,,A*7C
$GPGGA,161025.000,6445.2818,N,02342.0973,W,1,11,0.8,73.9,M,61.2,M,,0000*75
$GPGSA,A,3,18,06,11,16,19,15,07,03,22,26,08,,1.7,0.8,1.5*34
$GPRMC,161025.000,A,6445.2818,N,02342.0973,W,39.38,57.17,050912,,,A*7D
$GPGGA,161026.000,6445.2875,N,02342.0764,W,1,10,0.9,74.6,M,61.2,M,,0000*7D
$GPGSA,A,3,18,06,16,19,15,07,03,22,26,08,,,1.8,0.9,1.6*39
$GPRMC,161026.000,A,6445.2875,N,02342.0764,W,38.18,57.51,050912,,,A*7C
$GPGGA,161027.000,6445.2930,N,02342.0559,W,1,11,0.8,75.2,M,61.2,M,,0000*75
$GPGSA,A,3,18,06,11,16,19,15,07,03,22,26,08,,1.7,0.8,1.5*34
$GPRMC,161027.000,A,6445.2930,N,02342.0559,W,37.36,57.76,050912,,,A*77
$GPGGA,161028.000,6445.2986,N,02342.0354,W,1,11,0.8,75.8,M,61.2,M,,0000*76
$GPGSA,A,3,18,06,11,16,19,15,07,03,22,26,08,,1.7,0.8,1.5*34
$GPGSV,3,1,12,19,72,222,36,03,62,131,35,06,49,114,38,08,35,300,41*7C
$GPGSV,3,2,12,18,32,063,37,22,30,112,40,07,29,253,36,11,24,223,25*78
$GPGSV,3,3,12,16,21,154,39,26,16,341,34,15,15,019,36,21,09,053,29*7C
$GPRMC,161028.000,A,6445.2986,N,02342.0354,W,37.46,57.61,050912,,,A*7F
$GPGGA,161029.000,6445.3042,N,02342.0150,W,1,11,0.8,76.5,M,61.2,M,,0000*7F
$GPGSA,A,3,18,06,11,16,19,15,07,03,22,26,08,,1.7,0.8,1.5*34
$GPRMC,161029.000,A,6445.3042,N,02342.0150,W,37.41,56.89,050912,,,A*78
$GPGGA,161030.000,6445.3099,N,02341.9946,W,1,11,0.8,77.2,M,61.2,M,,0000*72
$GPGSA,A,3,18,06,11,16,19,15,07,03,22,26,08,,1.7,0.8,1.5*34
$GPRMC,161030.000,A,6445.3099,N,02341.9946,W,37.59,56.85,050912,,,A*76
$GPGGA,161031.000,6445.3156,N,02341.9739,W,1,11,0.8,77.8,M,61.2,M,,0000*7D
$GPGSA,A,3,18,06,11,16,19,15,07,03,22,26,08,,1.7,0.8,1.5*34
$GPRMC,161031.000,A,6445.3156,N,02341.9739,W,37.91,57.08,050912,,,A*73
$GPGGA,161032.000,6445.3213,N,02341.9528,W,1,11,0.8,78.4,M,61.2,M,,0000*7D
$GPGSA,A,3,18,06,11,16,19,15,07,03,22,26,08,,1.7,0.8,1.5*34
$GPRMC,161032.000,A,6445.3213,N,02341.9528,W,38.62,57.25,050912,,,A*7C
$GPGGA,161033.000,6445.3272,N,02341.9315,W,1,11,0.8,78.9,M,61.2,M,,0000*7E
$GPGSA,A,3,18,06,11,16,19,15,07,03,22,26,08,,1.7,0.8,1.5*34
$GPGSV,3,1,12,19,72,222,25,03,62,131,29,06,49,114,31,08,35,300,34*78
$GPGSV,3,2,12,18,32,063,29,22,30,112,40,07,29,253,29,11,24,223,24*78
$GPGSV,3,3,12,16,21,154,33,26,16,341,32,15,15,019,35,21,09,053,28*72
$GPRMC,161033.000,A,6445.3272,N,02341.9315,W,39.13,57.35,050912,,,A*74
$GPGGA,161034.000,6445.3331,N,02341.9099,W,1,11,0.8,79.5,M,61.2,M,,0000*75
$GPGSA,A,3,18,06,11,16,19,15,07,03,22,26,08,,1.7,0.8,1.5*34
$GPRMC,161034.000,A,6445.3331,N,02341.9099,W,39.56,57.13,050912,,,A*77
$GPGGA,161035.000,6445.3390,N,02341.8884,W,1,11,0.8,80.1,M,61.2,M,,0000*78
$GPGSA,A,3,18,06,11,16,19,15,07,03,22,26,08,,1.7,0.8,1.5*34
$GPRMC,161035.000,A,6445.3390,N,02341.8884,W,39.39,57.40,050912,,,A*77
$GPGGA,161036.000,6445.3448,N,02341.8671,W,1,11,0.8,80.6,M,61.2,M,,0000*7A
$GPGSA,A,3,18,06,11,16,19,15,07,03,22,26,08,,1.7,0.8,1.5*34
$GPRMC,161036.000,A,6445.3448,N,02341.8671,W,39.09,57.15,050912,,,A*71
$GPGGA,161037.000,6445.3506,N,02341.8460,W,1,11,0.8,81.2,M,61.2,M,,0000*77
$GPGSA,A,3,18,06,11,16,19,15,07,03,22,26,08,,1.7,0.8,1.5*34
$GPRMC,161037.000,A,6445.3506,N,02341.8460,W,38.63,57.46,050912,,,A*72
$GPGGA,161038.000,6445.3563,N,02341.8252,W,1,11,0.8,81.9,M,61.2,M,,0000*77
$GPGSA,A,3,18,06,11,16,19,15,07,03,22,26,08,,1.7,0.8,1.5*34
$GPGSV,3,1,12,19,72,222,19,03,62,131,28,06,49,114,25,08,35,300,35*72
$GPGSV,3,2,12,18,32,063,35,22,30,112,30,07,29,253,29,11,24,223,26*70
$GPGSV,3,3,12,16,21,154,29,26,16,341,30,15,15,019,33,21,09,053,27*72
$GPRMC,161038.000,A,6445.3563,N,02341.8252,W,38.11,57.22,050912,,,A*7E
$GPGGA,161039.000,6445.3619,N,02341.8046,W,1,11,0.8,82.6,M,61.2,M,,0000*73
$GPGSA,A,3,18,06,11,16,19,15,07,03,22,26,08,,1.7,0.8,1.5*34
$GPRMC,161039.000,A,6445.3619,N,02341.8046,W,37.64,57.27,050912,,,A*7E
$GPGGA,161040.000,6445.3675,N,02341.7843,W,1,11,0.8,83.3,M,61.2,M,,0000*71
$GPGSA,A,3,18,06,11,16,19,15,07,03,22,26,08,,1.7,0.8,1.5*34
$GPRMC,161040.000,A,6445.3675,N,02341.7843,W,37.26,57.24,050912,,,A*7D
$GPGGA,161041.000,6445.3731,N,02341.7641,W,1,11,0.8,84.2,M,61.2,M,,0000*7B
$GPGSA,A,3,18,06,11,16,19,15,07,03,22,26,08,,1.7,0.8,1.5*34
$GPRMC,161041.000,A,6445.3731,N,02341.7641,W,37.00,57.17,050912,,,A*75
$GPGGA,161042.000,6445.3786,N,02341.7440,W,1,10,0.8,84.9,M,61.2,M,,0000*7D
$GPGSA,A,3,18,06,11,16,19,07,03,22,26,08,,,1.8,0.8,1.5*3F
$GPRMC,161042.000,A,6445.3786,N,02341.7440,W,36.68,57.42,050912,,,A*76
$GPGGA,161043.000,6445.3841,N,02341.7239,W,1,11,0.8,85.5,M,61.2,M,,0000*7C
$GPGSA,A,3,18,06,11,16,19,15,07,03,22,26,08,,1.7,0.8,1.5*34
$GPGSV,3,1,12,19,72,222,30,03,62,131,35,06,49,114,40,08,35,300,35*76
$GPGSV,3,2,12,18,32,063,35,22,30,112,36,07,29,253,29,11,24,223,30*71
$GPGSV,3,3,12,16,21,154,32,26,16,341,34,15,15,019,27,21,09,053,27*79
$GPRMC,161043.000,A,6445.3841,N,02341.7239,W,36.80,57.12,050912,,,A*78
$GPGGA,161044.000,6445.3897,N,02341.7037,W,1,11,0.8,86.1,M,61.2,M,,0000*7B
$GPGSA,A,3,18,06,11,16,19,15,07,03,22,26,08,,1.7,0.8,1.5*34
$GPRMC,161044.000,A,6445.3897,N,02341.7037,W,37.04,57.13,050912,,,A*74
$GPGGA,161045.000,6445.3952,N,02341.6834,W,1,11,0.8,86.7,M,61.2,M,,0000*7E
$GPGSA,A,3,18,06,11,16,19,15,07,03,22,26,08,,1.7,0.8,1.5*34
$GPRMC,161045.000,A,6445.3952,N,02341.6834,W,36.94,57.70,050912,,,A*7A
$GPGGA,161046.000,6445.4006,N,02341.6631,W,1,11,0.8,87.2,M,61.2,M,,0000*7D
$GPGSA,A,3,18,06,11,16,19,15,07,03,22,26,08,,1.7,0.8,1.5*34
$GPRMC,161046.000,A,6445.4006,N,02341.6631,W,37.00,57.88,050912,,,A*76
$GPGGA,161047.000,6445.4061,N,02341.6426,W,1,11,0.8,87.7,M,61.2,M,,0000*7C
$GPGSA,A,3,18,06,11,16,19,15,07,03,22,26,08,,1.7,0.8,1.5*34
$GPRMC,161047.000,A,6445.4061,N,02341.6426,W,37.27,57.79,050912,,,A*79
$GPGGA,161048.000,6445.4117,N,02341.6221,W,1,11,0.8,88.2,M,61.2,M,,0000*78
$GPGSA,A,3,18,06,11,16,19,15,07,03,22,26,08,,1.7,0.8,1.5*34
$GPGSV,3,1,12,19,72,221,38,03,61,131,33,06,48,114,33,08,35,300,21*78
$GPGSV,3,2,12,18,32,062,27,22,30,111,31,07,29,252,29,11,24,223,28*7F
$GPGSV,3,3,12,16,20,154,33,26,16,340,27,15,15,019,24,21,09,053,23*7D
$GPRMC,161048.000,A,6445.4117,N,02341.6221,W,37.59,57.57,050912,,,A*72
$GPGGA,161049.000,6445.4173,N,02341.6014,W,1,10,0.8,88.6,M,61.2,M,,0000*7A
$GPGSA,A,3,18,06,11,16,19,15,07,03,26,08,,,1.7,0.8,1.5*34
$GPRMC,161049.000,A,6445.4173,N,02341.6014,W,37.94,56.98,050912,,,A*76
$GPGGA,161050.000,6445.4231,N,02341.5808,W,1,11,0.8,89.0,M,61.2,M,,0000*77
$GPGSA,A,3,18,06,11,16,19,15,07,03,22,26,08,,1.7,0.8,1.5*34
$GPRMC,161050.000,A,6445.4231,N,02341.5808,W,38.05,56.86,050912,,,A*75
$GPGGA,161051.000,6445.4288,N,02341.5605,W,1,11,0.8,89.4,M,61.2,M,,0000*73
$GPGSA,A,3,18,06,11,16,19,15,07,03,22,26,08,,1.7,0.8,1.5*34
$GPRMC,161051.000,A,6445.4288,N,02341.5605,W,37.66,56.09,050912,,,A*78
$GPGGA,161052.000,6445.4345,N,02341.5405,W,1,10,0.8,89.8,M,61.2,M,,0000*7F
$GPGSA,A,3,18,06,11,16,19,07,03,22,26,08,,,1.8,0.8,1.5*3F
$GPRMC,161052.000,A,6445.4345,N,02341.5405,W,37.15,55.80,050912,,,A*7F
$GPGGA,161053.000,6445.4404,N,02341.5209,W,1,11,0.8,90.1,M,61.2,M,,0000*76
$GPGSA,A,3,18,06,11,16,19,15,07,03,22,26,08,,1.7,0.8,1.5*34
$GPGSV,3,1,12,19,72,221,29,03,61,131,33,06,48,114,29,08,35,300,35*76
$GPGSV,3,2,12,18,32,062,22,22,30,111,21,07,29,252,35,11,24,223,29*77
$GPGSV,3,3,12,16,20,154,32,26,16,340,28,15,15,019,26,21,09,053,29*7B
$GPRMC,161053.000,A,6445.4404,N,02341.5209,W,36.93,54.99,050912,,,A*70
$GPGGA,161054.000,6445.4465,N,02341.5017,W,1,11,0.8,90.4,M,61.2,M,,0000*7E
$GPGSA,A,3,18,06,11,16,19,15,07,03,22,26,08,,1.7,0.8,1.5*34
$GPRMC,161054.000,A,6445.4465,N,02341.5017,W,37.07,52.73,050912,,,A*73
$GPGGA,161055.000,6445.4529,N,02341.4835,W,1,10,0.8,90.8,M,61.2,M,,0000*72
$GPGSA,A,3,18,06,11,16,19,15,07,03,22,08,,,1.7,0.8,1.5*30
$GPRMC,161055.000,A,6445.4529,N,02341.4835,W,36.55,50.08,050912,,,A*7A
$GPGGA,161056.000,6445.4596,N,02341.4663,W,1,11,0.8,91.3,M,61.2,M,,0000*73
$GPGSA,A,3,18,06,11,16,19,15,07,03,22,26,08,,1.7,0.8,1.5*34
$GPRMC,161056.000,A,6445.4596,N,02341.4663,W,36.08,47.04,050912,,,A*72
$GPGGA,161057.000,6445.4667,N,02341.4499,W,1,11,0.8,91.7,M,61.2,M,,0000*7C
$GPGSA,A,3,18,06,11,16,19,15,07,03,22,26,08,,1.7,0.8,1.5*34
$GPRMC,161057.000,A,6445.4667,N,02341.4499,W,36.11,44.18,050912,,,A*7F
$GPGGA,161058.000,6445.4742,N,02341.4342,W,1,10,0.8,92.0,M,61.2,M,,0000*71
$GPGSA,A,3,18,06,11,16,19,15,07,03,26,08,,,1.7,0.8,1.5*34
$GPGSV,3,1,12,19,72,221,26,03,61,131,36,06,48,114,42,08,35,300,35*71
$GPGSV,3,2,12,18,32,062,26,22,30,111,,07,29,252,31,11,24,223,36*7A
$GPGSV,3,3,12,16,20,154,36,26,16,340,25,15,15,019,34,21,09,053,27*7F
$GPRMC,161058.000,A,6445.4742,N,02341.4342,W,36.36,41.32,050912,,,A*7F
$GPGGA,161059.000,6445.4820,N,02341.4191,W,1,11,0.8,92.3,M,61.2,M,,0000*75
$GPGSA,A,3,18,06,11,16,19,15,07,03,22,26,08,,1.7,0.8,1.5*34
$GPRMC,161059.000,A,6445.4820,N,02341.4191,W,36.53,39.07,050912,,,A*73
$GPGGA,161100.000,6445.4900,N,02341.4040,W,1,11,0.8,92.3,M,61.2,M,,0000*76
$GPGSA,A,3,18,06,11,16,19,15,07,03,22,26,08,,1.7,0.8,1.5*34
$GPRMC,161100.000,A,6445.4900,N,02341.4040,W,37.50,38.19,050912,,,A*7C
$GPGGA,161101.000,6445.4983,N,02341.3887,W,1,11,0.8,92.2,M,61.2,M,,0000*79
$GPGSA,A,3,18,06,11,16,19,15,07,03,22,26,08,,1.7,0.8,1.5*34
$GPRMC,161101.000,A,6445.4983,N,02341.3887,W,38.32,37.66,050912,,,A*7E
$GPGGA,161102.000,6445.5068,N,02341.3731,W,1,11,0.8,91.9,M,61.2,M,,0000*7D
$GPGSA,A,3,18,06,11,16,19,15,07,03,22,26,08,,1.7,0.8,1.5*34
$GPRMC,161102.000,A,6445.5068,N,02341.3731,W,39.05,37.67,050912,,,A*76
$GPGGA,161103.000,6445.5154,N,02341.3575,W,1,11,0.8,91.4,M,61.2,M,,0000*7D
$GPGSA,A,3,18,06,11,16,19,15,07,03,22,26,08,,1.7,0.8,1.5*34
$GPGSV,3,1,12,19,72,221,35,03,61,131,22,06,48,114,42,08,35,300,41*75
$GPGSV,3,2,12,18,32,062,22,22,30,111,39,07,29,252,30,11,24,223,26*74
$GPGSV,3,3,12,16,20,154,33,26,16,340,30,15,15,019,27,21,09,053,22*79
$GPRMC,161103.000,A,6445.5154,N,02341.3575,W,39.35,37.44,050912,,,A*79
$GPGGA,161104.000,6445.5239,N,02341.3418,W,1,11,0.8,90.9,M,61.2,M,,0000*74
$GPGSA,A,3,18,06,11,16,19,15,07,03,22,26,08,,1.7,0.8,1.5*34
$GPRMC,161104.000,A,6445.5239,N,02341.3418,W,39.19,37.68,050912,,,A*7C
$GPGGA,161105.000,6445.5323,N,02341.3263,W,1,11,0.8,90.2,M,61.2,M,,0000*7E
$GPGSA,A,3,18,06,11,16,19,15,07,03,22,26,08,,1.7,0.8,1.5*34
$GPRMC,161105.000,A,6445.5323,N,02341.3263,W,38.91,37.74,050912,,,A*71
$GPGGA,161106.000,6445.5407,N,02341.3108,W,1,11,0.8,89.4,M,61.2,M,,0000*7C
$GPGSA,A,3,18,06,11,16,19,15,07,03,22,26,08,,1.7,0.8,1.5*34
$GPRMC,161106.000,A,6445.5407,N,02341.3108,W,38.67,37.89,050912,,,A*76
$GPGGA,161107.000,6445.5491,N,02341.2953,W,1,11,0.8,88.6,M,61.2,M,,0000*76
$GPGSA,A,3,18,06,11,16,19,15,07,03,22,26,08,,1.7,0.8,1.5*34
$GPRMC,161107.000,A,6445.5491,N,02341.2953,W,38.83,37.65,050912,,,A*77
$GPGGA,161108.000,6445.5577,N,02341.2797,W,1,11,0.8,87.7,M,61.2,M,,0000*78
$GPGSA,A,3,18,06,11,16,19,15,07,03,22,26,08,,1.7,0.8,1.5*34
$GPGSV,3,1,12,19,72,221,35,03,61,131,25,06,48,114,42,08,35,300,42*71
$GPGSV,3,2,12,18,32,062,23,22,30,111,38,07,29,252,30,11,24,223,26*74
$GPGSV,3,3,12,16,20,154,34,26,16,340,30,15,15,019,27,21,09,053,21*7D
$GPRMC,161108.000,A,6445.5577,N,02341.2797,W,39.20,37.41,050912,,,A*79
$GPGGA,161109.000,6445.5664,N,02341.2640,W,1,11,0.8,86.8,M,61.2,M,,0000*7D
$GPGSA,A,3,18,06,11,16,19,15,07,03,22,26,08,,1.7,0.8,1.5*34
$GPRMC,161109.000,A,6445.5664,N,02341.2640,W,39.88,37.14,050912,,,A*70
$GPGGA,161110.000,6445.5753,N,02341.2480,W,1,10,0.8,85.8,M,61.2,M,,0000*7C
$GPGSA,A,3,18,06,11,16,19,07,03,22,26,08,,,1.8,0.8,1.5*3F
$GPRMC,161110.000,A,6445.5753,N,02341.2480,W,40.53,37.17,050912,,,A*78
$GPGGA,161111.000,6445.5843,N,02341.2318,W,1,11,0.8,84.9,M,61.2,M,,0000*74
$GPGSA,A,3,18,06,11,16,19,15,07,03,22,26,08,,1.7,0.8,1.5*34
$GPRMC,161111.000,A,6445.5843,N,02341.2318,W,40.95,37.39,050912,,,A*77
$GPGGA,161112.000,6445.5934,N,02341.2151,W,1,11,0.8,84.2,M,61.2,M,,0000*72
$GPGSA,A,3,18,06,11,16,19,15,07,03,22,26,08,,1.7,0.8,1.5*34
$GPRMC,161112.000,A,6445.5934,N,02341.2151,W,41.67,37.86,050912,,,A*72
$GPGGA,161113.000,6445.6024,N,02341.1984,W,1,11,0.8,83.7,M,61.2,M,,0000*79
$GPGSA,A,3,18,06,11,16,19,15,07,03,22,26,08,,1.7,0.8,1.5*34
$GPGSV,3,1,12,19,73,221,29,03,61,130,27,06,48,114,42,08,35,300,41*7D
$GPGSV,3,2,12,18,32,062,31,22,30,111,38,07,29,252,31,11,24,223,28*78
$GPGSV,3,3,12,16,20,154,41,26,16,340,28,15,15,019,30,21,09,053,27*76
$GPRMC,161113.000,A,6445.6024,N,02341.1984,W,41.47,38.20,050912,,,A*7A
$GPGGA,161114.000,6445.6112,N,02341.1815,W,1,10,0.8,83.5,M,61.2,M,,0000*70
$GPGSA,A,3,18,06,11,16,19,07,03,22,26,08,,,1.8,0.8,1.5*3F
$GPRMC,161114.000,A,6445.6112,N,02341.1815,W,41.15,38.87,050912,,,A*7A
$GPGGA,161115.000,6445.6199,N,02341.1646,W,1,11,0.8,83.5,M,61.2,M,,0000*7B
$GPGSA,A,3,18,06,11,16,19,15,07,03,22,26,08,,1.7,0.8,1.5*34
$GPRMC,161115.000,A,6445.6199,N,02341.1646,W,40.72,39.63,050912,,,A*7B
$GPGGA,161116.000,6445.6283,N,02341.1474,W,1,11,0.8,83.6,M,61.2,M,,0000*70
$GPGSA,A,3,18,06,11,16,19,15,07,03,22,26,08,,1.7,0.8,1.5*34
$GPRMC,161116.000,A,6445.6283,N,02341.1474,W,40.14,41.17,050912,,,A*7F
$GPGGA,161117.000,6445.6361,N,02341.1303,W,1,11,0.8,84.0,M,61.2,M,,0000*7A
$GPGSA,A,3,18,06,11,16,19,15,07,03,22,26,08,,1.7,0.8,1.5*34
$GPRMC,161117.000,A,6445.6361,N,02341.1303,W,38.41,43.10,050912,,,A*7E
$GPGGA,161118.000,6445.6432,N,02341.1132,W,1,11,0.8,84.5,M,61.2,M,,0000*71
$GPGSA,A,3,18,06,11,16,19,15,07,03,22,26,08,,1.7,0.8,1.5*34
$GPGSV,3,1,12,19,73,221,34,03,61,130,34,06,48,114,35,08,35,300,40*72
$GPGSV,3,2,12,18,32,062,32,22,30,111,35,07,28,252,32,11,24,223,27*7B
$GPGSV,3,3,12,16,20,154,41,26,16,340,28,15,15,019,33,21,08,053,27*74
$GPRMC,161118.000,A,6445.6432,N,02341.1132,W,36.69,45.52,050912,,,A*74
$GPGGA,161119.000,6445.6499,N,02341.0961,W,1,11,0.8,85.3,M,61.2,M,,0000*79
$GPGSA,A,3,18,06,11,16,19,15,07,03,22,26,08,,1.7,0.8,1.5*34
$GPRMC,161119.000,A,6445.6499,N,02341.0961,W,35.73,47.67,050912,,,A*77
$GPGGA,161120.000,6445.6562,N,02341.0787,W,1,11,0.8,86.1,M,61.2,M,,0000*71
$GPGSA,A,3,18,06,11,16,19,15,07,03,22,26,08,,1.7,0.8,1.5*34
$GPRMC,161120.000,A,6445.6562,N,02341.0787,W,35.05,50.00,050912,,,A*78
$GPGGA,161121.000,6445.6621,N,02341.0612,W,1,11,0.8,87.0,M,61.2,M,,0000*79
$GPGSA,A,3,18,06,11,16,19,15,07,03,22,26,08,,1.7,0.8,1.5*34
$GPRMC,161121.000,A,6445.6621,N,02341.0612,W,34.38,51.34,050912,,,A*79
$GPGGA,161122.000,6445.6678,N,02341.0439,W,1,11,0.8,88.0,M,61.2,M,,0000*72
$GPGSA,A,3,18,06,11,16,19,15,07,03,22,26,08,,1.7,0.8,1.5*34
$GPRMC,161122.000,A,6445.6678,N,02341.0439,W,33.72,52.69,050912,,,A*7F
$GPGGA,161123.000,6445.6733,N,02341.0262,W,1,11,0.8,89.1,M,61.2,M,,0000*75
$GPGSA,A,3,18,06,11,16,19,15,07,03,22,26,08,,1.7,0.8,1.5*34
$GPGSV,3,1,12,19,73,221,27,03,61,130,30,06,48,114,32,08,35,300,22*77
$GPGSV,3,2,12,18,32,062,23,22,30,111,27,07,28,252,27,11,24,223,24*7F
$GPGSV,3,3,12,16,20,154,36,26,16,340,28,15,15,019,30,21,08,053,29*79
$GPRMC,161123.000,A,6445.6733,N,02341.0262,W,33.66,54.10,050912,,,A*75
$GPGGA,161124.000,6445.6786,N,02341.0083,W,1,11,0.8,90.2,M,61.2,M,,0000*7A
$GPGSA,A,3,18,06,11,16,19,15,07,03,22,26,08,,1.7,0.8,1.5*34
$GPRMC,161124.000,A,6445.6786,N,02341.0083,W,33.53,55.61,050912,,,A*70
$GPGGA,161125.000,6445.6834,N,02340.9901,W,1,11,0.8,91.3,M,61.2,M,,0000*76
$GPGSA,A,3,18,06,11,16,19,15,07,03,22,26,08,,1.7,0.8,1.5*34
$GPRMC,161125.000,A,6445.6834,N,02340.9901,W,33.13,58.31,050912,,,A*70
$GPGGA,161126.000,6445.6880,N,02340.9713,W,1,11,0.8,92.3,M,61.2,M,,0000*74
$GPGSA,A,3,18,06,11,16,19,15,07,03,22,26,08,,1.7,0.8,1.5*34
$GPRMC,161126.000,A,6445.6880,N,02340.9713,W,33.47,60.48,050912,,,A*75
$GPGGA,161127.000,6445.6921,N,02340.9519,W,1,11,0.8,93.3,M,61.2,M,,0000*76
$GPGSA,A,3,18,06,11,16,19,15,07,03,22,26,08,,1.7,0.8,1.5*34
$GPRMC,161127.000,A,6445.6921,N,02340.9519,W,33.58,63.70,050912,,,A*70
$GPGGA,161128.000,6445.6958,N,02340.9318,W,1,11,0.8,94.3,M,61.2,M,,0000*77
$GPGSA,A,3,18,06,11,16,19,15,07,03,22,26,08,,1.7,0.8,1.5*34
$GPGSV,3,1,12,19,73,221,24,03,61,130,36,06,48,114,41,08,35,300,32*77
$GPGSV,3,2,12,18,32,062,32,22,30,111,37,07,28,252,24,11,24,223,37*7F
$GPGSV,3,3,12,16,20,154,31,26,16,340,31,15,15,019,34,21,08,053,28*73
$GPRMC,161128.000,A,6445.6958,N,02340.9318,W,33.96,66.65,050912,,,A*75
$GPGGA,161129.000,6445.6992,N,02340.9111,W,1,11,0.8,95.1,M,61.2,M,,0000*78
$GPGSA,A,3,18,06,11,16,19,15,07,03,22,26,08,,1.7,0.8,1.5*34
$GPRMC,161129.000,A,6445.6992,N,02340.9111,W,34.34,69.24,050912,,,A*7C
$GPGGA,161130.000,6445.7023,N,02340.8901,W,1,11,0.8,95.8,M,61.2,M,,0000*73
$GPGSA,A,3,18,06,11,16,19,15,07,03,22,26,08,,1.7,0.8,1.5*34
$GPRMC,161130.000,A,6445.7023,N,02340.8901,W,34.44,71.36,050912,,,A*73
$GPGGA,161131.000,6445.7051,N,02340.8687,W,1,10,0.8,96.5,M,61.2,M,,0000*79
$GPGSA,A,3,18,06,11,16,19,15,07,03,22,08,,,1.7,0.8,1.5*30
$GPRMC,161131.000,A,6445.7051,N,02340.8687,W,34.67,72.76,050912,,,A*70
$GPGGA,161132.000,6445.7080,N,02340.8471,W,1,11,0.8,97.1,M,61.2,M,,0000*79
$GPGSA,A,3,18,06,11,16,19,15,07,03,22,26,08,,1.7,0.8,1.5*34
$GPRMC,161132.000,A,6445.7080,N,02340.8471,W,34.97,72.99,050912,,,A*7A
$GPGGA,161133.000,6445.7109,N,02340.8257,W,1,10,0.8,97.7,M,61.2,M,,0000*7D
$GPGSA,A,3,18,06,11,16,19,15,03,22,26,08,,,1.7,0.8,1.5*33
$GPGSV,3,1,12,19,73,221,29,03,61,130,36,06,48,114,41,08,35,300,33*7B
$GPGSV,3,2,12,18,32,062,33,22,30,111,36,07,28,252,09,11,24,223,28*7E
$GPGSV,3,3,12,16,20,154,30,26,16,340,31,15,15,019,17,21,08,053,27*7C
$GPRMC,161133.000,A,6445.7109,N,02340.8257,W,34.91,72.29,050912,,,A*74
$GPGGA,161134.000,6445.7139,N,02340.8043,W,1,10,0.8,98.2,M,61.2,M,,0000*74
$GPGSA,A,3,18,06,11,16,19,15,03,22,26,08,,,1.7,0.8,1.5*33
$GPRMC,161134.000,A,6445.7139,N,02340.8043,W,34.62,72.21,050912,,,A*73
$GPGGA,161135.000,6445.7168,N,02340.7830,W,1,10,0.8,98.6,M,61.2,M,,0000*76
$GPGSA,A,3,18,06,11,16,19,15,03,22,26,08,,,1.7,0.8,1.5*33
$GPRMC,161135.000,A,6445.7168,N,02340.7830,W,34.61,71.82,050912,,,A*7C
$GPGGA,161136.000,6445.7198,N,02340.7617,W,1,10,0.8,99.1,M,61.2,M,,0000*77
$GPGSA,A,3,18,06,11,16,19,15,03,22,26,08,,,1.7,0.8,1.5*33
$GPRMC,161136.000,A,6445.7198,N,02340.7617,W,34.64,71.96,050912,,,A*7B
$GPGGA,161137.000,6445.7227,N,02340.7400,W,1,10,0.8,99.5,M,61.2,M,,0000*71
$GPGSA,A,3,18,06,11,16,19,15,03,22,26,08,,,1.7,0.8,1.5*33
$GPRMC,161137.000,A,6445.7227,N,02340.7400,W,35.01,72.18,050912,,,A*7E
$GPGGA,161138.000,6445.7257,N,02340.7182,W,1,10,0.8,99.8,M,61.2,M,,0000*7B
$GPGSA,A,3,18,06,11,16,19,15,03,22,26,08,,,1.7,0.8,1.5*33
$GPGSV,3,1,12,19,73,221,29,03,61,130,36,06,48,114,40,08,35,300,33*7A
$GPGSV,3,2,12,18,32,062,34,22,30,111,36,07,28,252,,11,24,223,18*73
$GPGSV,3,3,12,16,20,154,31,26,16,340,34,15,15,019,25,21,08,053,27*79
$GPRMC,161138.000,A,6445.7257,N,02340.7182,W,35.39,72.31,050912,,,A*79
$GPGGA,161139.000,6445.7287,N,02340.6961,W,1,11,0.8,100.2,M,61.2,M,,0000*49
$GPGSA,A,3,18,06,11,16,19,15,07,03,22,26,08,,1.7,0.8,1.5*34
$GPRMC,161139.000,A,6445.7287,N,02340.6961,W,35.60,72.43,050912,,,A*78
$GPGGA,161140.000,6445.7316,N,02340.6739,W,1,11,0.8,100.5,M,61.2,M,,0000*4A
$GPGSA,A,3,18,06,11,16,19,15,07,03,22,26,08,,1.7,0.8,1.5*34
$GPRMC,161140.000,A,6445.7316,N,02340.6739,W,35.94,72.46,050912,,,A*72
$GPGGA,161141.000,6445.7346,N,02340.6515,W,1,11,0.8,100.8,M,61.2,M,,0000*4F
$GPGSA,A,3,18,06,11,16,19,15,07,03,22,26,08,,1.7,0.8,1.5*34
$GPRMC,161141.000,A,6445.7346,N,02340.6515,W,36.20,72.49,050912,,,A*79
$GPGGA,161142.000,6445.7377,N,02340.6289,W,1,11,0.8,101.2,M,61.2,M,,0000*47
$GPGSA,A,3,18,06,11,16,19,15,07,03,22,26,08,,1.7,0.8,1.5*34
$GPRMC,161142.000,A,6445.7377,N,02340.6289,W,36.46,72.15,050912,,,A*73
$GPGGA,161143.000,6445.7408,N,02340.6063,W,1,11,0.8,101.6,M,61.2,M,,0000*4B
$GPGSA,A,3,18,06,11,16,19,15,07,03,22,26,08,,1.7,0.8,1.5*34
$GPGSV,3,1,12,19,73,220,29,03,61,130,36,06,48,114,40,08,35,299,34*7D
$GPGSV,3,2,12,18,32,062,34,22,31,111,35,07,28,252,17,11,24,223,23*7F
$GPGSV,3,3,12,16,20,154,31,26,16,340,34,15,15,018,25,21,08,053,27*78
$GPRMC,161143.000,A,6445.7408,N,02340.6063,W,36.49,72.28,050912,,,A*7A
$GPGGA,161144.000,6445.7438,N,02340.5835,W,1,11,0.8,102.0,M,61.2,M,,0000*42
$GPGSA,A,3,18,06,11,16,19,15,07,03,22,26,08,,1.7,0.8,1.5*34
$GPRMC,161144.000,A,6445.7438,N,02340.5835,W,36.77,72.36,050912,,,A*74
$GPGGA,161145.000,6445.7469,N,02340.5605,W,1,11,0.8,102.4,M,61.2,M,,0000*4E
$GPGSA,A,3,18,06,11,16,19,15,07,03,22,26,08,,1.7,0.8,1.5*34
$GPRMC,161145.000,A,6445.7469,N,02340.5605,W,37.01,72.74,050912,,,A*7A
$GPGGA,161146.000,6445.7500,N,02340.5374,W,1,11,0.8,102.9,M,61.2,M,,0000*4D
$GPGSA,A,3,18,06,11,16,19,15,07,03,22,26,08,,1.7,0.8,1.5*34
$GPRMC,161146.000,A,6445.7500,N,02340.5374,W,37.25,72.48,050912,,,A*7D
$GPGGA,161147.000,6445.7530,N,02340.5143,W,1,11,0.8,103.3,M,61.2,M,,0000*42
$GPGSA,A,3,18,06,11,16,19,15,07,03,22,26,08,,1.7,0.8,1.5*34
$GPRMC,161147.000,A,6445.7530,N,02340.5143,W,37.28,72.55,050912,,,A*78
$GPGGA,161148.000,6445.7561,N,02340.4910,W,1,11,0.8,103.8,M,61.2,M,,0000*4D
$GPGSA,A,3,18,06,11,16,19,15,07,03,22,26,08,,1.7,0.8,1.5*34
$GPGSV,3,1,12,19,73,220,31,03,61,130,37,06,48,114,40,08,35,299,34*75
$GPGSV,3,2,12,18,32,062,33,22,31,111,35,07,28,252,20,11,24,223,28*77
$GPGSV,3,3,12,16,20,154,32,26,16,340,34,15,15,018,25,21,08,053,27*7B
$GPRMC,161148.000,A,6445.7561,N,02340.4910,W,37.42,72.55,050912,,,A*70
$GPGGA,161149.000,6445.7592,N,02340.4677,W,1,11,0.8,104.3,M,61.2,M,,0000*42
$GPGSA,A,3,18,06,11,16,19,15,07,03,22,26,08,,1.7,0.8,1.5*34
$GPRMC,161149.000,A,6445.7592,N,02340.4677,W,37.54,72.75,050912,,,A*76
$GPGGA,161150.000,6445.7623,N,02340.4443,W,1,11,0.8,104.7,M,61.2,M,,0000*42
$GPGSA,A,3,18,06,11,16,19,15,07,03,22,26,08,,1.7,0.8,1.5*34
$GPRMC,161150.000,A,6445.7623,N,02340.4443,W,37.55,73.08,050912,,,A*78
$GPGGA,161151.000,6445.7652,N,02340.4208,W,1,11,0.8,105.1,M,61.2,M,,0000*4B
$GPGSA,A,3,18,06,11,16,19,15,07,03,22,26,08,,1.7,0.8,1.5*34
$GPRMC,161151.000,A,6445.7652,N,02340.4208,W,37.69,73.89,050912,,,A*70
$GPGGA,161152.000,6445.7678,N,02340.3969,W,1,11,0.8,105.6,M,61.2,M,,0000*4C
$GPGSA,A,3,18,06,11,16,19,15,07,03,22,26,08,,1.7,0.8,1.5*34
$GPRMC,161152.000,A,6445.7678,N,02340.3969,W,37.88,75.46,050912,,,A*7A
$GPGGA,161153.000,6445.7702,N,02340.3728,W,1,10,0.8,106.0,M,61.2,M,,0000*4E
$GPGSA,A,3,18,06,11,16,19,15,07,03,22,08,,,1.7,0.8,1.5*30
$GPGSV,3,1,12,19,73,220,37,03,61,130,37,06,48,114,40,08,35,299,34*73
$GPGSV,3,2,12,18,32,062,31,22,31,111,35,07,28,252,33,11,24,223,34*7A
$GPGSV,3,3,12,16,20,154,32,26,16,340,20,15,15,018,28,21,08,053,29*7D
$GPRMC,161153.000,A,6445.7702,N,02340.3728,W,38.06,76.99,050912,,,A*74
$GPGGA,161154.000,6445.7724,N,02340.3484,W,1,10,0.8,106.4,M,61.2,M,,0000*4C
$GPGSA,A,3,18,06,11,16,19,15,07,03,22,08,,,1.7,0.8,1.5*30
$GPRMC,161154.000,A,6445.7724,N,02340.3484,W,38.39,78.34,050912,,,A*77
$GPGGA,161155.000,6445.7741,N,02340.3238,W,1,11,0.8,106.8,M,61.2,M,,0000*42
$GPGSA,A,3,18,06,11,16,19,15,07,03,22,26,08,,1.7,0.8,1.5*34
$GPRMC,161155.000,A,6445.7741,N,02340.3238,W,38.38,80.55,050912,,,A*75
$GPGGA,161156.000,6445.7756,N,02340.2992,W,1,11,0.8,107.1,M,61.2,M,,0000*45
$GPGSA,A,3,18,06,11,16,19,15,07,03,22,26,08,,1.7,0.8,1.5*34
$GPRMC,161156.000,A,6445.7756,N,02340.2992,W,38.40,81.82,050912,,,A*7E
$GPGGA,161157.000,6445.7769,N,02340.2746,W,1,10,0.8,107.4,M,61.2,M,,0000*4B
$GPGSA,A,3,06,11,16,19,15,07,03,22,26,08,,,1.7,0.8,1.5*3D
$GPRMC,161157.000,A,6445.7769,N,02340.2746,W,38.26,83.08,050912,,,A*74
$GPGGA,161158.000,6445.7778,N,02340.2499,W,1,10,0.8,107.7,M,61.2,M,,0000*46
$GPGSA,A,3,18,06,11,16,19,15,07,03,26,08,,,1.7,0.8,1.5*34
$GPGSV,3,1,12,19,73,220,37,03,61,130,39,06,48,114,40,08,35,299,33*7A
$GPGSV,3,2,12,18,32,062,34,22,31,111,19,07,28,252,26,11,24,223,36*77
$GPGSV,3,3,12,16,20,154,36,26,16,340,28,15,15,018,29,21,08,053,32*7A
$GPRMC,161158.000,A,6445.7778,N,02340.2499,W,38.14,85.01,050912,,,A*74
$GPGGA,161159.000,6445.7785,N,02340.2254,W,1,10,0.8,107.9,M,61.2,M,,0000*4C
$GPGSA,A,3,18,06,11,16,19,15,07,03,26,08,,,1.7,0.8,1.5*34
$GPRMC,161159.000,A,6445.7785,N,02340.2254,W,38.02,86.63,050912,,,A*70
$GPGGA,161200.000,6445.7789,N,02340.2007,W,1,11,0.8,108.1,M,61.2,M,,0000*4D
$GPGSA,A,3,18,06,11,16,19,15,07,03,22,26,08,,1.7,0.8,1.5*34
$GPRMC,161200.000,A,6445.7789,N,02340.2007,W,38.03,87.75,050912,,,A*70
$GPGGA,161201.000,6445.7791,N,02340.1762,W,1,11,0.8,108.1,M,61.2,M,,0000*42
$GPGSA,A,3,18,06,11,16,19,15,07,03,22,26,08,,1.7,0.8,1.5*34
$GPRMC,161201.000,A,6445.7791,N,02340.1762,W,37.92,88.46,050912,,,A*77
$GPGGA,161202.000,6445.7793,N,02340.1516,W,1,11,0.8,108.2,M,61.2,M,,0000*41
$GPGSA,A,3,18,06,11,16,19,15,07,03,22,26,08,,1.7,0.8,1.5*34
$GPRMC,161202.000,A,6445.7793,N,02340.1516,W,37.97,88.95,050912,,,A*7C
$GPGGA,161203.000,6445.7793,N,02340.1270,W,1,10,0.9,108.2,M,61.2,M,,0000*47
$GPGSA,A,3,18,06,11,19,15,07,03,22,26,08,,,2.0,0.9,1.8*3B
$GPGSV,3,1,12,19,73,220,37,03,61,130,44,06,48,114,35,08,35,299,33*72
$GPGSV,3,2,12,18,32,062,31,22,31,111,33,07,28,252,26,11,24,223,36*7A
$GPGSV,3,3,12,16,20,154,,26,16,340,26,15,15,018,16,21,08,053,16*7B
$GPRMC,161203.000,A,6445.7793,N,02340.1270,W,38.07,89.60,050912,,,A*77
$GPGGA,161204.000,6445.7792,N,02340.1023,W,1,10,0.8,108.3,M,61.2,M,,0000*45
$GPGSA,A,3,18,06,11,16,19,15,07,03,26,08,,,1.7,0.8,1.5*34
$GPRMC,161204.000,A,6445.7792,N,02340.1023,W,38.24,90.03,050912,,,A*79
$GPGGA,161205.000,6445.7791,N,02340.0775,W,1,10,0.8,108.5,M,61.2,M,,0000*44
$GPGSA,A,3,18,06,11,16,19,15,07,03,26,08,,,1.7,0.8,1.5*34
$GPRMC,161205.000,A,6445.7791,N,02340.0775,W,38.31,90.37,050912,,,A*7D
$GPGGA,161206.000,6445.7790,N,02340.0530,W,1,10,0.8,108.8,M,61.2,M,,0000*48
$GPGSA,A,3,18,06,11,16,19,15,07,03,26,08,,,1.7,0.8,1.5*34
$GPRMC,161206.000,A,6445.7790,N,02340.0530,W,38.04,90.19,050912,,,A*76
$GPGGA,161207.000,6445.7789,N,02340.0289,W,1,11,0.8,109.4,M,61.2,M,,0000*48
$GPGSA,A,3,18,06,11,16,19,15,07,03,22,26,08,,1.7,0.8,1.5*34
$GPRMC,161207.000,A,6445.7789,N,02340.0289,W,37.43,90.08,050912,,,A*76
$GPGGA,161208.000,6445.7788,N,02340.0052,W,1,11,0.8,110.2,M,61.2,M,,0000*4C
$GPGSA,A,3,18,06,11,16,19,15,07,03,22,26,08,,1.7,0.8,1.5*34
$GPGSV,3,1,12,19,73,220,37,03,61,130,44,06,48,114,29,08,35,299,26*7B
$GPGSV,3,2,12,18,32,062,34,22,31,111,31,07,28,252,35,11,24,223,36*7F
$GPGSV,3,3,12,16,20,154,33,26,16,340,31,15,15,018,13,21,08,053,13*7D
$GPRMC,161208.000,A,6445.7788,N,02340.0052,W,36.61,90.06,050912,,,A*73
$GPGGA,161209.000,6445.7789,N,02339.9822,W,1,11,0.8,111.1,M,61.2,M,,0000*46
$GPGSA,A,3,18,06,11,16,19,15,07,03,22,26,08,,1.7,0.8,1.5*34
$GPRMC,161209.000,A,6445.7789,N,02339.9822,W,35.74,89.01,050912,,,A*73
$GPGGA,161210.000,6445.7793,N,02339.9597,W,1,09,0.9,112.3,M,61.2,M,,0000*4F
$GPGSA,A,3,18,11,16,19,07,03,22,26,08,,,,1.8,0.9,1.6*3B
$GPRMC,161210.000,A,6445.7793,N,02339.9597,W,34.95,87.00,050912,,,A*72
$GPGGA,161211.000,6445.7801,N,02339.9378,W,1,10,0.8,113.6,M,61.2,M,,0000*40
$GPGSA,A,3,18,06,11,16,19,07,03,22,26,08,,,1.8,0.8,1.5*3F
$GPRMC,161211.000,A,6445.7801,N,02339.9378,W,34.18,84.04,050912,,,A*72
$GPGGA,161212.000,6445.7815,N,02339.9162,W,1,10,0.8,114.9,M,61.2,M,,0000*47
$GPGSA,A,3,18,06,11,16,19,07,03,22,26,08,,,1.8,0.8,1.5*3F
$GPRMC,161212.000,A,6445.7815,N,02339.9162,W,33.99,80.49,050912,,,A*7E
$GPGGA,161213.000,6445.7836,N,02339.8950,W,1,10,0.8,116.1,M,61.2,M,,0000*45
$GPGSA,A,3,18,06,11,16,19,07,03,22,26,08,,,1.8,0.8,1.5*3F
$GPGSV,3,1,12,19,73,220,37,03,61,130,38,06,48,114,35,08,35,299,24*7F
$GPGSV,3,2,12,18,32,062,33,22,31,111,32,07,28,252,28,11,25,223,32*72
$GPGSV,3,3,12,16,20,154,27,26,16,340,23,15,15,018,,28,08,312,*74
$GPRMC,161213.000,A,6445.7836,N,02339.8950,W,33.77,76.59,050912,,,A*7E
$GPGGA,161214.000,6445.7865,N,02339.8744,W,1,10,0.8,117.4,M,61.2,M,,0000*4B
$GPGSA,A,3,18,06,11,16,19,07,03,22,26,08,,,1.8,0.8,1.5*3F
$GPRMC,161214.000,A,6445.7865,N,02339.8744,W,33.78,70.97,050912,,,A*7F
$GPGGA,161215.000,6445.7900,N,02339.8546,W,1,10,0.8,118.7,M,61.2,M,,0000*44
$GPGSA,A,3,18,06,11,16,19,07,03,22,26,08,,,1.8,0.8,1.5*3F
$GPRMC,161215.000,A,6445.7900,N,02339.8546,W,33.50,66.92,050912,,,A*74
$GPGGA,161216.000,6445.7939,N,02339.8349,W,1,10,0.8,120.0,M,61.2,M,,0000*48
