$GPGGA,152151.000,5230.4171,N,01322.7708,E,1,08,1.2,70.2,M,44.7,M,,0000*6B
$GPGSA,A,3,03,22,21,18,16,06,07,15,,,,,2.1,1.2,1.7*3F
$GPRMC,152151.000,A,5230.4171,N,01322.7708,E,1.52,127.88,100912,,,A*69
$GPGGA,152152.000,5230.4168,N,01322.7717,E,1,10,0.9,70.0,M,44.7,M,,0000*6F
$GPGSA,A,3,03,22,21,18,16,06,07,15,19,30,,,1.6,0.9,1.3*3E
$GPRMC,152152.000,A,5230.4168,N,01322.7717,E,1.90,127.37,100912,,,A*66
$GPGGA,152153.000,5230.4166,N,01322.7725,E,1,10,0.9,70.0,M,44.7,M,,0000*61
$GPGSA,A,3,03,22,21,18,16,06,07,15,19,30,,,1.6,0.9,1.3*3E
$GPRMC,152153.000,A,5230.4166,N,01322.7725,E,1.42,115.70,100912,,,A*65
$GPGGA,152154.000,5230.4165,N,01322.7733,E,1,10,0.9,69.9,M,44.7,M,,0000*63
$GPGSA,A,3,03,22,21,18,16,06,07,15,19,30,,,1.6,0.9,1.3*3E
$GPRMC,152154.000,A,5230.4165,N,01322.7733,E,1.42,107.19,100912,,,A*6A
$GPGGA,152155.000,5230.4166,N,01322.7743,E,1,10,0.9,69.9,M,44.7,M,,0000*66
$GPGSA,A,3,03,22,21,18,16,06,07,15,19,30,,,1.6,0.9,1.3*3E
$GPGSV,3,1,12,06,83,235,27,03,68,281,30,18,52,090,29,16,47,209,35*74
$GPGSV,3,2,12,22,45,160,42,19,38,292,33,21,34,071,31,30,20,188,29*7A
$GPGSV,3,3,12,15,14,050,34,07,13,302,23,08,09,340,23,26,06,015,35*7B
$GPRMC,152155.000,A,5230.4166,N,01322.7743,E,1.52,93.76,100912,,,A*5B
$GPGGA,152156.000,5230.4165,N,01322.7750,E,1,09,1.2,69.8,M,44.7,M,,0000*67
$GPGSA,A,3,03,22,21,18,16,06,07,15,19,,,,2.1,1.2,1.7*37
$GPRMC,152156.000,A,5230.4165,N,01322.7750,E,1.09,117.93,100912,,,A*61
$GPGGA,152157.000,5230.4163,N,01322.7757,E,1,10,0.9,69.6,M,44.7,M,,0000*6B
$GPGSA,A,3,03,22,21,18,16,06,07,15,19,30,,,1.6,0.9,1.3*3E
$GPRMC,152157.000,A,5230.4163,N,01322.7757,E,1.26,137.31,100912,,,A*66
$GPGGA,152158.000,5230.4162,N,01322.7764,E,1,10,0.9,69.6,M,44.7,M,,0000*65
$GPGSA,A,3,03,22,21,18,16,06,07,15,19,30,,,1.6,0.9,1.3*3E
$GPRMC,152158.000,A,5230.4162,N,01322.7764,E,1.31,130.91,100912,,,A*63
$GPGGA,152159.000,5230.4161,N,01322.7771,E,1,10,0.9,69.7,M,44.7,M,,0000*62
$GPGSA,A,3,03,22,21,18,16,06,07,15,19,30,,,1.6,0.9,1.3*3E
$GPRMC,152159.000,A,5230.4161,N,01322.7771,E,1.28,133.61,100912,,,A*61
$GPGGA,152200.000,5230.4162,N,01322.7781,E,1,10,0.9,69.7,M,44.7,M,,0000*61
$GPGSA,A,3,03,22,21,18,16,06,07,15,19,30,,,1.6,0.9,1.3*3E
$GPGSV,3,1,12,06,83,235,26,03,68,281,30,18,52,090,30,16,47,209,36*7E
$GPGSV,3,2,12,22,45,160,42,19,38,292,33,21,34,071,32,30,20,188,31*70
$GPGSV,3,3,12,15,14,050,30,07,13,302,23,08,09,340,29,26,06,015,26*77
$GPRMC,152200.000,A,5230.4162,N,01322.7781,E,1.54,84.46,100912,,,A*51
$GPGGA,152201.000,5230.4163,N,01322.7788,E,1,10,0.9,69.7,M,44.7,M,,0000*68
$GPGSA,A,3,03,22,21,18,16,06,07,15,19,30,,,1.6,0.9,1.3*3E
$GPRMC,152201.000,A,5230.4163,N,01322.7788,E,1.00,98.37,100912,,,A*52
$GPGGA,152202.000,5230.4163,N,01322.7797,E,1,10,0.9,69.5,M,44.7,M,,0000*67
$GPGSA,A,3,03,22,21,18,16,06,07,15,19,30,,,1.6,0.9,1.3*3E
$GPRMC,152202.000,A,5230.4163,N,01322.7797,E,1.25,98.95,100912,,,A*50
$GPGGA,152203.000,5230.4165,N,01322.7807,E,1,10,0.9,69.3,M,44.7,M,,0000*60
$GPGSA,A,3,03,22,21,18,16,06,07,15,19,30,,,1.6,0.9,1.3*3E
$GPRMC,152203.000,A,5230.4165,N,01322.7807,E,1.64,91.09,100912,,,A*58
$GPGGA,152204.000,5230.4166,N,01322.7818,E,1,10,0.9,69.0,M,44.7,M,,0000*69
$GPGSA,A,3,03,22,21,18,16,06,07,15,19,30,,,1.6,0.9,1.3*3E
$GPRMC,152204.000,A,5230.4166,N,01322.7818,E,1.63,95.12,100912,,,A*5B
$GPGGA,152205.000,5230.4167,N,01322.7828,E,1,10,0.9,68.5,M,44.7,M,,0000*6E
$GPGSA,A,3,03,22,21,18,16,06,07,15,19,30,,,1.6,0.9,1.3*3E
$GPGSV,3,1,12,06,83,234,31,03,68,280,38,18,52,090,30,16,47,209,35*73
$GPGSV,3,2,12,22,45,160,44,19,38,292,41,21,33,071,35,30,20,188,36*74
$GPGSV,3,3,12,15,14,050,29,07,13,302,26,08,09,339,28,26,06,015,27*74
$GPRMC,152205.000,A,5230.4167,N,01322.7828,E,1.67,93.92,100912,,,A*52
$GPGGA,152206.000,5230.4168,N,01322.7839,E,1,10,0.9,68.0,M,44.7,M,,0000*67
$GPGSA,A,3,03,22,21,18,16,06,07,15,19,30,,,1.6,0.9,1.3*3E
$GPRMC,152206.000,A,5230.4168,N,01322.7839,E,1.76,92.41,100912,,,A*51
$GPGGA,152207.000,5230.4169,N,01322.7849,E,1,09,0.9,67.5,M,44.7,M,,0000*62
$GPGSA,A,3,03,22,21,18,16,07,15,19,30,,,,1.7,0.9,1.5*3F
$GPRMC,152207.000,A,5230.4169,N,01322.7849,E,1.30,103.38,100912,,,A*63
$GPGGA,152208.000,5230.4169,N,01322.7859,E,1,10,0.9,67.1,M,44.7,M,,0000*60
$GPGSA,A,3,03,22,21,18,16,06,07,15,19,30,,,1.6,0.9,1.3*3E
$GPRMC,152208.000,A,5230.4169,N,01322.7859,E,1.37,108.01,100912,,,A*6B
$GPGGA,152209.000,5230.4170,N,01322.7869,E,1,10,0.9,66.8,M,44.7,M,,0000*62
$GPGSA,A,3,03,22,21,18,16,06,07,15,19,30,,,1.6,0.9,1.3*3E
$GPRMC,152209.000,A,5230.4170,N,01322.7869,E,1.47,105.40,100912,,,A*6E
$GPGGA,152210.000,5230.4170,N,01322.7878,E,1,10,0.9,66.6,M,44.7,M,,0000*64
$GPGSA,A,3,03,22,21,18,16,06,07,15,19,30,,,1.6,0.9,1.3*3E
$GPGSV,3,1,12,06,83,234,29,03,68,280,31,18,52,090,30,16,47,209,38*7E
$GPGSV,3,2,12,22,45,160,44,19,38,292,42,21,33,071,33,30,20,188,36*71
$GPGSV,3,3,12,15,14,050,34,07,13,302,21,08,09,339,30,26,06,015,32*72
$GPRMC,152210.000,A,5230.4170,N,01322.7878,E,1.37,117.12,100912,,,A*65
$GPGGA,152211.000,5230.4169,N,01322.7886,E,1,09,0.9,66.6,M,44.7,M,,0000*64
$GPGSA,A,3,03,22,21,18,16,07,15,19,30,,,,1.7,0.9,1.5*3F
$GPRMC,152211.000,A,5230.4169,N,01322.7886,E,1.45,148.10,100912,,,A*60
$GPGGA,152212.000,5230.4167,N,01322.7892,E,1,10,0.9,66.7,M,44.7,M,,0000*65
$GPGSA,A,3,03,22,21,18,16,06,07,15,19,30,,,1.6,0.9,1.3*3E
$GPRMC,152212.000,A,5230.4167,N,01322.7892,E,1.34,156.63,100912,,,A*65
$GPGGA,152213.000,5230.4166,N,01322.7899,E,1,10,0.9,66.8,M,44.7,M,,0000*61
$GPGSA,A,3,03,22,21,18,16,06,07,15,19,30,,,1.6,0.9,1.3*3E
$GPRMC,152213.000,A,5230.4166,N,01322.7899,E,1.37,152.01,100912,,,A*6D
$GPGGA,152214.000,5230.4167,N,01322.7908,E,1,10,0.9,66.9,M,44.7,M,,0000*6F
$GPGSA,A,3,03,22,21,18,16,06,07,15,19,30,,,1.6,0.9,1.3*3E
$GPRMC,152214.000,A,5230.4167,N,01322.7908,E,1.31,108.06,100912,,,A*6C
$GPGGA,152215.000,5230.4169,N,01322.7920,E,1,10,0.9,66.9,M,44.7,M,,0000*6A
$GPGSA,A,3,03,22,21,18,16,06,07,15,19,30,,,1.6,0.9,1.3*3E
$GPGSV,3,1,12,06,83,234,30,03,68,280,34,18,52,090,29,16,47,209,37*74
$GPGSV,3,2,12,22,45,160,43,19,38,292,43,21,33,071,33,30,20,188,34*75
$GPGSV,3,3,12,15,14,050,31,07,13,302,24,08,09,339,26,26,06,015,31*76
$GPRMC,152215.000,A,5230.4169,N,01322.7920,E,1.81,89.98,100912,,,A*5D
$GPGGA,152216.000,5230.4171,N,01322.7932,E,1,10,0.9,66.9,M,44.7,M,,0000*63
$GPGSA,A,3,03,22,21,18,16,06,07,15,19,30,,,1.6,0.9,1.3*3E
$GPRMC,152216.000,A,5230.4171,N,01322.7932,E,1.76,90.77,100912,,,A*55
$GPGGA,152217.000,5230.4172,N,01322.7943,E,1,10,0.9,66.7,M,44.7,M,,0000*69
$GPGSA,A,3,03,22,21,18,16,06,07,15,19,30,,,1.6,0.9,1.3*3E
$GPRMC,152217.000,A,5230.4172,N,01322.7943,E,1.83,92.48,100912,,,A*55
$GPGGA,152218.000,5230.4175,N,01322.7955,E,1,10,0.9,66.3,M,44.7,M,,0000*62
$GPGSA,A,3,03,22,21,18,16,06,07,15,19,30,,,1.6,0.9,1.3*3E
$GPRMC,152218.000,A,5230.4175,N,01322.7955,E,1.87,87.24,100912,,,A*50
$GPGGA,152219.000,5230.4177,N,01322.7968,E,1,09,1.0,65.9,M,44.7,M,,0000*66
$GPGSA,A,3,03,22,21,18,16,06,07,19,30,,,,1.8,1.0,1.5*3A
$GPRMC,152219.000,A,5230.4177,N,01322.7968,E,2.03,86.64,100912,,,A*57
$GPGGA,152220.000,5230.4178,N,01322.7979,E,1,09,1.0,65.3,M,44.7,M,,0000*69
$GPGSA,A,3,03,22,21,18,16,06,07,19,30,,,,1.8,1.0,1.5*3A
$GPGSV,3,1,12,06,83,234,31,03,68,280,35,18,52,090,29,16,47,209,38*7B
$GPGSV,3,2,12,22,45,160,44,19,38,292,43,21,33,071,33,30,20,188,30*76
$GPGSV,3,3,12,15,14,050,26,07,13,302,24,08,09,339,32,26,06,015,24*71
$GPRMC,152220.000,A,5230.4178,N,01322.7979,E,1.80,94.43,100912,,,A*5C
$GPGGA,152221.000,5230.4180,N,01322.7991,E,1,10,0.9,64.7,M,44.7,M,,0000*6C
$GPGSA,A,3,03,22,21,18,16,06,07,15,19,30,,,1.6,0.9,1.3*3E
$GPRMC,152221.000,A,5230.4180,N,01322.7991,E,1.79,93.72,100912,,,A*5F
$GPGGA,152222.000,5230.4181,N,01322.8002,E,1,10,0.9,64.1,M,44.7,M,,0000*64
$GPGSA,A,3,03,22,21,18,16,06,07,15,19,30,,,1.6,0.9,1.3*3E
$GPRMC,152222.000,A,5230.4181,N,01322.8002,E,1.68,98.81,100912,,,A*56
$GPGGA,152223.000,5230.4183,N,01322.8013,E,1,09,1.0,63.5,M,44.7,M,,0000*64
$GPGSA,A,3,03,22,21,18,16,06,07,19,30,,,,1.8,1.0,1.5*3A
$GPRMC,152223.000,A,5230.4183,N,01322.8013,E,1.85,91.89,100912,,,A*57
$GPGGA,152224.000,5230.4186,N,01322.8026,E,1,08,1.3,62.8,M,44.7,M,,0000*6E
$GPGSA,A,3,03,22,21,18,16,06,07,19,,,,,2.2,1.3,1.9*3F
$GPRMC,152224.000,A,5230.4186,N,01322.8026,E,2.11,84.42,100912,,,A*5E
$GPGGA,152225.000,5230.4188,N,01322.8039,E,1,10,0.9,62.2,M,44.7,M,,0000*67
$GPGSA,A,3,03,22,21,18,16,06,07,30,15,19,,,1.6,0.9,1.3*3E
$GPGSV,3,1,12,06,83,234,31,03,68,280,38,18,52,090,29,16,47,209,32*7C
$GPGSV,3,2,12,22,45,160,43,19,38,292,44,21,33,071,33,30,20,188,36*70
$GPGSV,3,3,12,15,14,050,23,07,13,302,23,08,09,339,35,26,06,015,*72
$GPRMC,152225.000,A,5230.4188,N,01322.8039,E,2.15,86.30,100912,,,A*5C
$GPGGA,152226.000,5230.4191,N,01322.8052,E,1,09,1.0,61.5,M,44.7,M,,0000*65
$GPGSA,A,3,03,22,21,18,16,06,07,30,19,,,,1.8,1.0,1.5*3A
$GPRMC,152226.000,A,5230.4191,N,01322.8052,E,1.95,87.90,100912,,,A*5A
$GPGGA,152227.000,5230.4193,N,01322.8064,E,1,09,1.0,60.7,M,44.7,M,,0000*60
$GPGSA,A,3,03,22,21,18,16,06,07,30,19,,,,1.8,1.0,1.5*3A
$GPRMC,152227.000,A,5230.4193,N,01322.8064,E,1.88,92.66,100912,,,A*5D
$GPGGA,152228.000,5230.4195,N,01322.8076,E,1,10,0.9,59.9,M,44.7,M,,0000*6E
$GPGSA,A,3,03,22,21,18,16,06,07,30,15,19,,,1.6,0.9,1.3*3E
$GPRMC,152228.000,A,5230.4195,N,01322.8076,E,1.97,90.38,100912,,,A*50
$GPGGA,152229.000,5230.4197,N,01322.8090,E,1,09,1.0,59.1,M,44.7,M,,0000*6D
$GPGSA,A,3,03,22,21,18,16,06,07,30,19,,,,1.8,1.0,1.5*3A
$GPRMC,152229.000,A,5230.4197,N,01322.8090,E,2.10,93.87,100912,,,A*50
$GPGGA,152230.000,5230.4199,N,01322.8103,E,1,09,1.0,58.3,M,44.7,M,,0000*63
$GPGSA,A,3,03,22,21,18,16,06,07,30,19,,,,1.8,1.0,1.5*3A
$GPGSV,3,1,12,06,83,234,30,03,68,280,37,18,52,090,29,16,47,209,35*75
$GPGSV,3,2,12,22,45,160,43,19,38,292,44,21,33,071,33,30,20,188,36*70
$GPGSV,3,3,12,15,14,050,26,07,13,302,24,08,09,339,38,26,06,015,*7D
$GPRMC,152230.000,A,5230.4199,N,01322.8103,E,1.90,94.39,100912,,,A*54
$GPGGA,152231.000,5230.4201,N,01322.8116,E,1,09,1.0,57.5,M,44.7,M,,0000*6D
$GPGSA,A,3,03,22,21,18,16,06,07,30,19,,,,1.8,1.0,1.5*3A
$GPRMC,152231.000,A,5230.4201,N,01322.8116,E,1.96,94.26,100912,,,A*5B
$GPGGA,152232.000,5230.4204,N,01322.8130,E,1,09,1.0,56.8,M,44.7,M,,0000*63
$GPGSA,A,3,03,22,21,18,16,06,07,30,19,,,,1.8,1.0,1.5*3A
$GPRMC,152232.000,A,5230.4204,N,01322.8130,E,2.08,94.68,100912,,,A*57
$GPGGA,152233.000,5230.4206,N,01322.8144,E,1,10,0.9,56.1,M,44.7,M,,0000*6A
$GPGSA,A,3,03,22,21,18,16,06,07,30,15,19,,,1.6,0.9,1.3*3E
$GPRMC,152233.000,A,5230.4206,N,01322.8144,E,2.23,88.98,100912,,,A*5C
$GPGGA,152234.000,5230.4209,N,01322.8159,E,1,09,1.0,55.4,M,44.7,M,,0000*68
$GPGSA,A,3,03,22,21,18,16,06,07,30,19,,,,1.8,1.0,1.5*3A
$GPRMC,152234.000,A,5230.4209,N,01322.8159,E,2.21,91.82,100912,,,A*59
$GPGGA,152235.000,5230.4211,N,01322.8171,E,1,09,1.0,54.7,M,44.7,M,,0000*68
$GPGSA,A,3,03,22,21,18,16,06,07,30,19,,,,1.8,1.0,1.5*3A
$GPGSV,3,1,12,06,83,234,31,03,68,280,37,18,52,090,30,16,47,209,36*7F
$GPGSV,3,2,12,22,45,160,44,19,38,292,44,21,33,071,34,30,20,188,36*70
$GPGSV,3,3,12,15,14,050,24,07,13,302,25,08,09,339,30,26,06,015,*76
$GPRMC,152235.000,A,5230.4211,N,01322.8171,E,1.90,91.54,100912,,,A*59
$GPGGA,152236.000,5230.4213,N,01322.8182,E,1,08,1.0,54.1,M,44.7,M,,0000*62
$GPGSA,A,3,03,22,21,18,16,07,30,19,,,,,2.0,1.0,1.7*35
$GPRMC,152236.000,A,5230.4213,N,01322.8182,E,1.29,101.88,100912,,,A*6F
$GPGGA,152237.000,5230.4215,N,01322.8192,E,1,09,1.0,53.5,M,44.7,M,,0000*66
$GPGSA,A,3,03,22,21,18,16,06,07,30,19,,,,1.8,1.0,1.5*3A
$GPRMC,152237.000,A,5230.4215,N,01322.8192,E,1.29,102.30,100912,,,A*69
$GPGGA,152238.000,5230.4218,N,01322.8204,E,1,09,1.0,52.9,M,44.7,M,,0000*65
$GPGSA,A,3,03,22,21,18,16,06,07,30,19,,,,1.8,1.0,1.5*3A
$GPRMC,152238.000,A,5230.4218,N,01322.8204,E,1.81,81.79,100912,,,A*52
$GPGGA,152239.000,5230.4221,N,01322.8217,E,1,09,1.0,52.4,M,44.7,M,,0000*61
$GPGSA,A,3,03,22,21,18,16,06,07,30,19,,,,1.8,1.0,1.5*3A
$GPRMC,152239.000,A,5230.4221,N,01322.8217,E,1.94,81.38,100912,,,A*5A
$GPGGA,152240.000,5230.4224,N,01322.8228,E,1,09,1.0,51.9,M,44.7,M,,0000*68
$GPGSA,A,3,03,22,21,18,16,06,07,30,19,,,,1.8,1.0,1.5*3A
$GPGSV,3,1,12,06,83,234,30,03,68,280,37,18,52,090,30,16,47,209,36*7E
$GPGSV,3,2,12,22,45,160,43,19,38,292,44,21,33,071,29,30,20,188,37*7A
$GPGSV,3,3,12,15,14,050,23,07,13,302,35,08,09,339,38,26,06,015,*78
$GPRMC,152240.000,A,5230.4224,N,01322.8228,E,1.77,88.22,100912,,,A*52
$GPGGA,152241.000,5230.4226,N,01322.8240,E,1,09,1.0,51.3,M,44.7,M,,0000*6F
$GPGSA,A,3,03,22,21,18,16,06,07,30,19,,,,1.8,1.0,1.5*3A
$GPRMC,152241.000,A,5230.4226,N,01322.8240,E,1.68,98.37,100912,,,A*54
$GPGGA,152242.000,5230.4229,N,01322.8255,E,1,09,1.0,50.7,M,44.7,M,,0000*62
$GPGSA,A,3,03,22,21,18,16,06,07,30,19,,,,1.8,1.0,1.5*3A
$GPRMC,152242.000,A,5230.4229,N,01322.8255,E,2.36,87.03,100912,,,A*5D
$GPGGA,152243.000,5230.4232,N,01322.8270,E,1,09,1.0,50.1,M,44.7,M,,0000*68
$GPGSA,A,3,03,22,21,18,16,06,07,30,19,,,,1.8,1.0,1.5*3A
$GPRMC,152243.000,A,5230.4232,N,01322.8270,E,2.55,79.37,100912,,,A*52
$GPGGA,152244.000,5230.4236,N,01322.8285,E,1,09,1.0,49.5,M,44.7,M,,0000*6D
$GPGSA,A,3,03,22,21,18,16,06,07,30,19,,,,1.8,1.0,1.5*3A
$GPRMC,152244.000,A,5230.4236,N,01322.8285,E,2.25,84.94,100912,,,A*57
$GPGGA,152245.000,5230.4238,N,01322.8297,E,1,09,1.0,49.0,M,44.7,M,,0000*64
$GPGSA,A,3,03,22,21,18,16,06,07,30,19,,,,1.8,1.0,1.5*3A
$GPGSV,3,1,12,06,83,234,31,03,68,280,37,18,52,090,30,16,47,209,36*7F
$GPGSV,3,2,12,22,45,160,43,19,38,292,44,21,33,071,33,30,20,188,36*70
$GPGSV,3,3,12,15,14,050,23,07,13,302,40,08,09,339,35,26,06,015,24*71
$GPRMC,152245.000,A,5230.4238,N,01322.8297,E,1.84,92.12,100912,,,A*5A
$GPGGA,152246.000,5230.4241,N,01322.8311,E,1,09,1.0,48.4,M,44.7,M,,0000*63
$GPGSA,A,3,03,22,21,18,16,06,07,30,19,,,,1.8,1.0,1.5*3A
$GPRMC,152246.000,A,5230.4241,N,01322.8311,E,2.13,91.99,100912,,,A*55
$GPGGA,152247.000,5230.4243,N,01322.8325,E,1,09,1.0,47.7,M,44.7,M,,0000*6B
$GPGSA,A,3,03,22,21,18,16,06,07,30,19,,,,1.8,1.0,1.5*3A
$GPRMC,152247.000,A,5230.4243,N,01322.8325,E,2.00,97.47,100912,,,A*56
$GPGGA,152248.000,5230.4245,N,01322.8340,E,1,09,1.0,47.0,M,44.7,M,,0000*66
$GPGSA,A,3,03,22,21,18,16,06,07,30,19,,,,1.8,1.0,1.5*3A
$GPRMC,152248.000,A,5230.4245,N,01322.8340,E,2.16,94.59,100912,,,A*57
$GPGGA,152249.000,5230.4249,N,01322.8356,E,1,09,1.0,46.2,M,44.7,M,,0000*6F
$GPGSA,A,3,03,22,21,18,16,06,07,30,19,,,,1.8,1.0,1.5*3A
$GPRMC,152249.000,A,5230.4249,N,01322.8356,E,2.13,88.71,100912,,,A*5F
$GPGGA,152250.000,5230.4252,N,01322.8371,E,1,09,1.0,45.5,M,44.7,M,,0000*6C
$GPGSA,A,3,03,22,21,18,16,06,07,30,19,,,,1.8,1.0,1.5*3A
$GPGSV,3,1,12,06,83,234,31,03,68,280,37,18,52,090,30,16,47,209,36*7F
$GPGSV,3,2,12,22,45,160,43,19,38,292,38,21,33,071,34,30,20,188,31*7B
$GPGSV,3,3,12,15,14,050,20,07,13,302,32,08,09,339,36,26,06,015,*72
$GPRMC,152250.000,A,5230.4252,N,01322.8371,E,1.99,90.95,100912,,,A*5A
$GPGGA,152251.000,5230.4256,N,01322.8387,E,1,09,1.2,44.7,M,44.7,M,,0000*61
$GPGSA,A,3,03,22,21,18,16,06,07,15,19,,,,2.1,1.2,1.7*37
$GPRMC,152251.000,A,5230.4256,N,01322.8387,E,1.95,90.91,100912,,,A*5E
$GPGGA,152252.000,5230.4259,N,01322.8402,E,1,10,0.9,43.9,M,44.7,M,,0000*6C
$GPGSA,A,3,03,22,21,18,16,06,07,30,15,19,,,1.6,0.9,1.3*3E
$GPRMC,152252.000,A,5230.4259,N,01322.8402,E,1.88,87.91,100912,,,A*52
$GPGGA,152253.000,5230.4263,N,01322.8416,E,1,10,0.9,43.2,M,44.7,M,,0000*6A
$GPGSA,A,3,03,22,21,18,16,06,07,30,15,19,,,1.6,0.9,1.3*3E
$GPRMC,152253.000,A,5230.4263,N,01322.8416,E,1.83,90.03,100912,,,A*59
$GPGGA,152254.000,5230.4265,N,01322.8429,E,1,10,0.9,42.4,M,44.7,M,,0000*60
$GPGSA,A,3,03,22,21,18,16,06,07,30,15,19,,,1.6,0.9,1.3*3E
$GPRMC,152254.000,A,5230.4265,N,01322.8429,E,1.39,101.53,100912,,,A*69
$GPGGA,152255.000,5230.4269,N,01322.8442,E,1,09,1.0,41.8,M,44.7,M,,0000*6F
$GPGSA,A,3,03,22,21,18,16,06,30,15,19,,,,1.9,1.0,1.5*38
$GPGSV,3,1,12,06,83,234,28,03,68,280,37,18,52,090,30,16,47,209,37*76
$GPGSV,3,2,12,22,45,160,43,19,38,292,43,21,33,071,34,30,20,188,35*73
$GPGSV,3,3,12,15,14,050,23,07,13,302,,08,09,339,45,26,06,015,23*75
$GPRMC,152255.000,A,5230.4269,N,01322.8442,E,1.64,89.62,100912,,,A*52
$GPGGA,152256.000,5230.4272,N,01322.8456,E,1,10,0.9,41.3,M,44.7,M,,0000*68
$GPGSA,A,3,03,22,21,18,16,06,07,30,15,19,,,1.6,0.9,1.3*3E
$GPRMC,152256.000,A,5230.4272,N,01322.8456,E,1.76,89.73,100912,,,A*5D
$GPGGA,152257.000,5230.4275,N,01322.8468,E,1,10,0.9,40.8,M,44.7,M,,0000*69
$GPGSA,A,3,03,22,21,18,16,06,07,30,15,19,,,1.6,0.9,1.3*3E
$GPRMC,152257.000,A,5230.4275,N,01322.8468,E,1.47,87.43,100912,,,A*59
$GPGGA,152258.000,5230.4278,N,01322.8481,E,1,10,0.9,40.4,M,44.7,M,,0000*60
$GPGSA,A,3,03,22,21,18,16,06,07,30,15,19,,,1.6,0.9,1.3*3E
$GPRMC,152258.000,A,5230.4278,N,01322.8481,E,1.63,89.73,100912,,,A*57
$GPGGA,152259.000,5230.4280,N,01322.8493,E,1,08,1.0,40.1,M,44.7,M,,0000*61
$GPGSA,A,3,03,22,21,18,16,30,15,19,,,,,2.1,1.0,1.8*38
$GPRMC,152259.000,A,5230.4280,N,01322.8493,E,1.61,93.25,100912,,,A*58
$GPGGA,152300.000,5230.4283,N,01322.8505,E,1,10,0.9,39.7,M,44.7,M,,0000*68
$GPGSA,A,3,03,22,21,18,16,07,06,30,15,19,,,1.6,0.9,1.3*3E
$GPGSV,3,1,12,06,83,234,30,03,68,280,34,18,52,090,29,16,47,209,38*7B
$GPGSV,3,2,12,22,45,160,44,19,38,292,41,21,33,071,33,30,20,188,33*77
$GPGSV,3,3,12,15,14,050,23,07,13,302,31,08,09,339,30,26,06,015,17*72
$GPRMC,152300.000,A,5230.4283,N,01322.8505,E,1.53,97.11,100912,,,A*5A
$GPGGA,152301.000,5230.4285,N,01322.8516,E,1,10,0.9,39.3,M,44.7,M,,0000*69
$GPGSA,A,3,03,22,21,18,16,07,06,30,15,19,,,1.6,0.9,1.3*3E
$GPRMC,152301.000,A,5230.4285,N,01322.8516,E,1.58,88.21,100912,,,A*59
$GPGGA,152302.000,5230.4289,N,01322.8530,E,1,10,0.9,39.0,M,44.7,M,,0000*61
$GPGSA,A,3,03,22,21,18,16,07,06,30,15,19,,,1.6,0.9,1.3*3E
$GPRMC,152302.000,A,5230.4289,N,01322.8530,E,1.93,80.61,100912,,,A*59
$GPGGA,152303.000,5230.4291,N,01322.8542,E,1,10,0.9,38.6,M,44.7,M,,0000*6B
$GPGSA,A,3,03,22,21,18,16,07,06,30,15,19,,,1.6,0.9,1.3*3E
$GPRMC,152303.000,A,5230.4291,N,01322.8542,E,1.73,85.36,100912,,,A*5D
$GPGGA,152304.000,5230.4293,N,01322.8553,E,1,10,0.9,38.2,M,44.7,M,,0000*6A
$GPGSA,A,3,03,22,21,18,16,07,06,30,15,19,,,1.6,0.9,1.3*3E
$GPRMC,152304.000,A,5230.4293,N,01322.8553,E,1.45,95.85,100912,,,A*54
$GPGGA,152305.000,5230.4295,N,01322.8562,E,1,10,0.9,37.9,M,44.7,M,,0000*6B
$GPGSA,A,3,03,22,21,18,16,07,06,30,15,19,,,1.6,0.9,1.3*3E
$GPGSV,3,1,12,06,83,234,31,03,68,280,35,18,52,090,30,16,47,209,29*73
$GPGSV,3,2,12,22,45,160,43,19,38,292,43,21,33,071,32,30,20,188,32*72
$GPGSV,3,3,12,15,14,050,23,07,13,302,32,08,09,339,25,26,06,015,*73
$GPRMC,152305.000,A,5230.4295,N,01322.8562,E,1.35,101.94,100912,,,A*6A
$GPGGA,152306.000,5230.4295,N,01322.8572,E,1,09,0.9,37.6,M,44.7,M,,0000*6E
$GPGSA,A,3,03,22,18,16,07,06,30,15,19,,,,1.6,0.9,1.3*3D
$GPRMC,152306.000,A,5230.4295,N,01322.8572,E,1.52,108.66,100912,,,A*6D
$GPGGA,152307.000,5230.4295,N,01322.8583,E,1,10,0.9,37.4,M,44.7,M,,0000*6B
$GPGSA,A,3,03,22,21,18,16,07,06,30,15,19,,,1.6,0.9,1.3*3E
$GPRMC,152307.000,A,5230.4295,N,01322.8583,E,1.67,111.99,100912,,,A*6C
$GPGGA,152308.000,5230.4296,N,01322.8593,E,1,10,0.9,37.2,M,44.7,M,,0000*60
$GPGSA,A,3,03,22,21,18,16,07,06,30,15,19,,,1.6,0.9,1.3*3E
$GPRMC,152308.000,A,5230.4296,N,01322.8593,E,1.60,102.21,100912,,,A*67
$GPGGA,152309.000,5230.4297,N,01322.8602,E,1,10,0.9,36.9,M,44.7,M,,0000*61
$GPGSA,A,3,03,22,21,18,16,07,06,30,15,19,,,1.6,0.9,1.3*3E
$GPRMC,152309.000,A,5230.4297,N,01322.8602,E,1.28,91.77,100912,,,A*58
$GPGGA,152310.000,5230.4298,N,01322.8609,E,1,10,0.9,36.7,M,44.7,M,,0000*63
$GPGSA,A,3,03,22,21,18,16,07,06,30,15,19,,,1.6,0.9,1.3*3E
$GPGSV,3,1,12,06,83,234,31,03,68,280,34,18,52,090,29,16,47,209,33*71
$GPGSV,3,2,12,22,45,160,43,19,38,292,43,21,33,071,33,30,20,188,32*73
$GPGSV,3,3,12,15,14,050,22,07,13,302,30,08,09,339,32,26,06,015,21*75
$GPRMC,152310.000,A,5230.4298,N,01322.8609,E,0.96,97.23,100912,,,A*57
$GPGGA,152311.000,5230.4300,N,01322.8614,E,1,10,0.9,36.4,M,44.7,M,,0000*6D
$GPGSA,A,3,03,22,21,18,16,07,06,30,15,19,,,1.6,0.9,1.3*3E
$GPRMC,152338.000,A,5230.4339,N,01322.8677,E,0.85,61.57,100912,,,A*56
$GPGGA,152339.000,5230.4340,N,01322.8681,E,1,10,0.9,38.8,M,44.7,M,,0000*6D
$GPGSA,A,3,03,22,21,18,16,07,06,30,15,19,,,1.5,0.9,1.3*3D
$GPRMC,152339.000,A,5230.4340,N,01322.8681,E,0.99,84.51,100912,,,A*50
$GPGGA,152340.000,5230.4340,N,01322.8687,E,1,10,0.9,38.9,M,44.7,M,,0000*64
$GPGSA,A,3,03,22,21,18,16,07,06,30,15,19,,,1.5,0.9,1.3*3D
$GPGSV,3,1,12,06,83,229,31,03,68,280,42,18,52,089,28,16,46,209,33*74
$GPGSV,3,2,12,22,46,159,42,19,39,292,43,21,33,071,28,30,19,188,36*7E
$GPGSV,3,3,12,15,14,050,23,07,12,302,28,08,09,339,30,26,06,014,27*79
$GPRMC,152340.000,A,5230.4340,N,01322.8687,E,1.33,105.62,100912,,,A*61
$GPGGA,152341.000,5230.4338,N,01322.8694,E,1,10,0.9,39.0,M,44.7,M,,0000*60
$GPGSA,A,3,03,22,21,18,16,07,06,30,15,19,,,1.5,0.9,1.3*3D
$GPRMC,152341.000,A,5230.4338,N,01322.8694,E,1.67,114.41,100912,,,A*6D
$GPGGA,152342.000,5230.4337,N,01322.8701,E,1,10,0.9,39.1,M,44.7,M,,0000*60
$GPGSA,A,3,03,22,21,18,16,07,06,30,15,19,,,1.5,0.9,1.3*3D
$GPRMC,152342.000,A,5230.4337,N,01322.8701,E,1.50,107.03,100912,,,A*6C
$GPGGA,152343.000,5230.4337,N,01322.8708,E,1,10,0.9,39.2,M,44.7,M,,0000*6B
$GPGSA,A,3,03,22,21,18,16,07,06,30,15,19,,,1.5,0.9,1.3*3D
$GPRMC,152343.000,A,5230.4337,N,01322.8708,E,1.57,99.66,100912,,,A*56
$GPGGA,152344.000,5230.4337,N,01322.8716,E,1,10,0.9,39.4,M,44.7,M,,0000*65
$GPGSA,A,3,03,22,21,18,16,07,06,30,15,19,,,1.5,0.9,1.3*3D
$GPRMC,152344.000,A,5230.4337,N,01322.8716,E,1.74,87.11,100912,,,A*50
$GPGGA,152345.000,5230.4338,N,01322.8724,E,1,10,0.9,39.6,M,44.7,M,,0000*68
$GPGSA,A,3,03,22,21,18,16,07,06,30,15,19,,,1.5,0.9,1.3*3D
$GPGSV,3,1,12,06,83,229,30,03,68,280,36,18,52,089,30,16,46,209,40*7B
$GPGSV,3,2,12,22,46,159,42,19,39,292,39,21,33,071,29,30,19,188,31*75
$GPGSV,3,3,12,15,14,050,23,07,12,302,33,08,09,339,,26,06,014,*75
$GPRMC,152345.000,A,5230.4338,N,01322.8724,E,1.75,82.95,100912,,,A*57
$GPGGA,152346.000,5230.4339,N,01322.8731,E,1,09,0.9,39.9,M,44.7,M,,0000*69
$GPGSA,A,3,03,22,21,18,16,07,30,15,19,,,,1.7,0.9,1.5*3F
$GPRMC,152346.000,A,5230.4339,N,01322.8731,E,1.46,89.57,100912,,,A*54
$GPGGA,152347.000,5230.4339,N,01322.8738,E,1,09,1.2,40.1,M,44.7,M,,0000*6D
$GPGSA,A,3,03,22,21,18,16,07,06,15,19,,,,2.1,1.2,1.7*37
$GPRMC,152347.000,A,5230.4339,N,01322.8738,E,1.54,84.82,100912,,,A*5A
$GPGGA,152348.000,5230.4340,N,01322.8747,E,1,09,1.2,40.4,M,44.7,M,,0000*61
$GPGSA,A,3,03,22,21,18,16,07,06,15,19,,,,2.1,1.2,1.7*37
$GPRMC,152348.000,A,5230.4340,N,01322.8747,E,1.87,77.98,100912,,,A*5A
$GPGGA,152349.000,5230.4341,N,01322.8755,E,1,10,0.9,40.6,M,44.7,M,,0000*62
$GPGSA,A,3,03,22,21,18,16,07,06,15,30,19,,,1.5,0.9,1.3*3D
$GPRMC,152349.000,A,5230.4341,N,01322.8755,E,1.87,83.67,100912,,,A*52
$GPGGA,152350.000,5230.4342,N,01322.8763,E,1,10,0.9,40.7,M,44.7,M,,0000*6D
$GPGSA,A,3,03,22,21,18,16,07,06,15,30,19,,,1.5,0.9,1.3*3D
$GPGSV,3,1,12,06,83,229,31,03,68,280,39,18,52,089,33,16,46,209,34*75
$GPGSV,3,2,12,22,46,159,35,19,39,292,45,21,33,071,29,30,19,188,35*7A
$GPGSV,3,3,12,15,14,050,24,07,12,302,42,08,09,339,,26,06,014,26*70
$GPRMC,152350.000,A,5230.4342,N,01322.8763,E,1.62,86.74,100912,,,A*50
$GPGGA,152351.000,5230.4342,N,01322.8772,E,1,10,0.9,40.7,M,44.7,M,,0000*6C
$GPGSA,A,3,03,22,21,18,16,07,06,15,30,19,,,1.5,0.9,1.3*3D
$GPRMC,152351.000,A,5230.4342,N,01322.8772,E,2.00,87.38,100912,,,A*5F
$GPGGA,152352.000,5230.4342,N,01322.8781,E,1,10,0.9,40.7,M,44.7,M,,0000*63
$GPGSA,A,3,03,22,21,18,16,07,06,15,30,19,,,1.5,0.9,1.3*3D
$GPRMC,152352.000,A,5230.4342,N,01322.8781,E,1.92,89.59,100912,,,A*51
$GPGGA,152353.000,5230.4342,N,01322.8790,E,1,10,0.9,40.7,M,44.7,M,,0000*62
$GPGSA,A,3,03,22,21,18,16,07,06,15,30,19,,,1.5,0.9,1.3*3D
$GPRMC,152353.000,A,5230.4342,N,01322.8790,E,1.98,92.86,100912,,,A*52
$GPGGA,152354.000,5230.4341,N,01322.8798,E,1,10,0.9,40.7,M,44.7,M,,0000*6E
$GPGSA,A,3,03,22,21,18,16,07,06,15,30,19,,,1.5,0.9,1.3*3D
$GPRMC,152354.000,A,5230.4341,N,01322.8798,E,1.76,95.58,100912,,,A*5A
$GPGGA,152355.000,5230.4341,N,01322.8807,E,1,10,0.9,40.7,M,44.7,M,,0000*66
$GPGSA,A,3,03,22,21,18,16,07,06,15,30,19,,,1.5,0.9,1.3*3D
$GPGSV,3,1,12,06,83,229,31,03,68,280,38,18,52,089,28,16,46,209,41*7C
$GPGSV,3,2,12,22,46,159,35,19,39,292,35,21,33,071,32,30,19,188,37*75
$GPGSV,3,3,12,15,14,050,24,07,12,302,42,08,09,339,17,26,06,014,*72
$GPRMC,152355.000,A,5230.4341,N,01322.8807,E,1.82,96.53,100912,,,A*51
$GPGGA,152356.000,5230.4341,N,01322.8814,E,1,09,0.9,40.7,M,44.7,M,,0000*6F
$GPGSA,A,3,03,22,21,16,07,06,15,30,19,,,,1.6,0.9,1.3*37
$GPRMC,152356.000,A,5230.4341,N,01322.8814,E,1.50,93.02,100912,,,A*5E
$GPGGA,152357.000,5230.4341,N,01322.8820,E,1,10,0.9,40.7,M,44.7,M,,0000*61
$GPGSA,A,3,03,22,21,18,16,07,06,15,30,19,,,1.5,0.9,1.3*3D
$GPRMC,152357.000,A,5230.4341,N,01322.8820,E,1.22,97.15,100912,,,A*5F
$GPGGA,152358.000,5230.4340,N,01322.8826,E,1,09,0.9,40.6,M,44.7,M,,0000*60
$GPGSA,A,3,03,22,21,16,07,06,15,30,19,,,,1.6,0.9,1.3*37
$GPRMC,152358.000,A,5230.4340,N,01322.8826,E,1.32,106.54,100912,,,A*6A
$GPGGA,152359.000,5230.4339,N,01322.8834,E,1,10,0.9,40.6,M,44.7,M,,0000*64
$GPGSA,A,3,03,22,21,18,16,07,06,15,30,19,,,1.5,0.9,1.3*3D
$GPRMC,152359.000,A,5230.4339,N,01322.8834,E,1.55,96.30,100912,,,A*5D
$GPGGA,152400.000,5230.4340,N,01322.8841,E,1,10,0.9,40.6,M,44.7,M,,0000*63
$GPGSA,A,3,03,22,21,18,16,07,06,15,30,19,,,1.5,0.9,1.3*3D
$GPGSV,3,1,12,06,83,229,30,03,68,280,38,18,52,089,31,16,46,209,37*74
$GPGSV,3,2,12,22,46,159,35,19,39,292,42,21,33,071,33,30,19,188,39*7A
$GPGSV,3,3,12,15,14,050,24,07,12,302,34,08,09,339,19,26,06,014,26*79
$GPRMC,152400.000,A,5230.4340,N,01322.8841,E,1.56,92.61,100912,,,A*59
$GPGGA,152401.000,5230.4340,N,01322.8850,E,1,10,0.9,40.6,M,44.7,M,,0000*62
$GPGSA,A,3,03,22,21,18,16,07,06,15,30,19,,,1.5,0.9,1.3*3D
$GPRMC,152401.000,A,5230.4340,N,01322.8850,E,1.66,87.86,100912,,,A*56
$GPGGA,152402.000,5230.4340,N,01322.8858,E,1,10,0.9,40.6,M,44.7,M,,0000*69
$GPGSA,A,3,03,22,21,18,16,07,06,15,30,19,,,1.5,0.9,1.3*3D
$GPRMC,152402.000,A,5230.4340,N,01322.8858,E,1.65,91.05,100912,,,A*52
$GPGGA,152403.000,5230.4341,N,01322.8865,E,1,10,0.9,40.6,M,44.7,M,,0000*67
$GPGSA,A,3,03,22,21,18,16,07,06,15,30,19,,,1.5,0.9,1.3*3D
$GPRMC,152403.000,A,5230.4341,N,01322.8865,E,1.50,92.37,100912,,,A*58
$GPGGA,152404.000,5230.4342,N,01322.8873,E,1,09,1.0,40.7,M,44.7,M,,0000*65
$GPGSA,A,3,03,22,21,18,16,07,06,30,19,,,,1.7,1.0,1.4*34
$GPRMC,152404.000,A,5230.4342,N,01322.8873,E,1.61,83.15,100912,,,A*59
$GPGGA,152405.000,5230.4342,N,01322.8879,E,1,09,1.0,40.8,M,44.7,M,,0000*61
$GPGSA,A,3,03,22,21,18,16,07,06,30,19,,,,1.7,1.0,1.4*34
$GPGSV,3,1,12,06,83,226,30,03,69,279,37,18,52,089,30,22,46,159,34*70
$GPGSV,3,2,12,16,46,208,38,19,39,292,43,21,33,071,30,30,19,188,30*7C
$GPGSV,3,3,12,15,15,049,,07,12,301,26,08,10,339,21,26,06,014,28*7B
$GPRMC,152405.000,A,5230.4342,N,01322.8879,E,1.18,93.69,100912,,,A*56
$GPGGA,152406.000,5230.4342,N,01322.8884,E,1,10,0.9,41.1,M,44.7,M,,0000*68
$GPGSA,A,3,03,22,21,18,16,07,06,15,30,19,,,1.5,0.9,1.3*3D
$GPRMC,152406.000,A,5230.4342,N,01322.8884,E,0.98,102.47,100912,,,A*6B
$GPGGA,152407.000,5230.4342,N,01322.8890,E,1,10,0.9,41.4,M,44.7,M,,0000*69
$GPGSA,A,3,03,22,21,18,16,07,06,15,30,19,,,1.5,0.9,1.3*3D
$GPRMC,152407.000,A,5230.4342,N,01322.8890,E,1.21,98.81,100912,,,A*54
$GPGGA,152408.000,5230.4341,N,01322.8896,E,1,10,0.9,41.7,M,44.7,M,,0000*60
$GPGSA,A,3,03,22,21,18,16,07,06,15,30,19,,,1.5,0.9,1.3*3D
$GPRMC,152408.000,A,5230.4341,N,01322.8896,E,1.28,101.02,100912,,,A*6D
$GPGGA,152409.000,5230.4342,N,01322.8903,E,1,10,0.9,41.9,M,44.7,M,,0000*61
$GPGSA,A,3,03,22,21,18,16,07,06,15,30,19,,,1.5,0.9,1.3*3D
$GPRMC,152409.000,A,5230.4342,N,01322.8903,E,1.49,93.13,100912,,,A*5F
$GPGGA,152410.000,5230.4342,N,01322.8910,E,1,10,0.9,42.0,M,44.7,M,,0000*61
$GPGSA,A,3,03,22,21,18,16,07,06,15,30,19,,,1.5,0.9,1.3*3D
$GPGSV,3,1,12,06,83,226,30,03,69,279,38,18,52,089,28,22,46,159,32*70
$GPGSV,3,2,12,16,46,208,39,19,39,292,44,21,33,071,30,30,19,188,27*7C
$GPGSV,3,3,12,15,15,049,24,07,12,301,27,08,10,339,20,26,06,014,29*7C
$GPRMC,152410.000,A,5230.4342,N,01322.8910,E,1.45,89.96,100912,,,A*5F
$GPGGA,152411.000,5230.4342,N,01322.8917,E,1,09,0.9,42.1,M,44.7,M,,0000*6E
$GPGSA,A,3,03,22,18,16,07,06,15,30,19,,,,1.6,0.9,1.3*3D
$GPRMC,152411.000,A,5230.4342,N,01322.8917,E,1.45,96.77,100912,,,A*58
$GPGGA,152412.000,5230.4343,N,01322.8925,E,1,10,0.9,42.1,M,44.7,M,,0000*65
$GPGSA,A,3,03,22,21,18,16,07,06,15,30,19,,,1.5,0.9,1.3*3D
$GPRMC,152412.000,A,5230.4343,N,01322.8925,E,1.70,86.10,100912,,,A*5D
$GPGGA,152413.000,5230.4343,N,01322.8932,E,1,10,0.9,42.1,M,44.7,M,,0000*62
$GPGSA,A,3,03,22,21,18,16,07,06,15,30,19,,,1.5,0.9,1.3*3D
$GPRMC,152413.000,A,5230.4343,N,01322.8932,E,1.54,88.45,100912,,,A*52
$GPGGA,152414.000,5230.4343,N,01322.8940,E,1,10,0.9,42.1,M,44.7,M,,0000*60
$GPGSA,A,3,03,22,21,18,16,07,06,15,30,19,,,1.5,0.9,1.3*3D
$GPRMC,152414.000,A,5230.4343,N,01322.8940,E,1.48,91.66,100912,,,A*54
$GPGGA,152415.000,5230.4344,N,01322.8946,E,1,09,0.9,42.1,M,44.7,M,,0000*68
$GPGSA,A,3,03,22,21,16,07,06,15,30,19,,,,1.6,0.9,1.3*37
$GPGSV,3,1,12,06,83,225,30,03,69,279,38,18,52,089,,22,46,159,32*79
$GPGSV,3,2,12,16,46,208,38,19,39,292,45,21,33,071,27,30,19,188,26*7B
$GPGSV,3,3,12,15,15,049,25,07,12,301,24,08,10,339,19,26,06,014,30*7C
$GPRMC,152415.000,A,5230.4344,N,01322.8946,E,1.50,86.17,100912,,,A*5D
$GPGGA,152416.000,5230.4344,N,01322.8955,E,1,10,0.9,42.2,M,44.7,M,,0000*62
$GPGSA,A,3,03,22,21,18,16,07,06,15,30,19,,,1.5,0.9,1.3*3D
$GPRMC,152416.000,A,5230.4344,N,01322.8955,E,1.85,84.00,100912,,,A*50
$GPGGA,152417.000,5230.4345,N,01322.8963,E,1,10,0.9,42.3,M,44.7,M,,0000*66
$GPGSA,A,3,03,22,21,18,16,07,06,15,30,19,,,1.5,0.9,1.3*3D
$GPRMC,152417.000,A,5230.4345,N,01322.8963,E,1.83,85.44,100912,,,A*52
$GPGGA,152418.000,5230.4345,N,01322.8972,E,1,09,0.9,42.3,M,44.7,M,,0000*61
$GPGSA,A,3,03,22,18,16,07,06,15,30,19,,,,1.6,0.9,1.3*3D
$GPRMC,152418.000,A,5230.4345,N,01322.8972,E,1.79,89.95,100912,,,A*58
$GPGGA,152419.000,5230.4345,N,01322.8980,E,1,10,0.9,42.2,M,44.7,M,,0000*64
$GPGSA,A,3,03,22,21,18,16,07,06,15,30,19,,,1.5,0.9,1.3*3D
$GPRMC,152419.000,A,5230.4345,N,01322.8980,E,1.84,89.15,100912,,,A*5E
$GPGGA,152420.000,5230.4346,N,01322.8989,E,1,10,0.9,42.1,M,44.7,M,,0000*67
$GPGSA,A,3,03,22,21,18,16,07,06,15,30,19,,,1.5,0.9,1.3*3D
$GPGSV,3,1,12,06,83,225,30,03,69,279,37,18,52,089,32,22,46,159,32*77
$GPGSV,3,2,12,16,46,208,37,19,39,292,45,21,33,071,28,30,19,188,25*78
$GPGSV,3,3,12,15,15,049,35,07,12,301,25,08,10,339,19,26,06,014,28*75
$GPRMC,152420.000,A,5230.4346,N,01322.8989,E,1.86,82.25,100912,,,A*54
$GPGGA,152421.000,5230.4347,N,01322.8997,E,1,09,0.9,42.0,M,44.7,M,,0000*61
$GPGSA,A,3,03,22,18,16,07,06,15,30,19,,,,1.6,0.9,1.3*3D
$GPRMC,152421.000,A,5230.4347,N,01322.8997,E,1.78,83.72,100912,,,A*59
$GPGGA,152422.000,5230.4348,N,01322.9006,E,1,10,0.9,42.0,M,44.7,M,,0000*65
$GPGSA,A,3,03,22,21,18,16,07,06,15,30,19,,,1.5,0.9,1.3*3D
$GPRMC,152422.000,A,5230.4348,N,01322.9006,E,1.81,80.71,100912,,,A*53
$GPGGA,152423.000,5230.4349,N,01322.9015,E,1,10,0.9,41.9,M,44.7,M,,0000*6D
$GPGSA,A,3,03,22,21,18,16,07,06,15,30,19,,,1.5,0.9,1.3*3D
$GPRMC,152423.000,A,5230.4349,N,01322.9015,E,1.85,85.70,100912,,,A*51
$GPGGA,152424.000,5230.4350,N,01322.9024,E,1,10,0.9,41.9,M,44.7,M,,0000*60
$GPGSA,A,3,03,22,21,18,16,07,06,15,30,19,,,1.5,0.9,1.3*3D
$GPRMC,152424.000,A,5230.4350,N,01322.9024,E,1.84,82.90,100912,,,A*54
$GPGGA,152425.000,5230.4351,N,01322.9033,E,1,10,0.9,41.8,M,44.7,M,,0000*67
$GPGSA,A,3,03,22,21,18,16,07,06,15,30,19,,,1.5,0.9,1.3*3D
$GPGSV,3,1,12,06,83,225,30,03,69,279,38,18,52,089,32,22,46,159,33*79
$GPGSV,3,2,12,16,46,208,37,19,39,292,44,21,33,071,28,30,19,188,24*78
$GPGSV,3,3,12,15,15,049,36,07,12,301,25,08,10,339,23,26,06,014,27*70
$GPRMC,152425.000,A,5230.4351,N,01322.9033,E,1.99,83.59,100912,,,A*5A
$GPGGA,152426.000,5230.4352,N,01322.9042,E,1,10,0.9,41.7,M,44.7,M,,0000*6E
$GPGSA,A,3,03,22,21,18,16,07,06,15,30,19,,,1.5,0.9,1.3*3D
$GPRMC,152426.000,A,5230.4352,N,01322.9042,E,1.88,83.55,100912,,,A*50
$GPGGA,152427.000,5230.4353,N,01322.9052,E,1,10,0.9,41.6,M,44.7,M,,0000*6E
$GPGSA,A,3,03,22,21,18,16,07,06,15,30,19,,,1.5,0.9,1.3*3D
$GPRMC,152427.000,A,5230.4353,N,01322.9052,E,1.89,80.09,100912,,,A*5A
$GPGGA,152428.000,5230.4354,N,01322.9060,E,1,10,0.9,41.5,M,44.7,M,,0000*64
$GPGSA,A,3,03,22,21,18,16,07,06,15,30,19,,,1.5,0.9,1.3*3D
$GPRMC,152428.000,A,5230.4354,N,01322.9060,E,1.73,87.35,100912,,,A*5E
$GPGGA,152429.000,5230.4354,N,01322.9068,E,1,10,0.9,41.3,M,44.7,M,,0000*6B
$GPGSA,A,3,03,22,21,18,16,07,06,15,30,19,,,1.5,0.9,1.3*3D
$GPRMC,152429.000,A,5230.4354,N,01322.9068,E,1.68,93.21,100912,,,A*5D
$GPGGA,152430.000,5230.4355,N,01322.9077,E,1,10,0.9,41.1,M,44.7,M,,0000*6E
$GPGSA,A,3,03,22,21,18,16,07,06,15,30,19,,,1.5,0.9,1.3*3D
$GPGSV,3,1,12,06,83,225,30,03,69,279,38,18,52,089,33,22,46,159,33*78
$GPGSV,3,2,12,16,46,208,37,19,39,292,44,21,33,071,29,30,19,188,24*79
$GPGSV,3,3,12,15,15,049,35,07,12,301,25,08,10,339,19,26,06,014,28*75
$GPRMC,152430.000,A,5230.4355,N,01322.9077,E,1.83,84.15,100912,,,A*5E
$GPGGA,152431.000,5230.4355,N,01322.9086,E,1,10,0.9,40.9,M,44.7,M,,0000*68
$GPGSA,A,3,03,22,21,18,16,07,06,15,30,19,,,1.5,0.9,1.3*3D
$GPRMC,152431.000,A,5230.4355,N,01322.9086,E,1.79,88.71,100912,,,A*5A
$GPGGA,152432.000,5230.4356,N,01322.9095,E,1,10,0.9,40.8,M,44.7,M,,0000*6B
$GPGSA,A,3,03,22,21,18,16,07,06,15,30,19,,,1.5,0.9,1.3*3D
$GPRMC,152432.000,A,5230.4356,N,01322.9095,E,1.76,83.96,100912,,,A*55
$GPGGA,152433.000,5230.4356,N,01322.9103,E,1,10,0.9,40.6,M,44.7,M,,0000*6A
$GPGSA,A,3,03,22,21,18,16,07,06,15,30,19,,,1.5,0.9,1.3*3D
$GPRMC,152433.000,A,5230.4356,N,01322.9103,E,1.76,89.31,100912,,,A*5D
$GPGGA,152434.000,5230.4357,N,01322.9111,E,1,10,0.9,40.5,M,44.7,M,,0000*6C
$GPGSA,A,3,03,22,21,18,16,07,06,15,30,19,,,1.5,0.9,1.3*3D
$GPRMC,152434.000,A,5230.4357,N,01322.9111,E,1.68,88.26,100912,,,A*50
$GPGGA,152435.000,5230.4357,N,01322.9120,E,1,10,0.9,40.5,M,44.7,M,,0000*6F
$GPGSA,A,3,03,22,21,18,16,07,06,15,30,19,,,1.5,0.9,1.3*3D
$GPGSV,3,1,12,06,83,225,30,03,69,279,36,18,52,089,33,22,46,159,33*76
$GPGSV,3,2,12,16,46,208,37,19,39,292,44,21,33,071,30,30,19,188,23*76
$GPGSV,3,3,12,15,15,049,33,07,12,301,24,08,10,339,19,26,06,014,28*72
$GPRMC,152435.000,A,5230.4357,N,01322.9120,E,1.71,87.71,100912,,,A*56
$GPGGA,152436.000,5230.4357,N,01322.9129,E,1,10,0.9,40.5,M,44.7,M,,0000*65
$GPGSA,A,3,03,22,21,18,16,07,06,15,30,19,,,1.5,0.9,1.3*3D
$GPRMC,152436.000,A,5230.4357,N,01322.9129,E,1.81,89.41,100912,,,A*5E
$GPGGA,152437.000,5230.4357,N,01322.9136,E,1,10,0.9,40.6,M,44.7,M,,0000*69
$GPGSA,A,3,03,22,21,18,16,07,06,15,30,19,,,1.5,0.9,1.3*3D
$GPRMC,152437.000,A,5230.4357,N,01322.9136,E,1.56,100.05,100912,,,A*6B
$GPGGA,152438.000,5230.4357,N,01322.9145,E,1,10,0.9,40.7,M,44.7,M,,0000*63
$GPGSA,A,3,03,22,21,18,16,07,06,15,30,19,,,1.5,0.9,1.3*3D
$GPRMC,152438.000,A,5230.4357,N,01322.9145,E,1.77,94.52,100912,,,A*5D
$GPGGA,152439.000,5230.4358,N,01322.9153,E,1,10,0.9,40.7,M,44.7,M,,0000*6A
$GPGSA,A,3,03,22,21,18,16,07,06,15,30,19,,,1.5,0.9,1.3*3D
$GPRMC,152439.000,A,5230.4358,N,01322.9153,E,1.82,85.34,100912,,,A*5E
$GPGGA,152440.000,5230.4359,N,01322.9162,E,1,10,0.9,40.8,M,44.7,M,,0000*68
$GPGSA,A,3,03,22,21,18,16,07,06,15,30,19,,,1.5,0.9,1.3*3D
$GPGSV,3,1,12,06,83,225,30,03,69,279,37,18,52,089,30,22,46,159,33*74
$GPGSV,3,2,12,16,46,208,37,19,39,292,44,21,33,071,30,30,19,188,24*71
$GPGSV,3,3,12,15,15,049,31,07,12,301,24,08,10,339,19,26,06,014,25*7D
$GPRMC,152440.000,A,5230.4359,N,01322.9162,E,1.88,82.33,100912,,,A*59
$GPGGA,152441.000,5230.4359,N,01322.9172,E,1,10,0.9,40.9,M,44.7,M,,0000*69
$GPGSA,A,3,03,22,21,18,16,07,06,15,30,19,,,1.5,0.9,1.3*3D
$GPRMC,152441.000,A,5230.4359,N,01322.9172,E,1.87,89.52,100912,,,A*5A
$GPGGA,152442.000,5230.4360,N,01322.9180,E,1,10,0.9,41.0,M,44.7,M,,0000*65
$GPGSA,A,3,03,22,21,18,16,07,06,15,30,19,,,1.5,0.9,1.3*3D
$GPRMC,152442.000,A,5230.4360,N,01322.9180,E,1.75,89.80,100912,,,A*5C
$GPGGA,152443.000,5230.4361,N,01322.9189,E,1,10,0.9,41.1,M,44.7,M,,0000*6D
$GPGSA,A,3,03,22,21,18,16,07,06,15,30,19,,,1.5,0.9,1.3*3D
$GPRMC,152443.000,A,5230.4361,N,01322.9189,E,1.70,85.09,100912,,,A*5D
$GPGGA,152444.000,5230.4361,N,01322.9198,E,1,10,0.9,41.3,M,44.7,M,,0000*68
$GPGSA,A,3,03,22,21,18,16,07,06,15,30,19,,,1.5,0.9,1.3*3D
$GPRMC,152444.000,A,5230.4361,N,01322.9198,E,1.75,89.53,100912,,,A*5C
$GPGGA,152445.000,5230.4361,N,01322.9206,E,1,10,0.9,41.5,M,44.7,M,,0000*6B
$GPGSA,A,3,03,22,21,18,16,07,06,15,30,19,,,1.5,0.9,1.3*3D
$GPGSV,3,1,12,06,83,225,30,03,69,279,37,18,52,089,39,22,46,159,31*7F
$GPGSV,3,2,12,16,46,208,37,19,39,292,32,21,33,071,36,30,19,188,24*76
$GPGSV,3,3,12,15,15,049,30,07,12,301,32,08,10,339,18,26,06,014,20*7F
$GPRMC,152445.000,A,5230.4361,N,01322.9206,E,1.56,94.87,100912,,,A*5D
$GPGGA,152446.000,5230.4360,N,01322.9213,E,1,10,0.9,41.7,M,44.7,M,,0000*6F
$GPGSA,A,3,03,22,21,18,16,07,06,15,30,19,,,1.5,0.9,1.3*3D
$GPRMC,152446.000,A,5230.4360,N,01322.9213,E,1.42,109.44,100912,,,A*64
$GPGGA,152447.000,5230.4360,N,01322.9218,E,1,10,0.9,41.9,M,44.7,M,,0000*6B
$GPGSA,A,3,03,22,21,18,16,07,06,15,30,19,,,1.5,0.9,1.3*3D
$GPRMC,152447.000,A,5230.4360,N,01322.9218,E,0.94,113.83,100912,,,A*64
$GPGGA,152448.000,5230.4359,N,01322.9223,E,1,10,0.9,42.1,M,44.7,M,,0000*6D
$GPGSA,A,3,03,22,21,18,16,07,06,15,30,19,,,1.5,0.9,1.3*3D
$GPRMC,152448.000,A,5230.4359,N,01322.9223,E,0.87,124.99,100912,,,A*64
$GPGGA,152449.000,5230.4356,N,01322.9226,E,1,10,0.9,42.2,M,44.7,M,,0000*65
$GPGSA,A,3,03,22,21,18,16,07,06,15,30,19,,,1.5,0.9,1.3*3D
$GPRMC,152449.000,A,5230.4356,N,01322.9226,E,1.13,147.77,100912,,,A*66
$GPGGA,152450.000,5230.4353,N,01322.9229,E,1,10,0.9,42.3,M,44.7,M,,0000*66
$GPGSA,A,3,03,22,21,18,16,07,06,15,30,19,,,1.5,0.9,1.3*3D
$GPGSV,3,1,12,06,83,225,29,03,69,279,37,18,52,089,39,22,46,159,27*70
$GPGSV,3,2,12,16,46,208,36,19,39,292,47,21,33,071,42,30,19,188,21*73
$GPGSV,3,3,12,15,15,049,42,07,12,301,27,08,10,339,17,26,06,014,*73
$GPRMC,152450.000,A,5230.4353,N,01322.9229,E,1.26,161.47,100912,,,A*65
$GPGGA,152451.000,5230.4351,N,01322.9236,E,1,10,0.9,42.4,M,44.7,M,,0000*6C
$GPGSA,A,3,03,22,21,18,16,07,06,15,30,19,,,1.5,0.9,1.3*3D
$GPRMC,152451.000,A,5230.4351,N,01322.9236,E,1.68,132.59,100912,,,A*6B
$GPGGA,152452.000,5230.4348,N,01322.9243,E,1,11,0.8,42.5,M,44.7,M,,0000*64
$GPGSA,A,3,03,22,21,18,16,07,06,08,15,30,19,,1.5,0.8,1.2*35
$GPRMC,152452.000,A,5230.4348,N,01322.9243,E,1.68,123.76,100912,,,A*6F
$GPGGA,152453.000,5230.4348,N,01322.9250,E,1,11,0.8,42.9,M,44.7,M,,0000*6B
$GPGSA,A,3,03,22,21,18,16,07,06,08,15,30,19,,1.5,0.8,1.2*35
$GPRMC,152453.000,A,5230.4348,N,01322.9250,E,1.29,108.88,100912,,,A*61
$GPGGA,152454.000,5230.4347,N,01322.9256,E,1,11,0.8,43.2,M,44.7,M,,0000*6F
$GPGSA,A,3,03,22,21,18,16,07,06,08,15,30,19,,1.5,0.8,1.2*35
$GPRMC,152454.000,A,5230.4347,N,01322.9256,E,1.20,112.24,100912,,,A*6B
$GPGGA,152455.000,5230.4347,N,01322.9261,E,1,11,0.8,43.5,M,44.7,M,,0000*6D
$GPGSA,A,3,03,22,21,18,16,07,06,08,15,30,19,,1.5,0.8,1.2*35
$GPGSV,3,1,12,06,83,225,29,03,69,279,30,18,52,089,39,22,46,159,21*71
$GPGSV,3,2,12,16,46,208,24,19,39,292,41,21,33,071,41,30,19,188,21*75
$GPGSV,3,3,12,15,15,049,42,07,12,301,28,08,10,339,17,26,06,014,27*79
$GPRMC,152455.000,A,5230.4347,N,01322.9261,E,1.01,111.11,100912,,,A*68
$GPGGA,152456.000,5230.4346,N,01322.9266,E,1,11,0.8,43.8,M,44.7,M,,0000*65
$GPGSA,A,3,03,22,21,18,16,07,06,08,15,30,19,,1.5,0.8,1.2*35
$GPRMC,152456.000,A,5230.4346,N,01322.9266,E,1.01,118.12,100912,,,A*67
$GPGGA,152457.000,5230.4345,N,01322.9271,E,1,11,0.8,44.1,M,44.7,M,,0000*6F
$GPGSA,A,3,03,22,21,18,16,07,06,08,15,30,19,,1.5,0.8,1.2*35
$GPRMC,152457.000,A,5230.4345,N,01322.9271,E,1.04,116.78,100912,,,A*64
$GPGGA,152458.000,5230.4345,N,01322.9276,E,1,11,0.8,44.4,M,44.7,M,,0000*62
$GPGSA,A,3,03,22,21,18,16,07,06,08,15,30,19,,1.5,0.8,1.2*35
$GPRMC,152458.000,A,5230.4345,N,01322.9276,E,0.81,106.59,100912,,,A*62
$GPGGA,152459.000,5230.4343,N,01322.9279,E,1,11,0.8,44.6,M,44.7,M,,0000*68
$GPGSA,A,3,03,22,21,18,16,07,06,08,15,30,19,,1.5,0.8,1.2*35
$GPRMC,152459.000,A,5230.4343,N,01322.9279,E,0.90,149.13,100912,,,A*6F
$GPGGA,152500.000,5230.4343,N,01322.9282,E,1,11,0.8,44.9,M,44.7,M,,0000*6E
$GPGSA,A,3,03,22,21,18,16,07,06,08,15,30,19,,1.5,0.8,1.2*35
$GPGSV,3,1,12,06,83,225,28,03,69,279,29,18,52,089,39,22,46,159,21*78
$GPGSV,3,2,12,16,46,208,23,19,39,292,36,21,33,071,42,30,19,188,21*71
$GPGSV,3,3,12,15,15,049,37,07,12,301,27,08,10,339,16,26,06,014,31*72
$GPRMC,152502.000,A,5230.4341,N,01322.9283,E,0.83,212.77,100912,,,A*6A
$GPGGA,152503.000,5230.4340,N,01322.9285,E,1,11,0.8,45.7,M,44.7,M,,0000*66
$GPGSA,A,3,03,22,21,18,16,07,06,08,15,30,19,,1.5,0.8,1.2*35
$GPRMC,152507.000,A,5230.4342,N,01322.9297,E,0.94,92.74,100912,,,A*56
$GPGGA,152508.000,5230.4343,N,01322.9303,E,1,11,0.8,47.0,M,44.7,M,,0000*64
$GPGSA,A,3,03,22,21,18,16,07,06,08,15,30,19,,1.5,0.8,1.2*35
$GPRMC,152508.000,A,5230.4343,N,01322.9303,E,1.31,77.31,100912,,,A*50
$GPGGA,152509.000,5230.4345,N,01322.9311,E,1,11,0.8,47.2,M,44.7,M,,0000*62
$GPGSA,A,3,03,22,21,18,16,07,06,08,15,30,19,,1.5,0.8,1.2*35
$GPRMC,152509.000,A,5230.4345,N,01322.9311,E,1.65,73.28,100912,,,A*59
$GPGGA,152510.000,5230.4346,N,01322.9319,E,1,11,0.8,47.3,M,44.7,M,,0000*60
$GPGSA,A,3,03,22,21,18,16,07,06,08,15,30,19,,1.5,0.8,1.2*35
$GPGSV,3,1,12,06,83,225,27,03,69,279,37,18,52,089,36,22,46,159,19*7C
$GPGSV,3,2,12,16,46,208,20,19,39,292,40,21,33,071,28,30,19,188,25*7B
$GPGSV,3,3,12,15,15,049,36,07,12,301,27,08,10,339,17,26,06,014,28*7A
$GPRMC,152510.000,A,5230.4346,N,01322.9319,E,1.82,77.52,100912,,,A*5A
$GPGGA,152511.000,5230.4347,N,01322.9326,E,1,11,0.8,47.5,M,44.7,M,,0000*6A
$GPGSA,A,3,03,22,21,18,16,07,06,08,15,30,19,,1.5,0.8,1.2*35
$GPRMC,152511.000,A,5230.4347,N,01322.9326,E,1.65,80.47,100912,,,A*53
$GPGGA,152512.000,5230.4349,N,01322.9334,E,1,11,0.8,47.6,M,44.7,M,,0000*67
$GPGSA,A,3,03,22,21,18,16,07,06,08,15,30,19,,1.5,0.8,1.2*35
$GPRMC,152512.000,A,5230.4349,N,01322.9334,E,1.78,78.81,100912,,,A*5C
$GPGGA,152513.000,5230.4349,N,01322.9341,E,1,11,0.8,47.6,M,44.7,M,,0000*64
$GPGSA,A,3,03,22,21,18,16,07,06,08,15,30,19,,1.5,0.8,1.2*35
$GPRMC,152513.000,A,5230.4349,N,01322.9341,E,1.50,85.29,100912,,,A*55
$GPGGA,152514.000,5230.4350,N,01322.9348,E,1,11,0.8,47.6,M,44.7,M,,0000*62
$GPGSA,A,3,03,22,21,18,16,07,06,08,15,30,19,,1.5,0.8,1.2*35
$GPRMC,152514.000,A,5230.4350,N,01322.9348,E,1.49,82.73,100912,,,A*53
$GPGGA,152515.000,5230.4349,N,01322.9354,E,1,11,0.8,47.5,M,44.7,M,,0000*65
$GPGSA,A,3,03,22,21,18,16,07,06,08,15,30,19,,1.5,0.8,1.2*35
$GPGSV,3,1,12,06,83,225,28,03,69,279,37,18,52,089,36,22,46,159,19*73
$GPGSV,3,2,12,16,46,208,21,19,39,292,43,21,33,071,33,30,19,188,28*7E
$GPGSV,3,3,12,15,15,049,39,07,12,301,28,08,10,339,17,26,06,014,27*75
$GPRMC,152515.000,A,5230.4349,N,01322.9354,E,1.26,104.31,100912,,,A*67
$GPGGA,152516.000,5230.4349,N,01322.9360,E,1,11,0.8,47.4,M,44.7,M,,0000*60
$GPGSA,A,3,03,22,21,18,16,07,06,08,15,30,19,,1.5,0.8,1.2*35
$GPRMC,152516.000,A,5230.4349,N,01322.9360,E,1.38,97.11,100912,,,A*55
$GPGGA,152517.000,5230.4350,N,01322.9367,E,1,11,0.8,47.4,M,44.7,M,,0000*6E
$GPGSA,A,3,03,22,21,18,16,07,06,08,15,30,19,,1.5,0.8,1.2*35
$GPRMC,152517.000,A,5230.4350,N,01322.9367,E,1.48,84.82,100912,,,A*54
$GPGGA,152518.000,5230.4351,N,01322.9373,E,1,11,0.8,47.4,M,44.7,M,,0000*65
$GPGSA,A,3,03,22,21,18,16,07,06,08,15,30,19,,1.5,0.8,1.2*35
$GPRMC,152518.000,A,5230.4351,N,01322.9373,E,1.31,74.55,100912,,,A*54
$GPGGA,152519.000,5230.4352,N,01322.9377,E,1,11,0.8,47.5,M,44.7,M,,0000*62
$GPGSA,A,3,03,22,21,18,16,07,06,08,15,30,19,,1.5,0.8,1.2*35
$GPRMC,152519.000,A,5230.4352,N,01322.9377,E,1.07,77.88,100912,,,A*54
$GPGGA,152520.000,5230.4353,N,01322.9382,E,1,11,0.8,47.6,M,44.7,M,,0000*60
$GPGSA,A,3,03,22,21,18,16,07,06,08,15,30,19,,1.5,0.8,1.2*35
$GPGSV,3,1,12,06,83,225,28,03,69,279,37,18,52,089,39,22,46,159,20*76
$GPGSV,3,2,12,16,46,208,21,19,39,292,39,21,33,071,40,30,19,188,23*7C
$GPGSV,3,3,12,15,15,049,40,07,12,301,23,08,10,339,18,26,06,014,29*71
$GPRMC,152520.000,A,5230.4353,N,01322.9382,E,0.95,87.01,100912,,,A*51
$GPGGA,152521.000,5230.4353,N,01322.9386,E,1,11,0.8,47.8,M,44.7,M,,0000*6B
$GPGSA,A,3,03,22,21,18,16,07,06,08,15,30,19,,1.5,0.8,1.2*35
$GPRMC,152521.000,A,5230.4353,N,01322.9386,E,0.95,94.41,100912,,,A*52
$GPGGA,152522.000,5230.4352,N,01322.9390,E,1,10,0.8,48.0,M,44.7,M,,0000*68
$GPGSA,A,3,03,22,21,18,16,07,08,15,30,19,,,1.6,0.8,1.4*36
$GPRMC,152522.000,A,5230.4352,N,01322.9390,E,1.06,118.05,100912,,,A*69
$GPGGA,152523.000,5230.4353,N,01322.9396,E,1,11,0.8,48.2,M,44.7,M,,0000*6D
$GPGSA,A,3,03,22,21,18,16,07,06,08,15,30,19,,1.5,0.8,1.2*35
$GPRMC,152523.000,A,5230.4353,N,01322.9396,E,1.24,74.67,100912,,,A*50
$GPGGA,152524.000,5230.4355,N,01322.9403,E,1,11,0.8,48.4,M,44.7,M,,0000*61
$GPGSA,A,3,03,22,21,18,16,07,06,08,15,30,19,,1.5,0.8,1.2*35
$GPRMC,152524.000,A,5230.4355,N,01322.9403,E,1.54,71.48,100912,,,A*55
$GPGGA,152525.000,5230.4355,N,01322.9409,E,1,11,0.8,48.6,M,44.7,M,,0000*68
$GPGSA,A,3,03,22,21,18,16,07,06,08,15,30,19,,1.5,0.8,1.2*35
$GPGSV,3,1,12,06,83,225,27,03,69,279,33,18,52,089,32,22,46,159,30*77
$GPGSV,3,2,12,16,46,208,21,19,39,292,39,21,33,071,34,30,19,188,22*7E
$GPGSV,3,3,12,15,15,049,36,07,12,301,16,08,10,339,17,26,06,014,28*78
$GPRMC,152525.000,A,5230.4355,N,01322.9409,E,1.47,78.41,100912,,,A*5C
$GPGGA,152526.000,5230.4354,N,01322.9414,E,1,10,0.9,48.5,M,44.7,M,,0000*65
$GPGSA,A,3,03,22,21,18,16,07,06,15,30,19,,,1.5,0.9,1.3*3D
$GPRMC,152526.000,A,5230.4354,N,01322.9414,E,1.09,98.44,100912,,,A*53
$GPGGA,152527.000,5230.4352,N,01322.9419,E,1,09,0.9,48.4,M,44.7,M,,0000*66
$GPGSA,A,3,03,22,21,16,07,06,15,30,19,,,,1.6,0.9,1.3*37
$GPRMC,152527.000,A,5230.4352,N,01322.9419,E,0.97,88.78,100912,,,A*51
$GPGGA,152528.000,5230.4349,N,01322.9423,E,1,10,0.9,48.2,M,44.7,M,,0000*64
$GPGSA,A,3,03,22,21,18,16,07,06,15,30,19,,,1.5,0.9,1.3*3D
$GPRMC,152528.000,A,5230.4349,N,01322.9423,E,1.05,111.35,100912,,,A*6F
$GPGGA,152529.000,5230.4346,N,01322.9429,E,1,10,0.9,48.0,M,44.7,M,,0000*62
$GPGSA,A,3,03,22,21,18,16,07,06,15,30,19,,,1.5,0.9,1.3*3D
$GPRMC,152529.000,A,5230.4346,N,01322.9429,E,1.23,100.07,100912,,,A*6E
$GPGGA,152530.000,5230.4343,N,01322.9434,E,1,10,0.9,47.8,M,44.7,M,,0000*64
$GPGSA,A,3,03,22,21,18,16,07,06,15,30,19,,,1.5,0.9,1.3*3D
$GPGSV,3,1,12,06,83,225,28,03,69,279,36,18,52,089,34,22,46,159,44*78
$GPGSV,3,2,12,16,46,208,20,19,39,292,40,21,33,071,33,30,19,188,23*77
$GPGSV,3,3,12,15,15,049,31,07,12,301,22,08,10,339,,26,06,014,26*70
$GPRMC,152530.000,A,5230.4343,N,01322.9434,E,1.27,103.28,100912,,,A*65
$GPGGA,152531.000,5230.4340,N,01322.9441,E,1,10,0.9,47.5,M,44.7,M,,0000*69
$GPGSA,A,3,03,22,21,18,16,07,06,15,30,19,,,1.5,0.9,1.3*3D
$GPRMC,152531.000,A,5230.4340,N,01322.9441,E,1.44,88.40,100912,,,A*5C
$GPGGA,152532.000,5230.4337,N,01322.9446,E,1,09,1.0,47.3,M,44.7,M,,0000*6B
$GPGSA,A,3,03,22,21,18,16,07,06,30,19,,,,1.7,1.0,1.4*34
$GPRMC,152532.000,A,5230.4337,N,01322.9446,E,1.22,99.80,100912,,,A*54
$GPGGA,152533.000,5230.4335,N,01322.9453,E,1,10,0.9,46.9,M,44.7,M,,0000*67
$GPGSA,A,3,03,22,21,18,16,07,06,15,30,19,,,1.5,0.9,1.3*3D
$GPRMC,152533.000,A,5230.4335,N,01322.9453,E,1.61,84.76,100912,,,A*51
$GPGGA,152534.000,5230.4332,N,01322.9460,E,1,10,0.9,46.5,M,44.7,M,,0000*6B
$GPGSA,A,3,03,22,21,18,16,07,06,15,30,19,,,1.5,0.9,1.3*3D
$GPRMC,152534.000,A,5230.4332,N,01322.9460,E,1.45,86.92,100912,,,A*5F
$GPGGA,152535.000,5230.4329,N,01322.9465,E,1,10,0.9,46.2,M,44.7,M,,0000*62
$GPGSA,A,3,03,22,21,18,16,07,06,15,30,19,,,1.5,0.9,1.3*3D
$GPGSV,3,1,12,06,83,225,28,03,69,279,35,18,52,089,34,22,46,159,43*7C
$GPGSV,3,2,12,16,46,208,21,19,39,292,40,21,33,071,33,30,19,188,24*71
$GPGSV,3,3,12,15,15,049,33,07,12,301,25,08,10,339,,26,06,014,26*75
$GPRMC,152535.000,A,5230.4329,N,01322.9465,E,1.11,98.84,100912,,,A*58
$GPGGA,152536.000,5230.4325,N,01322.9470,E,1,10,0.9,45.8,M,44.7,M,,0000*60
$GPGSA,A,3,03,22,21,18,16,07,06,15,30,19,,,1.5,0.9,1.3*3D
$GPRMC,152536.000,A,5230.4325,N,01322.9470,E,1.06,106.38,100912,,,A*64
$GPGGA,152537.000,5230.4322,N,01322.9474,E,1,09,0.9,45.5,M,44.7,M,,0000*67
$GPGSA,A,3,03,22,21,18,16,07,15,30,19,,,,1.7,0.9,1.4*3E
$GPRMC,152537.000,A,5230.4322,N,01322.9474,E,1.11,109.99,100912,,,A*64
$GPGGA,152538.000,5230.4318,N,01322.9480,E,1,09,0.9,45.3,M,44.7,M,,0000*6C
$GPGSA,A,3,03,22,21,18,16,07,15,30,19,,,,1.7,0.9,1.4*3E
$GPRMC,152538.000,A,5230.4318,N,01322.9480,E,1.18,103.09,100912,,,A*63
$GPGGA,152539.000,5230.4315,N,01322.9485,E,1,10,0.9,45.1,M,44.7,M,,0000*6F
$GPGSA,A,3,03,22,21,18,16,07,06,15,30,19,,,1.5,0.9,1.3*3D
$GPRMC,152539.000,A,5230.4315,N,01322.9485,E,1.21,104.98,100912,,,A*6F
$GPGGA,152540.000,5230.4312,N,01322.9490,E,1,10,0.9,44.7,M,44.7,M,,0000*65
$GPGSA,A,3,03,22,21,18,16,07,06,15,30,19,,,1.5,0.9,1.3*3D
$GPGSV,3,1,12,06,83,225,28,03,69,279,35,18,52,089,39,22,46,159,42*70
$GPGSV,3,2,12,16,46,208,21,19,39,292,36,21,33,071,37,30,19,188,21*71
$GPGSV,3,3,12,15,15,049,41,07,12,301,21,08,10,339,,26,06,014,26*74
$GPRMC,152540.000,A,5230.4312,N,01322.9490,E,1.25,107.98,100912,,,A*65
$GPGGA,152541.000,5230.4308,N,01322.9496,E,1,10,0.9,44.3,M,44.7,M,,0000*6D
$GPGSA,A,3,03,22,21,18,16,07,06,15,30,19,,,1.5,0.9,1.3*3D
$GPRMC,152541.000,A,5230.4308,N,01322.9496,E,1.31,109.10,100912,,,A*62
$GPGGA,152542.000,5230.4304,N,01322.9502,E,1,09,0.9,43.8,M,44.7,M,,0000*6A
$GPGSA,A,3,03,22,21,18,16,07,15,30,19,,,,1.7,0.9,1.4*3E
$GPRMC,152542.000,A,5230.4304,N,01322.9502,E,1.51,114.83,100912,,,A*61
$GPGGA,152543.000,5230.4300,N,01322.9507,E,1,10,0.9,43.3,M,44.7,M,,0000*69
$GPGSA,A,3,03,22,21,18,16,07,06,15,30,19,,,1.5,0.9,1.3*3D
$GPRMC,152543.000,A,5230.4300,N,01322.9507,E,1.52,123.38,100912,,,A*66
$GPGGA,152544.000,5230.4295,N,01322.9513,E,1,10,0.9,42.7,M,44.7,M,,0000*63
$GPGSA,A,3,03,22,21,18,16,07,06,15,30,19,,,1.5,0.9,1.3*3D
$GPRMC,152544.000,A,5230.4295,N,01322.9513,E,1.65,128.25,100912,,,A*6A
$GPGGA,152545.000,5230.4290,N,01322.9518,E,1,10,0.9,42.2,M,44.7,M,,0000*69
$GPGSA,A,3,03,22,21,18,16,07,06,15,30,19,,,1.5,0.9,1.3*3D
$GPGSV,3,1,12,06,83,225,21,03,69,279,35,18,52,089,40,22,46,159,33*71
$GPGSV,3,2,12,16,46,208,22,19,39,292,41,21,33,071,39,30,19,188,19*77
$GPGSV,3,3,12,15,15,049,39,07,12,301,21,08,10,339,,26,06,014,27*7A
$GPRMC,152545.000,A,5230.4290,N,01322.9518,E,1.45,134.65,100912,,,A*6E
$GPGGA,152546.000,5230.4285,N,01322.9523,E,1,10,0.9,41.7,M,44.7,M,,0000*60
$GPGSA,A,3,03,22,21,18,16,07,06,15,30,19,,,1.5,0.9,1.3*3D
$GPRMC,152546.000,A,5230.4285,N,01322.9523,E,1.46,134.24,100912,,,A*67
$GPGGA,152547.000,5230.4280,N,01322.9527,E,1,10,0.9,41.1,M,44.7,M,,0000*66
$GPGSA,A,3,03,22,21,18,16,07,06,15,30,19,,,1.5,0.9,1.3*3D
$GPRMC,152547.000,A,5230.4280,N,01322.9527,E,1.73,147.51,100912,,,A*67
$GPGGA,152548.000,5230.4275,N,01322.9530,E,1,10,0.9,40.7,M,44.7,M,,0000*62
$GPGSA,A,3,03,22,21,18,16,07,06,15,30,19,,,1.5,0.9,1.3*3D
$GPRMC,152548.000,A,5230.4275,N,01322.9530,E,1.38,148.97,100912,,,A*6E
$GPGGA,152549.000,5230.4271,N,01322.9533,E,1,10,0.9,40.3,M,44.7,M,,0000*60
$GPGSA,A,3,03,22,21,18,16,07,06,15,30,19,,,1.5,0.9,1.3*3D
$GPRMC,152549.000,A,5230.4271,N,01322.9533,E,1.07,143.62,100912,,,A*65
$GPGGA,152550.000,5230.4267,N,01322.9536,E,1,10,0.9,39.9,M,44.7,M,,0000*6E
$GPGSA,A,3,03,22,21,18,16,07,06,15,30,19,,,1.5,0.9,1.3*3D
$GPGSV,3,1,12,06,83,225,26,03,69,279,31,18,52,089,40,22,46,159,33*72
$GPGSV,3,2,12,16,46,208,22,19,39,292,38,21,33,071,40,30,19,188,19*77
$GPGSV,3,3,12,15,15,049,33,07,12,301,21,08,10,339,,26,06,014,27*70
$GPRMC,152550.000,A,5230.4267,N,01322.9536,E,1.30,151.09,100912,,,A*65
$GPGGA,152551.000,5230.4262,N,01322.9539,E,1,10,0.9,39.6,M,44.7,M,,0000*6A
$GPGSA,A,3,03,22,21,18,16,07,06,15,30,19,,,1.5,0.9,1.3*3D
$GPRMC,152551.000,A,5230.4262,N,01322.9539,E,1.51,157.73,100912,,,A*62
$GPGGA,152552.000,5230.4257,N,01322.9541,E,1,10,0.9,39.4,M,44.7,M,,0000*62
$GPGSA,A,3,03,22,21,18,16,07,06,15,30,19,,,1.5,0.9,1.3*3D
$GPRMC,152552.000,A,5230.4257,N,01322.9541,E,1.42,161.90,100912,,,A*62
$GPGGA,152553.000,5230.4252,N,01322.9543,E,1,10,0.9,39.3,M,44.7,M,,0000*63
$GPGSA,A,3,03,22,21,18,16,07,06,15,30,19,,,1.5,0.9,1.3*3D
$GPRMC,152553.000,A,5230.4252,N,01322.9543,E,1.38,162.42,100912,,,A*65
$GPGGA,152554.000,5230.4247,N,01322.9545,E,1,10,0.9,39.1,M,44.7,M,,0000*64
$GPGSA,A,3,03,22,21,18,16,07,06,15,30,19,,,1.5,0.9,1.3*3D
$GPRMC,152554.000,A,5230.4247,N,01322.9545,E,1.61,163.47,100912,,,A*68
$GPGGA,152555.000,5230.4244,N,01322.9547,E,1,10,0.9,39.1,M,44.7,M,,0000*64
$GPGSA,A,3,03,22,21,18,16,07,06,15,30,19,,,1.5,0.9,1.3*3D
$GPGSV,3,1,12,06,83,225,27,03,69,279,36,18,52,089,42,22,46,159,34*71
$GPGSV,3,2,12,16,46,208,23,19,39,292,32,21,33,071,34,30,19,188,23*76
$GPGSV,3,3,12,15,15,049,36,07,12,301,23,08,10,339,16,26,06,014,24*73
$GPRMC,152555.000,A,5230.4244,N,01322.9547,E,1.12,158.41,100912,,,A*62
$GPGGA,152556.000,5230.4241,N,01322.9549,E,1,10,0.9,39.1,M,44.7,M,,0000*6C
$GPGSA,A,3,03,22,21,18,16,07,06,15,30,19,,,1.5,0.9,1.3*3D
$GPRMC,152609.000,A,5230.4226,N,01322.9555,E,1.22,115.30,100912,,,A*63
$GPGGA,152610.000,5230.4224,N,01322.9559,E,1,10,0.9,38.2,M,44.7,M,,0000*6D
$GPGSA,A,3,03,22,21,18,16,07,06,15,30,19,,,1.5,0.9,1.3*3D
$GPGSV,3,1,12,06,83,225,26,03,69,279,36,18,52,089,37,22,46,159,41*70
$GPGSV,3,2,12,16,46,208,32,19,39,292,27,21,33,071,34,30,19,188,30*70
$GPGSV,3,3,12,15,15,049,36,07,12,301,21,08,10,339,14,26,06,014,26*71
$GPRMC,152610.000,A,5230.4224,N,01322.9559,E,1.00,110.10,100912,,,A*62
$GPGGA,152611.000,5230.4222,N,01322.9561,E,1,10,0.9,38.1,M,44.7,M,,0000*62
$GPGSA,A,3,03,22,21,18,16,07,06,15,30,19,,,1.5,0.9,1.3*3D
$GPRMC,152619.000,A,5230.4215,N,01322.9579,E,0.93,67.67,100912,,,A*51
$GPGGA,152620.000,5230.4217,N,01322.9582,E,1,10,0.9,38.1,M,44.7,M,,0000*6B
$GPGSA,A,3,03,22,21,18,16,07,06,15,30,19,,,1.5,0.9,1.3*3D
$GPGSV,3,1,12,06,83,225,37,03,69,279,40,18,52,089,43,22,46,159,42*71
$GPGSV,3,2,12,16,46,208,44,19,39,292,37,21,33,071,38,30,19,188,45*7E
$GPGSV,3,3,12,15,15,049,36,07,12,301,20,08,10,339,,26,06,014,22*71
$GPRMC,152620.000,A,5230.4217,N,01322.9582,E,1.37,41.27,100912,,,A*52
$GPGGA,152621.000,5230.4220,N,01322.9582,E,1,10,0.9,38.1,M,44.7,M,,0000*6E
$GPGSA,A,3,03,22,21,18,16,07,06,15,30,19,,,1.5,0.9,1.3*3D
$GPRMC,152621.000,A,5230.4220,N,01322.9582,E,1.37,2.96,100912,,,A*6A
$GPGGA,152622.000,5230.4223,N,01322.9580,E,1,10,0.9,38.0,M,44.7,M,,0000*6D
$GPGSA,A,3,03,22,21,18,16,07,06,15,30,19,,,1.5,0.9,1.3*3D
$GPRMC,152622.000,A,5230.4223,N,01322.9580,E,1.53,352.25,100912,,,A*64
$GPGGA,152623.000,5230.4226,N,01322.9579,E,1,10,0.9,37.8,M,44.7,M,,0000*68
$GPGSA,A,3,03,22,21,18,16,07,06,15,30,19,,,1.5,0.9,1.2*3C
$GPRMC,152623.000,A,5230.4226,N,01322.9579,E,1.29,351.41,100912,,,A*6A
$GPGGA,152624.000,5230.4228,N,01322.9578,E,1,10,0.9,37.5,M,44.7,M,,0000*6D
$GPGSA,A,3,03,22,21,18,16,07,06,15,30,19,,,1.5,0.9,1.2*3C
$GPRMC,152624.000,A,5230.4228,N,01322.9578,E,1.21,357.91,100912,,,A*61
$GPGGA,152625.000,5230.4231,N,01322.9579,E,1,10,0.9,37.1,M,44.7,M,,0000*61
$GPGSA,A,3,03,22,21,18,16,07,06,15,30,19,,,1.5,0.9,1.2*3C
$GPGSV,3,1,12,06,83,225,36,03,69,279,33,18,52,089,42,22,46,159,44*73
$GPGSV,3,2,12,16,46,208,40,19,39,292,31,21,33,071,39,30,19,188,43*7B
$GPGSV,3,3,12,15,15,049,37,07,12,301,19,08,10,339,,26,06,014,11*7A
$GPRMC,152625.000,A,5230.4231,N,01322.9579,E,1.28,11.96,100912,,,A*56
$GPGGA,152626.000,5230.4234,N,01322.9577,E,1,10,0.9,36.8,M,44.7,M,,0000*61
$GPGSA,A,3,03,22,21,18,16,07,06,15,30,19,,,1.5,0.9,1.2*3C
$GPRMC,152626.000,A,5230.4234,N,01322.9577,E,1.35,343.49,100912,,,A*64
$GPGGA,152627.000,5230.4237,N,01322.9575,E,1,09,1.0,36.4,M,44.7,M,,0000*6D
$GPGSA,A,3,03,22,21,18,16,06,15,30,19,,,,1.8,1.0,1.5*39
$GPRMC,152627.000,A,5230.4237,N,01322.9575,E,1.23,334.84,100912,,,A*62
$GPGGA,152628.000,5230.4237,N,01322.9574,E,1,10,0.9,36.0,M,44.7,M,,0000*67
$GPGSA,A,3,03,22,21,18,16,07,06,15,30,19,,,1.5,0.9,1.2*3C
$GPRMC,152634.000,A,5230.4242,N,01322.9577,E,0.84,23.60,100912,,,A*53
$GPGGA,152635.000,5230.4243,N,01322.9580,E,1,10,0.9,34.9,M,44.7,M,,0000*68
$GPGSA,A,3,03,22,21,18,16,07,06,15,30,19,,,1.5,0.9,1.2*3C
$GPGSV,3,1,12,06,83,225,30,03,69,279,41,18,52,089,39,22,46,159,37*78
$GPGSV,3,2,12,16,46,208,37,19,39,292,42,21,33,071,37,30,19,188,36*73
$GPGSV,3,3,12,15,15,049,34,07,12,301,19,08,10,339,,26,06,014,*79
$GPRMC,152636.000,A,5230.4244,N,01322.9583,E,0.84,45.54,100912,,,A*5B
$GPGGA,152637.000,5230.4245,N,01322.9588,E,1,10,0.9,34.9,M,44.7,M,,0000*64
$GPGSA,A,3,03,22,21,18,16,07,06,15,30,19,,,1.5,0.9,1.2*3C
$GPRMC,152637.000,A,5230.4245,N,01322.9588,E,1.02,75.46,100912,,,A*5F
$GPGGA,152638.000,5230.4244,N,01322.9593,E,1,10,0.9,35.0,M,44.7,M,,0000*68
$GPGSA,A,3,03,22,21,18,16,07,06,15,30,19,,,1.5,0.9,1.2*3C
$GPRMC,152641.000,A,5230.4241,N,01322.9604,E,0.81,106.63,100912,,,A*65
$GPGGA,152642.000,5230.4240,N,01322.9609,E,1,10,0.9,36.0,M,44.7,M,,0000*62
$GPGSA,A,3,03,22,21,18,16,07,06,15,30,19,,,1.5,0.9,1.2*3C
$GPRMC,152642.000,A,5230.4240,N,01322.9609,E,0.88,105.90,100912,,,A*6C
$GPGGA,152643.000,5230.4239,N,01322.9613,E,1,10,0.9,36.3,M,44.7,M,,0000*65
$GPGSA,A,3,03,22,21,18,16,07,06,15,30,19,,,1.5,0.9,1.2*3C
$GPRMC,152643.000,A,5230.4239,N,01322.9613,E,0.81,111.37,100912,,,A*69
$GPGGA,152644.000,5230.4237,N,01322.9617,E,1,10,0.9,36.6,M,44.7,M,,0000*6D
$GPGSA,A,3,03,22,21,18,16,07,06,15,30,19,,,1.5,0.9,1.2*3C
$GPRMC,152655.000,A,5230.4230,N,01322.9658,E,0.91,106.98,100912,,,A*6A
$GPGGA,152656.000,5230.4229,N,01322.9660,E,1,10,0.9,39.4,M,44.7,M,,0000*6C
$GPGSA,A,3,03,22,21,18,16,07,06,15,30,19,,,1.5,0.9,1.2*3C
$GPRMC,152720.000,A,5230.4248,N,01322.9696,E,0.83,292.77,100912,,,A*68
$GPGGA,152721.000,5230.4251,N,01322.9694,E,1,09,1.0,37.4,M,44.7,M,,0000*67
$GPGSA,A,3,03,22,21,18,16,07,06,30,19,,,,1.7,1.0,1.4*34
$GPRMC,152721.000,A,5230.4251,N,01322.9694,E,0.91,317.20,100912,,,A*6E
$GPGGA,152722.000,5230.4253,N,01322.9695,E,1,10,0.9,37.3,M,44.7,M,,0000*60
$GPGSA,A,3,03,22,21,18,16,07,15,06,30,19,,,1.5,0.9,1.2*3C
$GPRMC,152810.000,A,5230.4266,N,01322.9698,E,0.94,145.98,100912,,,A*68
$GPGGA,152811.000,5230.4265,N,01322.9702,E,1,10,0.9,33.8,M,44.7,M,,0000*6A
$GPGSA,A,3,03,22,21,18,16,07,06,08,30,19,,,1.5,0.9,1.2*30
$GPRMC,152811.000,A,5230.4265,N,01322.9702,E,1.14,137.37,100912,,,A*61
$GPGGA,152812.000,5230.4264,N,01322.9706,E,1,10,0.9,34.0,M,44.7,M,,0000*63
$GPGSA,A,3,03,22,21,18,16,07,06,08,30,19,,,1.5,0.9,1.2*30
$GPRMC,152812.000,A,5230.4264,N,01322.9706,E,0.99,117.18,100912,,,A*6C
$GPGGA,152813.000,5230.4265,N,01322.9711,E,1,10,0.9,34.2,M,44.7,M,,0000*67
$GPGSA,A,3,03,22,21,18,16,07,15,06,30,19,,,1.5,0.9,1.2*3C
$GPRMC,152813.000,A,5230.4265,N,01322.9711,E,1.04,71.71,100912,,,A*51
$GPGGA,152814.000,5230.4266,N,01322.9717,E,1,10,0.9,34.3,M,44.7,M,,0000*64
$GPGSA,A,3,03,22,21,18,16,07,15,06,30,19,,,1.5,0.9,1.2*3C
$GPRMC,152814.000,A,5230.4266,N,01322.9717,E,1.20,81.63,100912,,,A*59
$GPGGA,152815.000,5230.4266,N,01322.9721,E,1,10,0.9,34.5,M,44.7,M,,0000*66
$GPGSA,A,3,03,22,21,18,16,07,15,06,30,19,,,1.5,0.9,1.2*3C
$GPGSV,3,1,12,06,83,212,28,03,70,277,30,18,52,086,36,22,48,158,45*7F
$GPGSV,3,2,12,16,45,207,44,19,40,292,34,21,31,071,31,30,18,188,42*72
$GPGSV,3,3,12,15,15,048,26,07,12,300,15,08,10,337,,26,06,013,15*7B
$GPRMC,152815.000,A,5230.4266,N,01322.9721,E,0.87,86.24,100912,,,A*55
$GPGGA,152816.000,5230.4266,N,01322.9724,E,1,09,0.9,34.8,M,44.7,M,,0000*65
$GPGSA,A,3,03,22,21,18,16,07,15,30,19,,,,1.7,0.9,1.4*3E
$GPRMC,152819.000,A,5230.4266,N,01322.9729,E,0.81,44.67,100912,,,A*5E
$GPGGA,152820.000,5230.4267,N,01322.9726,E,1,10,0.9,36.0,M,44.7,M,,0000*61
$GPGSA,A,3,03,22,18,16,07,15,06,21,30,19,,,1.5,0.9,1.2*3C
$GPGSV,3,1,12,06,83,212,33,03,70,277,35,18,52,086,46,22,48,158,43*71
$GPGSV,3,2,12,16,45,207,33,19,40,292,34,21,31,071,43,30,18,188,37*75
$GPGSV,3,3,12,15,15,048,30,07,12,300,16,08,10,337,,26,06,013,16*7C
$GPRMC,152821.000,A,5230.4267,N,01322.9723,E,0.99,280.82,100912,,,A*66
$GPGGA,152822.000,5230.4268,N,01322.9718,E,1,10,0.9,36.6,M,44.7,M,,0000*67
$GPGSA,A,3,03,22,18,16,07,15,06,21,30,19,,,1.5,0.9,1.2*3C
$GPRMC,152822.000,A,5230.4268,N,01322.9718,E,1.12,288.22,100912,,,A*62
$GPGGA,152823.000,5230.4269,N,01322.9715,E,1,10,0.9,36.8,M,44.7,M,,0000*64
