$GPGGA,091604.000,6533.0071,N,01926.5414,W,1,04,1.8,40.2,M,60.6,M,,0000*72
$GPGSA,A,3,14,25,32,12,,,,,,,,,2.1,1.8,1.0*39
$GPRMC,091604.000,A,6533.0071,N,01926.5414,W,20.17,154.58,040912,,,A*4C
$GPGGA,091605.000,6533.0027,N,01926.5364,W,1,04,1.8,40.6,M,60.6,M,,0000*74
$GPGSA,A,3,14,25,32,12,,,,,,,,,2.1,1.8,1.0*39
$GPRMC,091605.000,A,6533.0027,N,01926.5364,W,18.31,154.65,040912,,,A*4F
$GPGGA,091606.000,6532.9984,N,01926.5316,W,1,04,1.8,41.0,M,60.6,M,,0000*7D
$GPGSA,A,3,14,25,32,12,,,,,,,,,2.1,1.8,1.0*39
$GPRMC,091606.000,A,6532.9984,N,01926.5316,W,17.81,154.13,040912,,,A*44
$GPGGA,091607.000,6532.9941,N,01926.5265,W,1,04,1.8,41.4,M,60.6,M,,0000*74
$GPGSA,A,3,14,25,32,12,,,,,,,,,2.1,1.8,1.0*39
$GPGSV,3,1,12,25,62,200,38,12,61,095,39,14,52,218,34,32,25,312,30*7B
$GPGSV,3,2,12,31,31,278,29,04,18,050,33,20,16,342,29,29,13,167,27*72
$GPGSV,3,3,12,09,12,115,29,02,08,089,29,27,05,115,22,17,01,019,25*73
$GPRMC,091607.000,A,6532.9941,N,01926.5265,W,18.09,153.61,040912,,,A*44
$GPGGA,091608.000,6532.9896,N,01926.5212,W,1,04,1.8,41.7,M,60.6,M,,0000*73
$GPGSA,A,3,14,25,32,12,,,,,,,,,2.1,1.8,1.0*39
$GPRMC,091608.000,A,6532.9896,N,01926.5212,W,18.66,153.41,040912,,,A*4B
$GPGGA,091609.000,6532.9850,N,01926.5158,W,1,04,1.8,41.9,M,60.6,M,,0000*7B
$GPGSA,A,3,14,25,32,12,,,,,,,,,2.1,1.8,1.0*39
$GPRMC,091609.000,A,6532.9850,N,01926.5158,W,19.17,153.65,040912,,,A*4C
$GPGGA,091610.000,6532.9803,N,01926.5103,W,1,04,1.8,42.1,M,60.6,M,,0000*70
$GPGSA,A,3,14,25,32,12,,,,,,,,,2.1,1.8,1.0*39
$GPRMC,091610.000,A,6532.9803,N,01926.5103,W,19.40,153.87,040912,,,A*42
$GPGGA,091611.000,6532.9756,N,01926.5049,W,1,04,1.8,42.4,M,60.6,M,,0000*74
$GPGSA,A,3,14,25,32,12,,,,,,,,,2.1,1.8,1.0*39
$GPRMC,091611.000,A,6532.9756,N,01926.5049,W,19.40,154.06,040912,,,A*4D
$GPGGA,091612.000,6532.9710,N,01926.4996,W,1,04,1.8,42.6,M,60.6,M,,0000*7D
$GPGSA,A,3,14,25,32,12,,,,,,,,,2.1,1.8,1.0*39
$GPGSV,3,1,12,25,62,200,42,12,61,095,40,14,52,218,27,32,25,312,30*7A
$GPGSV,3,2,12,31,31,278,26,04,18,050,25,20,16,342,20,29,13,167,33*76
$GPGSV,3,3,12,09,12,115,22,02,08,089,28,27,05,115,,17,01,019,25*79
$GPRMC,091612.000,A,6532.9710,N,01926.4996,W,19.06,154.55,040912,,,A*42
$GPGGA,091613.000,6532.9664,N,01926.4946,W,1,04,1.8,42.9,M,60.6,M,,0000*7C
$GPGSA,A,3,14,25,32,12,,,,,,,,,2.1,1.8,1.0*39
$GPRMC,091613.000,A,6532.9664,N,01926.4946,W,18.87,155.45,040912,,,A*44
$GPGGA,091614.000,6532.9618,N,01926.4899,W,1,04,1.8,43.7,M,60.6,M,,0000*7C
$GPGSA,A,3,14,25,32,12,,,,,,,,,2.1,1.8,1.0*39
$GPRMC,091614.000,A,6532.9618,N,01926.4899,W,18.87,156.61,040912,,,A*4E
$GPGGA,091615.000,6532.9573,N,01926.4854,W,1,04,1.8,45.0,M,60.6,M,,0000*73
$GPGSA,A,3,14,25,32,12,,,,,,,,,2.1,1.8,1.0*39
$GPRMC,091615.000,A,6532.9573,N,01926.4854,W,19.08,157.32,040912,,,A*41
$GPGGA,091616.000,6532.9527,N,01926.4811,W,1,04,1.8,46.6,M,60.6,M,,0000*75
$GPGSA,A,3,14,25,32,12,,,,,,,,,2.1,1.8,1.0*39
$GPRMC,091616.000,A,6532.9527,N,01926.4811,W,19.35,158.17,040912,,,A*44
$GPGGA,091617.000,6532.9480,N,01926.4769,W,1,04,1.8,48.4,M,60.6,M,,0000*74
$GPGSA,A,3,14,25,32,12,,,,,,,,,2.1,1.8,1.0*39
$GPGSV,3,1,12,25,62,200,45,12,61,095,41,14,52,218,25,31,31,278,32*77
$GPGSV,3,2,12,32,25,312,27,04,18,050,32,20,16,342,17,29,13,167,33*7E
$GPGSV,3,3,12,09,12,115,31,02,08,089,26,27,05,115,,17,01,019,30*71
$GPRMC,091617.000,A,6532.9480,N,01926.4769,W,19.68,159.38,040912,,,A*4D
$GPGGA,091618.000,6532.9432,N,01926.4732,W,1,04,1.8,50.3,M,60.6,M,,0000*72
$GPGSA,A,3,14,25,32,12,,,,,,,,,2.1,1.8,1.0*39
$GPRMC,091618.000,A,6532.9432,N,01926.4732,W,19.94,161.32,040912,,,A*47
$GPGGA,091619.000,6532.9383,N,01926.4697,W,1,04,1.8,52.0,M,60.6,M,,0000*71
$GPGSA,A,3,14,25,32,12,,,,,,,,,2.1,1.8,1.0*39
$GPRMC,091619.000,A,6532.9383,N,01926.4697,W,20.17,163.19,040912,,,A*4F
$GPGGA,091620.000,6532.9332,N,01926.4666,W,1,04,1.8,53.5,M,60.6,M,,0000*7B
$GPGSA,A,3,14,25,32,12,,,,,,,,,2.1,1.8,1.0*39
$GPRMC,091620.000,A,6532.9332,N,01926.4666,W,20.29,164.82,040912,,,A*49
$GPGGA,091621.000,6532.9281,N,01926.4638,W,1,04,1.8,54.9,M,60.6,M,,0000*73
$GPGSA,A,3,14,25,32,12,,,,,,,,,2.1,1.8,1.0*39
$GPRMC,091621.000,A,6532.9281,N,01926.4638,W,20.28,166.39,040912,,,A*49
$GPGGA,091622.000,6532.9228,N,01926.4611,W,1,06,1.3,55.5,M,60.6,M,,0000*7C
$GPGSA,A,3,14,25,09,32,12,04,,,,,,,2.3,1.3,1.9*34
$GPGSV,3,1,12,25,62,200,44,12,61,095,42,14,52,218,36,31,31,278,40*72
$GPGSV,3,2,12,32,25,312,32,04,18,050,32,20,16,342,20,29,13,167,27*7B
$GPGSV,3,3,12,09,12,115,29,02,08,089,18,27,05,115,26,17,01,019,26*76
$GPRMC,091622.000,A,6532.9228,N,01926.4611,W,20.21,168.13,040912,,,A*4D
$GPGGA,091623.000,6532.9175,N,01926.4590,W,1,06,1.3,56.1,M,60.6,M,,0000*7B
$GPGSA,A,3,14,25,09,32,12,04,,,,,,,2.3,1.3,1.9*34
$GPRMC,091623.000,A,6532.9175,N,01926.4590,W,20.00,170.41,040912,,,A*40
$GPGGA,091624.000,6532.9122,N,01926.4574,W,1,06,1.3,56.7,M,60.6,M,,0000*72
$GPGSA,A,3,14,25,09,32,12,04,,,,,,,2.3,1.3,1.9*34
$GPRMC,091624.000,A,6532.9122,N,01926.4574,W,19.81,173.04,040912,,,A*4E
$GPGGA,091625.000,6532.9069,N,01926.4565,W,1,06,1.3,57.3,M,60.6,M,,0000*78
$GPGSA,A,3,14,25,09,32,12,04,,,,,,,2.3,1.3,1.9*34
$GPRMC,091625.000,A,6532.9069,N,01926.4565,W,19.49,176.03,040912,,,A*47
$GPGGA,091626.000,6532.9017,N,01926.4562,W,1,06,1.3,57.8,M,60.6,M,,0000*7E
$GPGSA,A,3,14,25,09,32,12,04,,,,,,,2.3,1.3,1.9*34
$GPRMC,091626.000,A,6532.9017,N,01926.4562,W,19.37,178.74,040912,,,A*4D
$GPGGA,091627.000,6532.8964,N,01926.4563,W,1,06,1.3,58.4,M,60.6,M,,0000*71
$GPGSA,A,3,14,25,09,32,12,04,,,,,,,2.3,1.3,1.9*34
$GPGSV,3,1,12,25,62,200,38,12,61,095,43,14,52,218,43,31,31,278,34*79
$GPGSV,3,2,12,32,25,312,31,04,18,050,30,20,16,342,32,29,13,167,35*7A
$GPGSV,3,3,12,09,11,115,30,02,08,089,,27,05,115,16,17,01,019,20*71
$GPRMC,091627.000,A,6532.8964,N,01926.4563,W,19.54,180.29,040912,,,A*4B
$GPGGA,091628.000,6532.8912,N,01926.4567,W,1,06,1.3,58.9,M,60.6,M,,0000*76
$GPGSA,A,3,14,25,09,32,12,04,,,,,,,2.3,1.3,1.9*34
$GPRMC,091628.000,A,6532.8912,N,01926.4567,W,19.20,181.52,040912,,,A*4F
$GPGGA,091629.000,6532.8861,N,01926.4573,W,1,06,1.3,59.5,M,60.6,M,,0000*7A
$GPGSA,A,3,14,25,09,32,12,04,,,,,,,2.3,1.3,1.9*34
$GPRMC,091629.000,A,6532.8861,N,01926.4573,W,19.03,182.64,040912,,,A*49
$GPGGA,091630.000,6532.8808,N,01926.4581,W,1,06,1.3,60.0,M,60.6,M,,0000*7F
$GPGSA,A,3,14,25,09,32,12,04,,,,,,,2.3,1.3,1.9*34
$GPRMC,091630.000,A,6532.8808,N,01926.4581,W,19.39,183.25,040912,,,A*4E
$GPGGA,091631.000,6532.8756,N,01926.4593,W,1,06,1.3,60.5,M,60.6,M,,0000*7C
$GPGSA,A,3,14,25,09,32,12,04,,,,,,,2.3,1.3,1.9*34
$GPRMC,091631.000,A,6532.8756,N,01926.4593,W,19.27,185.47,040912,,,A*45
$GPGGA,091632.000,6532.8704,N,01926.4614,W,1,06,1.3,60.9,M,60.6,M,,0000*78
$GPGSA,A,3,14,25,09,32,12,04,,,,,,,2.3,1.3,1.9*34
$GPGSV,3,1,12,25,62,200,38,12,61,095,42,14,52,218,42,31,31,278,35*78
$GPGSV,3,2,12,32,25,312,32,04,18,050,32,20,16,342,21,29,13,167,29*74
$GPGSV,3,3,12,09,11,115,17,02,08,089,29,27,05,115,27,17,01,019,28*75
$GPRMC,091632.000,A,6532.8704,N,01926.4614,W,18.93,189.90,040912,,,A*45
$GPGGA,091633.000,6532.8654,N,01926.4643,W,1,06,1.3,61.3,M,60.6,M,,0000*74
$GPGSA,A,3,14,25,09,32,12,04,,,,,,,2.3,1.3,1.9*34
$GPRMC,091633.000,A,6532.8654,N,01926.4643,W,18.93,193.57,040912,,,A*42
$GPGGA,091634.000,6532.8604,N,01926.4677,W,1,06,1.3,61.8,M,60.6,M,,0000*7A
$GPGSA,A,3,14,25,09,32,12,04,,,,,,,2.3,1.3,1.9*34
$GPRMC,091634.000,A,6532.8604,N,01926.4677,W,19.02,195.45,040912,,,A*4B
$GPGGA,091635.000,6532.8554,N,01926.4713,W,1,06,1.3,62.2,M,60.6,M,,0000*77
$GPGSA,A,3,14,25,09,32,12,04,,,,,,,2.3,1.3,1.9*34
$GPRMC,091635.000,A,6532.8554,N,01926.4713,W,19.03,196.56,040912,,,A*4F
$GPGGA,091636.000,6532.8507,N,01926.4754,W,1,06,1.3,62.6,M,60.6,M,,0000*75
$GPGSA,A,3,14,25,09,32,12,04,,,,,,,2.3,1.3,1.9*34
$GPRMC,091636.000,A,6532.8507,N,01926.4754,W,18.35,199.31,040912,,,A*43
$GPGGA,091637.000,6532.8459,N,01926.4796,W,1,06,1.3,62.9,M,60.6,M,,0000*7F
$GPGSA,A,3,14,25,09,32,12,04,,,,,,,2.3,1.3,1.9*34
$GPGSV,3,1,12,25,62,200,38,12,61,095,41,14,52,218,41,31,31,278,*7E
$GPGSV,3,2,12,32,25,312,27,04,18,050,29,20,16,342,30,29,13,167,30*72
$GPGSV,3,3,12,09,11,115,26,02,08,089,31,27,05,115,,17,01,019,*71
$GPRMC,091637.000,A,6532.8459,N,01926.4796,W,18.73,199.45,040912,,,A*47
$GPGGA,091638.000,6532.8412,N,01926.4843,W,1,06,1.3,63.3,M,60.6,M,,0000*73
$GPGSA,A,3,14,25,09,32,12,04,,,,,,,2.3,1.3,1.9*34
$GPRMC,091638.000,A,6532.8412,N,01926.4843,W,18.64,201.64,040912,,,A*47
$GPGGA,091639.000,6532.8366,N,01926.4895,W,1,06,1.3,63.6,M,60.6,M,,0000*78
$GPGSA,A,3,14,25,09,32,12,04,,,,,,,2.3,1.3,1.9*34
$GPRMC,091639.000,A,6532.8366,N,01926.4895,W,18.56,204.22,040912,,,A*4F
$GPGGA,091640.000,6532.8320,N,01926.4951,W,1,06,1.3,64.0,M,60.6,M,,0000*7C
$GPGSA,A,3,14,25,09,32,12,04,,,,,,,2.3,1.3,1.9*34
$GPRMC,091640.000,A,6532.8320,N,01926.4951,W,18.62,206.35,040912,,,A*49
$GPGGA,091641.000,6532.8276,N,01926.5011,W,1,06,1.3,64.3,M,60.6,M,,0000*70
$GPGSA,A,3,14,25,09,32,12,04,,,,,,,2.3,1.3,1.9*34
$GPRMC,091641.000,A,6532.8276,N,01926.5011,W,18.61,208.35,040912,,,A*4B
$GPGGA,091642.000,6532.8232,N,01926.5074,W,1,06,1.3,64.6,M,60.6,M,,0000*75
$GPGSA,A,3,14,25,09,32,12,04,,,,,,,2.3,1.3,1.9*34
$GPGSV,3,1,12,25,62,200,38,12,61,095,28,14,52,218,33,31,31,278,34*73
$GPGSV,3,2,12,32,25,312,37,04,18,050,20,20,16,342,33,29,13,167,29*71
$GPGSV,3,3,12,09,11,115,35,02,08,089,19,27,05,115,27,17,01,019,24*7A
$GPRMC,091642.000,A,6532.8232,N,01926.5074,W,18.57,209.77,040912,,,A*49
$GPGGA,091643.000,6532.8189,N,01926.5139,W,1,06,1.3,64.9,M,60.6,M,,0000*70
$GPGSA,A,3,14,25,09,32,12,04,,,,,,,2.3,1.3,1.9*34
$GPRMC,091643.000,A,6532.8189,N,01926.5139,W,18.53,211.01,040912,,,A*4F
$GPGGA,091644.000,6532.8146,N,01926.5205,W,1,06,1.3,65.2,M,60.6,M,,0000*72
$GPGSA,A,3,14,25,09,32,12,04,,,,,,,2.3,1.3,1.9*34
$GPRMC,091644.000,A,6532.8146,N,01926.5205,W,18.53,211.98,040912,,,A*47
$GPGGA,091645.000,6532.8103,N,01926.5275,W,1,06,1.3,65.6,M,60.6,M,,0000*71
$GPGSA,A,3,14,25,09,32,12,04,,,,,,,2.3,1.3,1.9*34
$GPRMC,091645.000,A,6532.8103,N,01926.5275,W,18.82,213.55,040912,,,A*4F
$GPGGA,091646.000,6532.8061,N,01926.5350,W,1,06,1.3,66.1,M,60.6,M,,0000*75
$GPGSA,A,3,14,25,09,32,12,04,,,,,,,2.3,1.3,1.9*34
$GPRMC,091646.000,A,6532.8061,N,01926.5350,W,19.15,215.71,040912,,,A*40
$GPGGA,091647.000,6532.8019,N,01926.5431,W,1,05,1.7,66.5,M,60.6,M,,0000*78
$GPGSA,A,3,14,25,09,32,12,,,,,,,,2.6,1.7,1.9*31
$GPGSV,3,1,12,25,62,200,37,12,61,095,29,14,52,218,30,31,31,278,40*7D
$GPGSV,3,2,12,32,25,312,32,04,18,050,,20,16,342,27,29,13,167,34*7F
$GPGSV,3,3,12,09,11,115,25,02,08,089,26,27,05,115,31,17,01,019,12*75
$GPRMC,091647.000,A,6532.8019,N,01926.5431,W,19.51,218.13,040912,,,A*47
$GPGGA,091648.000,6532.7978,N,01926.5516,W,1,05,1.7,66.8,M,60.6,M,,0000*7F
$GPGSA,A,3,14,25,09,32,12,,,,,,,,2.6,1.7,1.9*31
$GPRMC,091648.000,A,6532.7978,N,01926.5516,W,19.75,220.01,040912,,,A*43
$GPGGA,091649.000,6532.7937,N,01926.5604,W,1,06,1.3,67.2,M,60.6,M,,0000*79
$GPGSA,A,3,14,25,09,32,12,04,,,,,,,2.3,1.3,1.9*34
$GPRMC,091649.000,A,6532.7937,N,01926.5604,W,19.80,221.75,040912,,,A*41
$GPGGA,091650.000,6532.7898,N,01926.5695,W,1,06,1.3,67.4,M,60.6,M,,0000*7B
$GPGSA,A,3,14,25,09,32,12,04,,,,,,,2.3,1.3,1.9*34
$GPRMC,091650.000,A,6532.7898,N,01926.5695,W,19.64,223.70,040912,,,A*48
$GPGGA,091651.000,6532.7860,N,01926.5791,W,1,06,1.3,67.7,M,60.6,M,,0000*7B
$GPGSA,A,3,14,25,09,32,12,04,,,,,,,2.3,1.3,1.9*34
$GPRMC,091651.000,A,6532.7860,N,01926.5791,W,19.83,225.84,040912,,,A*4F
$GPGGA,091652.000,6532.7823,N,01926.5888,W,1,06,1.3,67.9,M,60.6,M,,0000*76
$GPGSA,A,3,14,25,09,32,12,04,,,,,,,2.3,1.3,1.9*34
$GPGSV,3,1,12,25,62,200,31,12,61,095,31,14,52,218,35,31,31,278,39*79
$GPGSV,3,2,12,32,25,312,31,04,18,050,28,20,16,342,,29,13,167,29*7F
$GPGSV,3,3,12,09,11,115,31,02,08,089,30,27,05,115,28,17,01,019,*7C
$GPRMC,091652.000,A,6532.7823,N,01926.5888,W,19.65,227.56,040912,,,A*49
$GPGGA,091653.000,6532.7788,N,01926.5986,W,1,06,1.3,68.1,M,60.6,M,,0000*71
$GPGSA,A,3,14,25,09,32,12,04,,,,,,,2.3,1.3,1.9*34
$GPRMC,091653.000,A,6532.7788,N,01926.5986,W,19.49,228.99,040912,,,A*4B
$GPGGA,091654.000,6532.7754,N,01926.6086,W,1,06,1.3,68.4,M,60.6,M,,0000*78
$GPGSA,A,3,14,25,09,32,12,04,,,,,,,2.3,1.3,1.9*34
$GPRMC,091654.000,A,6532.7754,N,01926.6086,W,19.25,230.47,040912,,,A*47
$GPGGA,091655.000,6532.7721,N,01926.6186,W,1,06,1.3,68.7,M,60.6,M,,0000*79
$GPGSA,A,3,14,25,09,32,12,04,,,,,,,2.3,1.3,1.9*34
$GPRMC,091655.000,A,6532.7721,N,01926.6186,W,19.11,231.81,040912,,,A*49
$GPGGA,091656.000,6532.7689,N,01926.6288,W,1,06,1.3,68.9,M,60.6,M,,0000*7A
$GPGSA,A,3,14,25,09,32,12,04,,,,,,,2.3,1.3,1.9*34
$GPRMC,091656.000,A,6532.7689,N,01926.6288,W,18.96,233.59,040912,,,A*4D
$GPGGA,091657.000,6532.7659,N,01926.6392,W,1,06,1.3,69.1,M,60.6,M,,0000*75
$GPGSA,A,3,14,25,09,32,12,04,,,,,,,2.3,1.3,1.9*34
$GPGSV,3,1,12,25,62,199,33,12,61,095,36,14,52,218,32,31,32,278,37*75
$GPGSV,3,2,12,32,25,312,25,04,18,050,32,20,16,341,33,29,13,167,21*7A
$GPGSV,3,3,12,09,11,115,25,02,08,089,25,27,05,115,25,17,01,019,23*71
$GPRMC,091657.000,A,6532.7659,N,01926.6392,W,18.87,235.22,040912,,,A*41
$GPGGA,091658.000,6532.7630,N,01926.6496,W,1,06,1.3,69.3,M,60.6,M,,0000*74
$GPGSA,A,3,14,25,09,32,12,04,,,,,,,2.3,1.3,1.9*34
$GPRMC,091658.000,A,6532.7630,N,01926.6496,W,18.68,236.03,040912,,,A*43
$GPGGA,091659.000,6532.7602,N,01926.6600,W,1,06,1.3,69.6,M,60.6,M,,0000*7C
$GPGSA,A,3,14,25,09,32,12,04,,,,,,,2.3,1.3,1.9*34
$GPRMC,091659.000,A,6532.7602,N,01926.6600,W,18.53,237.40,040912,,,A*40
$GPGGA,091700.000,6532.7575,N,01926.6706,W,1,06,1.3,69.8,M,60.6,M,,0000*7B
$GPGSA,A,3,14,25,09,32,12,04,,,,,,,2.3,1.3,1.9*34
$GPRMC,091700.000,A,6532.7575,N,01926.6706,W,18.59,238.66,040912,,,A*48
$GPGGA,091701.000,6532.7548,N,01926.6812,W,1,06,1.3,70.1,M,60.6,M,,0000*7F
$GPGSA,A,3,14,25,09,32,12,04,,,,,,,2.3,1.3,1.9*34
$GPRMC,091701.000,A,6532.7548,N,01926.6812,W,18.53,239.77,040912,,,A*46
$GPGGA,091702.000,6532.7523,N,01926.6919,W,1,06,1.3,70.5,M,60.6,M,,0000*7F
$GPGSA,A,3,14,25,09,32,12,04,,,,,,,2.3,1.3,1.9*34
$GPGSV,3,1,12,25,62,199,38,12,61,095,28,14,52,218,23,31,32,278,33*75
$GPGSV,3,2,12,32,25,312,24,04,18,050,31,20,16,341,25,29,13,167,20*7E
$GPGSV,3,3,12,09,11,115,29,02,08,089,21,27,05,115,21,17,01,019,28*76
$GPRMC,091702.000,A,6532.7523,N,01926.6919,W,18.48,241.00,040912,,,A*47
$GPGGA,091703.000,6532.7498,N,01926.7026,W,1,06,1.3,71.0,M,60.6,M,,0000*7F
$GPGSA,A,3,14,25,09,32,12,04,,,,,,,2.3,1.3,1.9*34
$GPRMC,091703.000,A,6532.7498,N,01926.7026,W,18.57,241.21,040912,,,A*4E
$GPGGA,091704.000,6532.7473,N,01926.7135,W,1,06,1.3,71.4,M,60.6,M,,0000*7A
$GPGSA,A,3,14,25,09,32,12,04,,,,,,,2.3,1.3,1.9*34
$GPRMC,091704.000,A,6532.7473,N,01926.7135,W,18.78,241.46,040912,,,A*43
$GPGGA,091705.000,6532.7451,N,01926.7249,W,1,06,1.3,71.9,M,60.6,M,,0000*7E
$GPGSA,A,3,14,25,09,32,12,04,,,,,,,2.3,1.3,1.9*34
$GPRMC,091705.000,A,6532.7451,N,01926.7249,W,19.12,245.18,040912,,,A*48
$GPGGA,091706.000,6532.7431,N,01926.7366,W,1,06,1.3,72.3,M,60.6,M,,0000*7E
$GPGSA,A,3,14,25,09,32,12,04,,,,,,,2.3,1.3,1.9*34
$GPRMC,091706.000,A,6532.7431,N,01926.7366,W,19.25,247.41,040912,,,A*4B
$GPGGA,091707.000,6532.7412,N,01926.7486,W,1,06,1.3,72.8,M,60.6,M,,0000*7C
$GPGSA,A,3,14,25,09,32,12,04,,,,,,,2.3,1.3,1.9*34
$GPGSV,3,1,12,25,62,199,38,12,61,095,33,14,52,218,34,31,32,278,37*7D
$GPGSV,3,2,12,32,25,312,30,04,18,050,27,20,16,341,24,29,13,167,32*7E
$GPGSV,3,3,12,09,11,115,35,02,08,089,30,27,05,115,26,17,01,019,31*74
$GPRMC,091707.000,A,6532.7412,N,01926.7486,W,19.47,248.60,040912,,,A*4A
$GPGGA,091708.000,6532.7394,N,01926.7610,W,1,06,1.3,73.3,M,60.6,M,,0000*7D
$GPGSA,A,3,14,25,09,32,12,04,,,,,,,2.3,1.3,1.9*34
$GPRMC,091708.000,A,6532.7394,N,01926.7610,W,19.94,249.99,040912,,,A*48
$GPGGA,091709.000,6532.7376,N,01926.7738,W,1,06,1.3,73.8,M,60.6,M,,0000*70
$GPGSA,A,3,14,25,09,32,12,04,,,,,,,2.3,1.3,1.9*34
$GPRMC,091709.000,A,6532.7376,N,01926.7738,W,20.32,251.21,040912,,,A*42
$GPGGA,091710.000,6532.7359,N,01926.7868,W,1,06,1.3,74.3,M,60.6,M,,0000*73
$GPGSA,A,3,14,25,09,32,12,04,,,,,,,2.3,1.3,1.9*34
$GPRMC,091710.000,A,6532.7359,N,01926.7868,W,20.71,251.53,040912,,,A*4F
$GPGGA,091711.000,6532.7343,N,01926.8001,W,1,06,1.3,74.7,M,60.6,M,,0000*75
$GPGSA,A,3,14,25,09,32,12,04,,,,,,,2.3,1.3,1.9*34
$GPRMC,091711.000,A,6532.7343,N,01926.8001,W,20.86,252.82,040912,,,A*4A
$GPGGA,091712.000,6532.7328,N,01926.8136,W,1,06,1.3,75.2,M,60.6,M,,0000*7A
$GPGSA,A,3,14,25,09,32,12,04,,,,,,,2.3,1.3,1.9*34
$GPGSV,3,1,12,25,62,199,40,12,61,095,31,14,52,218,33,31,32,278,36*76
$GPGSV,3,2,12,32,25,312,30,04,18,050,26,20,16,341,22,29,13,167,25*7F
$GPGSV,3,3,12,09,11,115,29,02,08,089,29,27,05,115,22,17,01,019,24*71
$GPRMC,091712.000,A,6532.7328,N,01926.8136,W,21.06,253.99,040912,,,A*43
$GPGGA,091713.000,6532.7313,N,01926.8273,W,1,06,1.3,75.7,M,60.6,M,,0000*74
$GPGSA,A,3,14,25,09,32,12,04,,,,,,,2.3,1.3,1.9*34
$GPRMC,091713.000,A,6532.7313,N,01926.8273,W,21.33,254.73,040912,,,A*4D
$GPGGA,091714.000,6532.7299,N,01926.8411,W,1,06,1.3,76.3,M,60.6,M,,0000*75
$GPGSA,A,3,14,25,09,32,12,04,,,,,,,2.3,1.3,1.9*34
$GPRMC,091714.000,A,6532.7299,N,01926.8411,W,21.54,255.56,040912,,,A*4C
$GPGGA,091715.000,6532.7286,N,01926.8553,W,1,06,1.3,76.9,M,60.6,M,,0000*77
$GPGSA,A,3,14,25,09,32,12,04,,,,,,,2.3,1.3,1.9*34
$GPRMC,091715.000,A,6532.7286,N,01926.8553,W,21.92,256.50,040912,,,A*4B
$GPGGA,091716.000,6532.7274,N,01926.8699,W,1,06,1.3,77.5,M,60.6,M,,0000*71
$GPGSA,A,3,14,25,09,32,12,04,,,,,,,2.3,1.3,1.9*34
$GPRMC,091716.000,A,6532.7274,N,01926.8699,W,22.34,257.73,040912,,,A*4F
$GPGGA,091717.000,6532.7262,N,01926.8846,W,1,05,2.0,78.1,M,60.6,M,,0000*73
$GPGSA,A,3,14,25,09,12,04,,,,,,,,3.2,2.0,2.4*3B
$GPGSV,3,1,12,25,62,199,41,12,61,095,31,14,52,218,34,31,32,278,36*70
$GPGSV,3,2,12,32,25,312,18,04,18,050,26,20,16,341,28,29,13,167,30*7B
$GPGSV,3,3,12,09,11,115,31,02,08,089,29,27,05,115,25,17,01,019,33*79
$GPRMC,091717.000,A,6532.7262,N,01926.8846,W,22.60,258.24,040912,,,A*49
$GPGGA,091718.000,6532.7251,N,01926.8993,W,1,06,1.3,78.8,M,60.6,M,,0000*7F
$GPGSA,A,3,14,25,09,32,12,04,,,,,,,2.3,1.3,1.9*34
$GPRMC,091718.000,A,6532.7251,N,01926.8993,W,22.66,258.73,040912,,,A*4B
$GPGGA,091719.000,6532.7241,N,01926.9144,W,1,06,1.3,79.4,M,60.6,M,,0000*71
$GPGSA,A,3,14,25,09,32,12,04,,,,,,,2.3,1.3,1.9*34
$GPRMC,091719.000,A,6532.7241,N,01926.9144,W,23.07,259.36,040912,,,A*4E
$GPGGA,091720.000,6532.7230,N,01926.9299,W,1,06,1.3,79.9,M,60.6,M,,0000*73
$GPGSA,A,3,14,25,09,32,12,04,,,,,,,2.3,1.3,1.9*34
$GPRMC,091720.000,A,6532.7230,N,01926.9299,W,23.51,259.45,040912,,,A*46
$GPGGA,091721.000,6532.7219,N,01926.9455,W,1,06,1.3,80.4,M,60.6,M,,0000*74
$GPGSA,A,3,14,25,09,32,12,04,,,,,,,2.3,1.3,1.9*34
$GPRMC,091721.000,A,6532.7219,N,01926.9455,W,23.77,259.34,040912,,,A*48
$GPGGA,091722.000,6532.7208,N,01926.9611,W,1,07,1.2,80.8,M,60.6,M,,0000*79
$GPGSA,A,3,14,25,09,32,12,31,04,,,,,,2.2,1.2,1.8*37
$GPGSV,3,1,12,25,62,199,42,12,61,095,34,14,52,218,35,31,32,278,36*77
$GPGSV,3,2,12,32,25,312,20,04,18,050,24,20,16,341,24,29,13,167,32*7C
$GPGSV,3,3,12,09,11,115,28,02,08,089,30,27,05,115,19,17,01,019,33*76
$GPRMC,091722.000,A,6532.7208,N,01926.9611,W,23.86,259.21,040912,,,A*43
$GPGGA,091723.000,6532.7198,N,01926.9765,W,1,07,1.2,81.2,M,60.6,M,,0000*7B
$GPGSA,A,3,14,25,09,32,12,31,04,,,,,,2.2,1.2,1.8*37
$GPRMC,091723.000,A,6532.7198,N,01926.9765,W,23.38,259.50,040912,,,A*49
$GPGGA,091724.000,6532.7187,N,01926.9923,W,1,07,1.2,81.5,M,60.6,M,,0000*79
$GPGSA,A,3,14,25,09,32,12,31,04,,,,,,2.2,1.2,1.8*37
$GPRMC,091724.000,A,6532.7187,N,01926.9923,W,23.92,259.81,040912,,,A*40
$GPGGA,091725.000,6532.7177,N,01927.0086,W,1,07,1.2,81.8,M,60.6,M,,0000*74
$GPGSA,A,3,14,25,09,32,12,31,04,,,,,,2.2,1.2,1.8*37
$GPRMC,091725.000,A,6532.7177,N,01927.0086,W,24.71,260.72,040912,,,A*4C
$GPGGA,091726.000,6532.7167,N,01927.0256,W,1,07,1.2,82.0,M,60.6,M,,0000*72
$GPGSA,A,3,14,25,09,32,12,31,04,,,,,,2.2,1.2,1.8*37
$GPRMC,091726.000,A,6532.7167,N,01927.0256,W,25.67,261.08,040912,,,A*4B
$GPGGA,091727.000,6532.7157,N,01927.0429,W,1,07,1.2,82.2,M,60.6,M,,0000*7C
$GPGSA,A,3,14,25,09,32,12,31,04,,,,,,2.2,1.2,1.8*37
$GPGSV,3,1,12,25,63,199,42,12,61,094,34,14,52,217,36,31,32,278,36*7B
$GPGSV,3,2,12,32,25,312,19,04,18,050,17,20,17,341,25,29,13,167,32*76
$GPGSV,3,3,12,09,11,115,29,02,08,089,30,27,04,115,27,17,01,019,33*7B
$GPRMC,091727.000,A,6532.7157,N,01927.0429,W,26.25,260.86,040912,,,A*45
$GPGGA,091728.000,6532.7147,N,01927.0605,W,1,07,1.2,82.3,M,60.6,M,,0000*7F
$GPGSA,A,3,14,25,09,32,12,31,04,,,,,,2.2,1.2,1.8*37
$GPRMC,091728.000,A,6532.7147,N,01927.0605,W,26.59,261.53,040912,,,A*45
$GPGGA,091729.000,6532.7136,N,01927.0784,W,1,07,1.2,82.4,M,60.6,M,,0000*77
$GPGSA,A,3,14,25,09,32,12,31,04,,,,,,2.2,1.2,1.8*37
$GPRMC,091729.000,A,6532.7136,N,01927.0784,W,27.14,261.18,040912,,,A*4D
$GPGGA,091730.000,6532.7125,N,01927.0966,W,1,07,1.2,82.4,M,60.6,M,,0000*7F
$GPGSA,A,3,14,25,09,32,12,31,04,,,,,,2.2,1.2,1.8*37
$GPRMC,091730.000,A,6532.7125,N,01927.0966,W,27.47,260.82,040912,,,A*41
$GPGGA,091731.000,6532.7113,N,01927.1149,W,1,07,1.2,82.4,M,60.6,M,,0000*7F
$GPGSA,A,3,14,25,09,32,12,31,04,,,,,,2.2,1.2,1.8*37
$GPRMC,091731.000,A,6532.7113,N,01927.1149,W,27.78,260.54,040912,,,A*46
$GPGGA,091732.000,6532.7100,N,01927.1333,W,1,07,1.2,82.3,M,60.6,M,,0000*76
$GPGSA,A,3,14,25,09,32,12,31,04,,,,,,2.2,1.2,1.8*37
$GPGSV,3,1,12,25,63,199,43,12,61,094,36,14,51,217,36,31,32,278,36*7B
$GPGSV,3,2,12,32,25,311,26,04,18,050,23,20,17,341,26,29,13,167,32*7D
$GPGSV,3,3,12,09,11,115,29,02,08,089,30,27,04,115,28,17,01,019,31*76
$GPRMC,091732.000,A,6532.7100,N,01927.1333,W,27.90,260.30,040912,,,A*4C
$GPGGA,091733.000,6532.7089,N,01927.1519,W,1,07,1.2,82.2,M,60.6,M,,0000*78
$GPGSA,A,3,14,25,09,32,12,31,04,,,,,,2.2,1.2,1.8*37
$GPRMC,091733.000,A,6532.7089,N,01927.1519,W,28.08,261.01,040912,,,A*4E
$GPGGA,091734.000,6532.7077,N,01927.1707,W,1,08,0.9,82.0,M,60.6,M,,0000*74
$GPGSA,A,3,14,25,09,32,12,31,29,04,,,,,1.7,0.9,1.4*3C
$GPRMC,091734.000,A,6532.7077,N,01927.1707,W,28.46,260.76,040912,,,A*4E
$GPGGA,091735.000,6532.7064,N,01927.1898,W,1,08,0.9,81.7,M,60.6,M,,0000*7A
$GPGSA,A,3,14,25,09,32,12,31,29,04,,,,,1.7,0.9,1.4*3C
$GPRMC,091735.000,A,6532.7064,N,01927.1898,W,28.97,260.56,040912,,,A*4A
$GPGGA,091736.000,6532.7050,N,01927.2093,W,1,08,0.9,81.5,M,60.6,M,,0000*7C
$GPGSA,A,3,14,25,09,32,12,31,29,04,,,,,1.7,0.9,1.4*3C
$GPRMC,091736.000,A,6532.7050,N,01927.2093,W,29.54,260.40,040912,,,A*47
$GPGGA,091737.000,6532.7037,N,01927.2291,W,1,07,1.0,81.2,M,60.6,M,,0000*7C
$GPGSA,A,3,14,25,32,12,31,29,04,,,,,,1.8,1.0,1.5*33
$GPGSV,3,1,12,25,63,199,43,12,61,094,36,14,51,217,36,31,32,278,35*78
$GPGSV,3,2,12,32,25,311,27,04,18,050,25,20,17,341,26,29,13,167,32*7A
$GPGSV,3,3,12,09,11,115,,02,08,089,30,27,04,115,29,17,01,019,32*7F
$GPRMC,091737.000,A,6532.7037,N,01927.2291,W,30.00,260.55,040912,,,A*4A
$GPGGA,091738.000,6532.7024,N,01927.2490,W,1,08,0.9,81.0,M,60.6,M,,0000*73
$GPGSA,A,3,14,25,09,32,12,31,29,04,,,,,1.7,0.9,1.4*3C
$GPRMC,091738.000,A,6532.7024,N,01927.2490,W,30.22,260.70,040912,,,A*47
$GPGGA,091739.000,6532.7010,N,01927.2689,W,1,08,0.9,80.8,M,60.6,M,,0000*76
$GPGSA,A,3,14,25,09,32,12,31,29,04,,,,,1.7,0.9,1.4*3C
$GPRMC,091739.000,A,6532.7010,N,01927.2689,W,30.16,260.46,040912,,,A*49
$GPGGA,091740.000,6532.6996,N,01927.2887,W,1,08,0.9,80.6,M,60.6,M,,0000*70
$GPGSA,A,3,14,25,09,32,12,31,29,04,,,,,1.7,0.9,1.4*3C
$GPRMC,091740.000,A,6532.6996,N,01927.2887,W,29.98,260.43,040912,,,A*4A
$GPGGA,091741.000,6532.6982,N,01927.3086,W,1,08,0.9,80.4,M,60.6,M,,0000*7E
$GPGSA,A,3,14,25,09,32,12,31,29,04,,,,,1.7,0.9,1.4*3C
$GPRMC,091741.000,A,6532.6982,N,01927.3086,W,30.02,260.57,040912,,,A*48
$GPGGA,091742.000,6532.6969,N,01927.3284,W,1,08,0.9,80.3,M,60.6,M,,0000*7F
$GPGSA,A,3,14,25,09,32,12,31,29,04,,,,,1.7,0.9,1.4*3C
$GPGSV,3,1,12,25,63,199,43,12,61,094,37,14,51,217,36,31,32,278,35*79
$GPGSV,3,2,12,32,25,311,25,04,18,050,25,20,17,341,26,29,13,167,32*78
$GPGSV,3,3,12,09,11,115,30,02,08,089,30,27,04,115,28,17,01,019,33*7C
$GPRMC,091742.000,A,6532.6969,N,01927.3284,W,30.04,260.72,040912,,,A*4F
$GPGGA,091743.000,6532.6955,N,01927.3483,W,1,08,0.9,80.2,M,60.6,M,,0000*71
$GPGSA,A,3,14,25,09,32,12,31,29,04,,,,,1.7,0.9,1.4*3C
$GPRMC,091743.000,A,6532.6955,N,01927.3483,W,30.20,260.17,040912,,,A*45
$GPGGA,091744.000,6532.6940,N,01927.3683,W,1,08,0.9,80.2,M,60.6,M,,0000*70
$GPGSA,A,3,14,25,09,32,12,31,29,04,,,,,1.7,0.9,1.4*3C
$GPRMC,091744.000,A,6532.6940,N,01927.3683,W,30.36,259.89,040912,,,A*4E
$GPGGA,091745.000,6532.6925,N,01927.3884,W,1,08,0.9,80.2,M,60.6,M,,0000*7B
$GPGSA,A,3,14,25,09,32,12,31,29,04,,,,,1.7,0.9,1.4*3C
$GPRMC,091745.000,A,6532.6925,N,01927.3884,W,30.43,260.22,040912,,,A*4C
$GPGGA,091746.000,6532.6912,N,01927.4084,W,1,08,0.9,80.3,M,60.6,M,,0000*72
$GPGSA,A,3,14,25,09,32,12,31,29,04,,,,,1.7,0.9,1.4*3C
$GPRMC,091746.000,A,6532.6912,N,01927.4084,W,30.27,260.68,040912,,,A*48
$GPGGA,091747.000,6532.6898,N,01927.4283,W,1,08,0.9,80.3,M,60.6,M,,0000*75
$GPGSA,A,3,14,25,09,32,12,31,29,04,,,,,1.7,0.9,1.4*3C
$GPGSV,3,1,12,25,63,199,43,12,61,094,36,14,51,217,36,31,32,278,31*7C
$GPGSV,3,2,12,32,25,311,30,04,18,050,21,20,17,341,27,29,13,167,32*79
$GPGSV,3,3,12,09,11,115,31,02,08,089,35,27,04,115,28,17,01,019,32*79
$GPRMC,091747.000,A,6532.6898,N,01927.4283,W,30.17,260.78,040912,,,A*4D
$GPGGA,091748.000,6532.6884,N,01927.4483,W,1,08,0.9,80.4,M,60.6,M,,0000*76
$GPGSA,A,3,14,25,09,32,12,31,29,04,,,,,1.7,0.9,1.4*3C
$GPRMC,091748.000,A,6532.6884,N,01927.4483,W,30.38,260.41,040912,,,A*4E
$GPGGA,091749.000,6532.6869,N,01927.4686,W,1,08,0.9,80.4,M,60.6,M,,0000*73
$GPGSA,A,3,14,25,09,32,12,31,29,04,,,,,1.7,0.9,1.4*3C
$GPRMC,091749.000,A,6532.6869,N,01927.4686,W,30.81,260.08,040912,,,A*44
$GPGGA,091750.000,6532.6854,N,01927.4893,W,1,08,0.9,80.5,M,60.6,M,,0000*7E
$GPGSA,A,3,14,25,09,32,12,31,29,04,,,,,1.7,0.9,1.4*3C
$GPRMC,091750.000,A,6532.6854,N,01927.4893,W,31.39,260.14,040912,,,A*47
$GPGGA,091751.000,6532.6839,N,01927.5102,W,1,08,0.9,80.6,M,60.6,M,,0000*77
$GPGSA,A,3,14,25,09,32,12,31,29,04,,,,,1.7,0.9,1.4*3C
$GPRMC,091751.000,A,6532.6839,N,01927.5102,W,31.67,260.64,040912,,,A*41
$GPGGA,091752.000,6532.6825,N,01927.5311,W,1,08,0.9,80.7,M,60.6,M,,0000*78
$GPGSA,A,3,14,25,09,32,12,31,29,04,,,,,1.7,0.9,1.4*3C
$GPGSV,3,1,12,25,63,199,43,12,61,094,36,14,51,217,36,31,32,278,34*79
$GPGSV,3,2,12,32,25,311,20,04,18,050,21,20,17,341,26,29,13,167,32*79
$GPGSV,3,3,12,09,11,115,30,02,08,089,34,27,04,115,25,17,01,019,31*77
$GPRMC,091752.000,A,6532.6825,N,01927.5311,W,31.72,260.80,040912,,,A*41
$GPGGA,091753.000,6532.6810,N,01927.5522,W,1,08,0.9,80.8,M,60.6,M,,0000*76
$GPGSA,A,3,14,25,09,32,12,31,29,04,,,,,1.7,0.9,1.4*3C
$GPRMC,091753.000,A,6532.6810,N,01927.5522,W,31.88,260.41,040912,,,A*48
$GPGGA,091754.000,6532.6795,N,01927.5732,W,1,08,0.9,80.9,M,60.6,M,,0000*71
$GPGSA,A,3,14,25,09,32,12,31,29,04,,,,,1.7,0.9,1.4*3C
$GPRMC,091754.000,A,6532.6795,N,01927.5732,W,31.91,260.42,040912,,,A*45
$GPGGA,091755.000,6532.6781,N,01927.5941,W,1,08,0.9,81.0,M,60.6,M,,0000*77
$GPGSA,A,3,14,25,09,32,12,31,29,04,,,,,1.7,0.9,1.4*3C
$GPRMC,091755.000,A,6532.6781,N,01927.5941,W,31.57,260.62,040912,,,A*43
$GPGGA,091756.000,6532.6766,N,01927.6148,W,1,08,0.9,81.1,M,60.6,M,,0000*7E
$GPGSA,A,3,14,25,09,32,12,31,29,04,,,,,1.7,0.9,1.4*3C
$GPRMC,091756.000,A,6532.6766,N,01927.6148,W,31.38,260.68,040912,,,A*48
$GPGGA,091757.000,6532.6752,N,01927.6354,W,1,08,0.9,81.2,M,60.6,M,,0000*74
$GPGSA,A,3,14,25,09,32,12,31,29,04,,,,,1.7,0.9,1.4*3C
$GPGSV,3,1,12,25,63,199,43,12,61,094,36,14,51,217,36,31,32,278,35*78
$GPGSV,3,2,12,32,25,311,20,04,18,050,22,20,17,341,26,29,13,167,32*7A
$GPGSV,3,3,12,09,11,115,30,02,08,089,34,27,04,115,26,17,01,019,31*74
$GPRMC,091757.000,A,6532.6752,N,01927.6354,W,31.27,260.41,040912,,,A*44
$GPGGA,091758.000,6532.6737,N,01927.6561,W,1,08,0.9,81.4,M,60.6,M,,0000*7E
$GPGSA,A,3,14,25,09,32,12,31,29,04,,,,,1.7,0.9,1.4*3C
$GPRMC,091758.000,A,6532.6737,N,01927.6561,W,31.39,260.32,040912,,,A*43
$GPGGA,091759.000,6532.6723,N,01927.6769,W,1,08,0.9,81.6,M,60.6,M,,0000*72
$GPGSA,A,3,14,25,09,32,12,31,29,04,,,,,1.7,0.9,1.4*3C
$GPRMC,091759.000,A,6532.6723,N,01927.6769,W,31.36,260.71,040912,,,A*45
$GPGGA,091800.000,6532.6709,N,01927.6977,W,1,08,0.9,81.7,M,60.6,M,,0000*79
$GPGSA,A,3,14,25,09,32,12,31,29,04,,,,,1.7,0.9,1.4*3C
$GPRMC,091800.000,A,6532.6709,N,01927.6977,W,31.48,261.09,040912,,,A*48
$GPGGA,091801.000,6532.6695,N,01927.7184,W,1,08,0.9,81.9,M,60.6,M,,0000*77
$GPGSA,A,3,14,25,09,32,12,31,29,04,,,,,1.7,0.9,1.4*3C
$GPRMC,091801.000,A,6532.6695,N,01927.7184,W,31.40,260.88,040912,,,A*48
$GPGGA,091802.000,6532.6681,N,01927.7393,W,1,08,0.9,82.0,M,60.6,M,,0000*7F
$GPGSA,A,3,14,25,09,32,12,31,29,04,,,,,1.7,0.9,1.4*3C
$GPGSV,3,1,12,25,63,199,43,12,61,094,36,14,51,217,36,31,32,278,35*78
$GPGSV,3,2,12,32,25,311,25,04,18,050,25,20,17,341,25,29,13,167,32*7B
$GPGSV,3,3,12,09,11,115,29,02,08,089,34,27,04,115,27,17,01,019,31*7D
$GPRMC,091802.000,A,6532.6681,N,01927.7393,W,31.63,260.86,040912,,,A*45
$GPGGA,091803.000,6532.6666,N,01927.7602,W,1,08,0.9,82.2,M,60.6,M,,0000*78
$GPGSA,A,3,14,25,09,32,12,31,29,04,,,,,1.7,0.9,1.4*3C
$GPRMC,091803.000,A,6532.6666,N,01927.7602,W,31.65,260.59,040912,,,A*44
$GPGGA,091804.000,6532.6652,N,01927.7810,W,1,08,0.9,82.3,M,60.6,M,,0000*74
$GPGSA,A,3,14,25,09,32,12,31,29,04,,,,,1.7,0.9,1.4*3C
$GPRMC,091804.000,A,6532.6652,N,01927.7810,W,31.48,260.94,040912,,,A*47
$GPGGA,091805.000,6532.6638,N,01927.8018,W,1,08,0.9,82.4,M,60.6,M,,0000*71
$GPGSA,A,3,14,25,09,32,12,31,29,04,,,,,1.7,0.9,1.4*3C
$GPRMC,091805.000,A,6532.6638,N,01927.8018,W,31.40,260.89,040912,,,A*41
$GPGGA,091806.000,6532.6624,N,01927.8226,W,1,08,0.9,82.6,M,60.6,M,,0000*72
$GPGSA,A,3,14,25,09,32,12,31,29,04,,,,,1.7,0.9,1.4*3C
$GPRMC,091806.000,A,6532.6624,N,01927.8226,W,31.42,260.62,040912,,,A*47
$GPGGA,091807.000,6532.6609,N,01927.8433,W,1,08,0.9,82.7,M,60.6,M,,0000*7F
$GPGSA,A,3,14,25,09,32,12,31,29,04,,,,,1.7,0.9,1.4*3C
$GPGSV,3,1,12,25,63,199,43,12,61,094,36,14,51,217,36,31,32,278,35*78
$GPGSV,3,2,12,32,25,311,25,04,18,050,25,20,17,341,25,29,13,167,33*7A
$GPGSV,3,3,12,09,11,115,29,02,08,089,33,27,04,115,27,17,01,019,32*79
$GPRMC,091807.000,A,6532.6609,N,01927.8433,W,31.47,260.51,040912,,,A*4E
$GPGGA,091808.000,6532.6594,N,01927.8641,W,1,08,0.9,82.9,M,60.6,M,,0000*7E
$GPGSA,A,3,14,25,09,32,12,31,29,04,,,,,1.7,0.9,1.4*3C
$GPRMC,091808.000,A,6532.6594,N,01927.8641,W,31.46,260.30,040912,,,A*47
$GPGGA,091809.000,6532.6580,N,01927.8847,W,1,08,0.9,83.1,M,60.6,M,,0000*7B
$GPGSA,A,3,14,25,09,32,12,31,29,04,,,,,1.7,0.9,1.4*3C
$GPRMC,091809.000,A,6532.6580,N,01927.8847,W,31.18,260.59,040912,,,A*4F
$GPGGA,091810.000,6532.6565,N,01927.9051,W,1,08,0.9,83.2,M,60.6,M,,0000*75
$GPGSA,A,3,14,25,09,32,12,31,29,04,,,,,1.7,0.9,1.4*3C
$GPRMC,091810.000,A,6532.6565,N,01927.9051,W,30.94,260.23,040912,,,A*4A
$GPGGA,091811.000,6532.6551,N,01927.9255,W,1,08,0.9,83.4,M,60.6,M,,0000*73
$GPGSA,A,3,14,25,09,32,12,31,29,04,,,,,1.7,0.9,1.4*3C
$GPRMC,091811.000,A,6532.6551,N,01927.9255,W,30.78,260.39,040912,,,A*43
$GPGGA,091812.000,6532.6540,N,01927.9458,W,1,08,0.9,83.5,M,60.6,M,,0000*7A
$GPGSA,A,3,14,25,09,32,12,31,29,04,,,,,1.7,0.9,1.4*3C
$GPGSV,3,1,12,25,63,199,43,12,61,094,36,14,51,217,35,31,32,278,35*7B
$GPGSV,3,2,12,32,25,311,28,04,18,049,29,20,17,341,25,29,13,167,34*74
$GPGSV,3,3,12,09,11,115,35,02,08,088,28,27,04,115,27,17,01,019,23*7F
$GPRMC,091812.000,A,6532.6540,N,01927.9458,W,30.59,262.80,040912,,,A*48
$GPGGA,091813.000,6532.6532,N,01927.9662,W,1,08,0.9,83.7,M,60.6,M,,0000*77
$GPGSA,A,3,14,25,09,32,12,31,29,04,,,,,1.7,0.9,1.4*3C
$GPRMC,091813.000,A,6532.6532,N,01927.9662,W,30.62,264.83,040912,,,A*4A
$GPGGA,091814.000,6532.6527,N,01927.9868,W,1,08,0.9,83.8,M,60.6,M,,0000*7F
$GPGSA,A,3,14,25,09,32,12,31,29,04,,,,,1.7,0.9,1.4*3C
$GPRMC,091814.000,A,6532.6527,N,01927.9868,W,30.73,266.93,040912,,,A*4E
$GPGGA,091815.000,6532.6525,N,01928.0074,W,1,08,0.9,84.0,M,60.6,M,,0000*70
$GPGSA,A,3,14,25,09,32,12,31,29,04,,,,,1.7,0.9,1.4*3C
$GPRMC,091815.000,A,6532.6525,N,01928.0074,W,30.72,268.77,040912,,,A*4B
$GPGGA,091816.000,6532.6525,N,01928.0280,W,1,07,1.2,84.1,M,60.6,M,,0000*7E
$GPGSA,A,3,14,25,09,32,12,31,04,,,,,,2.1,1.2,1.8*34
$GPRMC,091816.000,A,6532.6525,N,01928.0280,W,30.74,270.53,040912,,,A*48
$GPGGA,091817.000,6532.6529,N,01928.0486,W,1,08,0.9,84.2,M,60.6,M,,0000*75
$GPGSA,A,3,14,25,09,32,12,31,29,04,,,,,1.7,0.9,1.4*3C
$GPGSV,3,1,12,25,63,199,43,12,61,094,27,14,51,217,41,31,32,278,35*78
$GPGSV,3,2,12,32,25,311,30,04,18,049,30,20,17,341,30,29,14,167,33*71
$GPGSV,3,3,12,09,11,115,29,02,08,088,29,27,04,115,22,17,00,019,25*71
$GPRMC,091817.000,A,6532.6529,N,01928.0486,W,30.83,273.17,040912,,,A*4E
$GPGGA,091818.000,6532.6537,N,01928.0692,W,1,08,0.9,84.3,M,60.6,M,,0000*73
$GPGSA,A,3,14,25,09,32,12,31,29,04,,,,,1.7,0.9,1.4*3C
$GPRMC,091818.000,A,6532.6537,N,01928.0692,W,30.94,275.75,040912,,,A*4D
$GPGGA,091819.000,6532.6549,N,01928.0899,W,1,08,0.9,84.4,M,60.6,M,,0000*79
$GPGSA,A,3,14,25,09,32,12,31,29,04,,,,,1.7,0.9,1.4*3C
$GPRMC,091819.000,A,6532.6549,N,01928.0899,W,31.11,278.32,040912,,,A*42
$GPGGA,091820.000,6532.6564,N,01928.1106,W,1,08,0.9,84.3,M,60.6,M,,0000*75
$GPGSA,A,3,14,25,09,32,12,31,29,04,,,,,1.7,0.9,1.4*3C
$GPRMC,091820.000,A,6532.6564,N,01928.1106,W,31.45,280.78,040912,,,A*41
$GPGGA,091821.000,6532.6584,N,01928.1313,W,1,08,0.9,84.3,M,60.6,M,,0000*7C
$GPGSA,A,3,14,25,09,32,12,31,29,04,,,,,1.7,0.9,1.4*3C
$GPRMC,091821.000,A,6532.6584,N,01928.1313,W,31.80,283.33,040912,,,A*4D
$GPGGA,091822.000,6532.6607,N,01928.1519,W,1,08,0.9,84.4,M,60.6,M,,0000*7C
$GPGSA,A,3,14,25,09,32,12,31,29,04,,,,,1.7,0.9,1.4*3C
$GPGSV,3,1,12,25,63,199,42,12,61,094,28,14,51,217,34,31,32,278,28*78
$GPGSV,3,2,12,32,25,311,32,04,18,049,24,20,17,341,29,29,14,167,22*7E
$GPGSV,3,3,12,09,11,115,36,02,08,088,19,27,04,115,24,17,00,019,38*76
$GPRMC,091822.000,A,6532.6607,N,01928.1519,W,32.03,285.90,040912,,,A*4D
$GPGGA,091823.000,6532.6634,N,01928.1726,W,1,07,1.0,84.5,M,60.6,M,,0000*75
$GPGSA,A,3,14,25,09,32,12,29,04,,,,,,1.8,1.0,1.5*38
$GPRMC,091823.000,A,6532.6634,N,01928.1726,W,32.37,287.36,040912,,,A*4B
$GPGGA,091824.000,6532.6663,N,01928.1930,W,1,08,0.9,84.8,M,60.6,M,,0000*73
$GPGSA,A,3,14,25,09,32,12,31,29,04,,,,,1.7,0.9,1.4*3C
$GPRMC,091824.000,A,6532.6663,N,01928.1930,W,32.29,289.13,040912,,,A*41
$GPGGA,091825.000,6532.6696,N,01928.2129,W,1,08,0.9,85.1,M,60.6,M,,0000*73
$GPGSA,A,3,14,25,09,32,12,31,29,04,,,,,1.7,0.9,1.4*3C
$GPRMC,091825.000,A,6532.6696,N,01928.2129,W,32.20,291.91,040912,,,A*43
$GPGGA,091826.000,6532.6732,N,01928.2323,W,1,08,0.9,85.5,M,60.6,M,,0000*73
$GPGSA,A,3,14,25,09,32,12,31,29,04,,,,,1.7,0.9,1.4*3C
$GPRMC,091826.000,A,6532.6732,N,01928.2323,W,31.92,294.38,040912,,,A*4B
$GPGGA,091827.000,6532.6772,N,01928.2513,W,1,08,0.9,86.0,M,60.6,M,,0000*75
$GPGSA,A,3,14,25,09,32,12,31,29,04,,,,,1.7,0.9,1.4*3C
$GPGSV,3,1,12,25,63,199,41,12,61,094,28,14,51,217,32,31,32,278,31*75
$GPGSV,3,2,12,32,25,311,20,04,18,049,28,20,17,341,29,29,14,167,27*74
$GPGSV,3,3,12,09,11,115,22,02,08,088,,27,04,115,23,17,00,019,24*71
$GPRMC,091827.000,A,6532.6772,N,01928.2513,W,31.86,296.75,040912,,,A*45
$GPGGA,091828.000,6532.6814,N,01928.2699,W,1,08,0.9,86.4,M,60.6,M,,0000*70
$GPGSA,A,3,14,25,09,32,12,31,29,04,,,,,1.7,0.9,1.4*3C
$GPRMC,091828.000,A,6532.6814,N,01928.2699,W,31.83,299.02,040912,,,A*4E
$GPGGA,091829.000,6532.6859,N,01928.2881,W,1,07,1.1,86.8,M,60.6,M,,0000*75
$GPGSA,A,3,14,25,09,32,31,29,04,,,,,,2.2,1.1,1.9*3D
$GPRMC,091829.000,A,6532.6859,N,01928.2881,W,31.89,301.20,040912,,,A*4B
$GPGGA,091830.000,6532.6907,N,01928.3056,W,1,07,1.1,87.1,M,60.6,M,,0000*7C
$GPGSA,A,3,14,25,09,32,31,29,04,,,,,,2.2,1.1,1.9*3D
$GPRMC,091830.000,A,6532.6907,N,01928.3056,W,31.30,303.45,040912,,,A*49
$GPGGA,091831.000,6532.6956,N,01928.3222,W,1,08,0.9,87.5,M,60.6,M,,0000*7A
$GPGSA,A,3,14,25,09,32,12,31,29,04,,,,,1.7,0.9,1.4*3C
$GPRMC,091831.000,A,6532.6956,N,01928.3222,W,30.45,306.04,040912,,,A*4E
$GPGGA,091832.000,6532.7007,N,01928.3378,W,1,08,0.9,87.9,M,60.6,M,,0000*77
$GPGSA,A,3,14,25,09,32,12,31,29,04,,,,,1.7,0.9,1.4*3C
$GPGSV,3,1,12,25,63,199,35,12,61,094,35,14,51,217,32,31,32,278,38*73
$GPGSV,3,2,12,32,25,311,30,04,18,049,25,20,17,341,31,29,14,167,35*72
$GPGSV,3,3,12,09,11,115,30,02,08,088,27,27,04,115,27,17,00,019,24*73
$GPRMC,091832.000,A,6532.7007,N,01928.3378,W,29.63,308.61,040912,,,A*4E
$GPGGA,091833.000,6532.7059,N,01928.3526,W,1,08,0.9,88.3,M,60.6,M,,0000*75
$GPGSA,A,3,14,25,09,32,12,31,29,04,,,,,1.7,0.9,1.4*3C
$GPRMC,091833.000,A,6532.7059,N,01928.3526,W,28.84,310.82,040912,,,A*45
$GPGGA,091834.000,6532.7112,N,01928.3666,W,1,08,0.9,88.6,M,60.6,M,,0000*7E
$GPGSA,A,3,14,25,09,32,12,31,29,04,,,,,1.7,0.9,1.4*3C
$GPRMC,091834.000,A,6532.7112,N,01928.3666,W,28.17,312.93,040912,,,A*43
$GPGGA,091835.000,6532.7166,N,01928.3800,W,1,08,0.9,89.0,M,60.6,M,,0000*75
$GPGSA,A,3,14,25,09,32,12,31,29,04,,,,,1.7,0.9,1.4*3C
$GPRMC,091835.000,A,6532.7166,N,01928.3800,W,27.92,314.77,040912,,,A*41
$GPGGA,091836.000,6532.7222,N,01928.3929,W,1,08,0.9,89.5,M,60.6,M,,0000*7A
$GPGSA,A,3,14,25,09,32,12,31,29,04,,,,,1.7,0.9,1.4*3C
$GPRMC,091836.000,A,6532.7222,N,01928.3929,W,27.66,316.73,040912,,,A*46
$GPGGA,091837.000,6532.7279,N,01928.4054,W,1,08,0.9,90.0,M,60.6,M,,0000*7C
$GPGSA,A,3,14,25,09,32,12,31,29,04,,,,,1.7,0.9,1.4*3C
$GPGSV,3,1,12,25,63,199,35,12,61,094,30,14,51,217,33,31,32,278,38*77
$GPGSV,3,2,12,32,25,311,35,04,18,049,28,20,17,341,34,29,14,167,34*7E
$GPGSV,3,3,12,09,11,115,20,02,08,088,28,27,04,115,,17,00,019,16*79
$GPRMC,091837.000,A,6532.7279,N,01928.4054,W,27.69,318.54,040912,,,A*49
$GPGGA,091838.000,6532.7338,N,01928.4173,W,1,08,0.9,90.5,M,60.6,M,,0000*76
$GPGSA,A,3,14,25,09,32,12,31,29,04,,,,,1.7,0.9,1.4*3C
$GPRMC,091838.000,A,6532.7338,N,01928.4173,W,27.54,320.36,040912,,,A*47
$GPGGA,091839.000,6532.7398,N,01928.4289,W,1,08,0.9,91.1,M,60.6,M,,0000*7E
$GPGSA,A,3,14,25,09,32,12,31,29,04,,,,,1.7,0.9,1.4*3C
$GPRMC,091839.000,A,6532.7398,N,01928.4289,W,27.60,321.92,040912,,,A*42
$GPGGA,091840.000,6532.7459,N,01928.4401,W,1,08,0.9,91.7,M,60.6,M,,0000*7A
$GPGSA,A,3,14,25,09,32,12,31,29,04,,,,,1.7,0.9,1.4*3C
$GPRMC,091840.000,A,6532.7459,N,01928.4401,W,27.63,323.80,040912,,,A*42
$GPGGA,091841.000,6532.7522,N,01928.4507,W,1,08,0.9,92.3,M,60.6,M,,0000*76
$GPGSA,A,3,14,25,09,32,12,31,29,04,,,,,1.7,0.9,1.4*3C
$GPRMC,091841.000,A,6532.7522,N,01928.4507,W,27.57,325.61,040912,,,A*47
$GPGGA,091842.000,6532.7585,N,01928.4612,W,1,08,0.9,92.9,M,60.6,M,,0000*75
$GPGSA,A,3,14,25,09,32,12,31,29,04,,,,,1.7,0.9,1.4*3C
$GPGSV,3,1,12,25,63,198,35,12,60,094,31,14,51,217,33,31,33,278,30*7F
$GPGSV,3,2,12,32,25,311,26,04,18,049,24,20,17,341,25,29,14,167,33*77
$GPGSV,3,3,12,09,10,115,27,02,08,088,35,27,04,115,31,17,00,019,16*71
$GPRMC,091842.000,A,6532.7585,N,01928.4612,W,27.55,326.29,040912,,,A*43
$GPGGA,091843.000,6532.7648,N,01928.4717,W,1,08,0.9,93.5,M,60.6,M,,0000*7F
$GPGSA,A,3,14,25,09,32,12,31,29,04,,,,,1.7,0.9,1.4*3C
$GPRMC,091843.000,A,6532.7648,N,01928.4717,W,27.51,326.18,040912,,,A*42
$GPGGA,091844.000,6532.7711,N,01928.4821,W,1,08,0.9,94.1,M,60.6,M,,0000*7C
$GPGSA,A,3,14,25,09,32,12,31,29,04,,,,,1.7,0.9,1.4*3C
$GPRMC,091844.000,A,6532.7711,N,01928.4821,W,27.50,326.76,040912,,,A*4B
$GPGGA,091845.000,6532.7773,N,01928.4925,W,1,08,0.9,94.8,M,60.6,M,,0000*75
$GPGSA,A,3,14,25,09,32,12,31,29,04,,,,,1.7,0.9,1.4*3C
$GPRMC,091845.000,A,6532.7773,N,01928.4925,W,27.31,326.34,040912,,,A*4A
$GPGGA,091846.000,6532.7836,N,01928.5028,W,1,08,0.9,95.6,M,60.6,M,,0000*72
$GPGSA,A,3,14,25,09,32,12,31,29,04,,,,,1.7,0.9,1.4*3C
$GPRMC,091846.000,A,6532.7836,N,01928.5028,W,27.28,326.43,040912,,,A*4A
$GPGGA,091847.000,6532.7899,N,01928.5130,W,1,08,0.9,96.4,M,60.6,M,,0000*7F
$GPGSA,A,3,14,25,09,32,12,31,29,04,,,,,1.7,0.9,1.4*3C
$GPGSV,3,1,12,25,63,198,34,12,60,094,25,14,51,217,34,31,33,278,30*7C
$GPGSV,3,2,12,32,25,311,29,04,18,049,25,20,17,341,26,29,14,167,30*79
$GPGSV,3,3,12,09,10,115,28,02,09,088,35,27,04,115,25,17,00,019,23*7C
$GPRMC,091847.000,A,6532.7899,N,01928.5130,W,27.23,326.93,040912,,,A*40
$GPGGA,091848.000,6532.7962,N,01928.5232,W,1,08,0.9,97.3,M,60.6,M,,0000*72
$GPGSA,A,3,14,25,09,32,12,31,29,04,,,,,1.7,0.9,1.4*3C
$GPRMC,091848.000,A,6532.7962,N,01928.5232,W,27.24,326.81,040912,,,A*4F
$GPGGA,091849.000,6532.8025,N,01928.5334,W,1,08,0.9,98.3,M,60.6,M,,0000*7E
$GPGSA,A,3,14,25,09,32,12,31,29,04,,,,,1.7,0.9,1.4*3C
$GPRMC,091849.000,A,6532.8025,N,01928.5334,W,27.25,326.96,040912,,,A*4B
$GPGGA,091850.000,6532.8088,N,01928.5435,W,1,08,0.9,99.3,M,60.6,M,,0000*76
$GPGSA,A,3,14,25,09,32,12,31,29,04,,,,,1.7,0.9,1.4*3C
$GPRMC,091850.000,A,6532.8088,N,01928.5435,W,27.24,326.98,040912,,,A*4D
$GPGGA,091851.000,6532.8152,N,01928.5536,W,1,08,0.9,100.4,M,60.6,M,,0000*45
$GPGSA,A,3,14,25,09,32,12,31,29,04,,,,,1.7,0.9,1.4*3C
$GPRMC,091851.000,A,6532.8152,N,01928.5536,W,27.22,327.04,040912,,,A*4A
$GPGGA,091852.000,6532.8215,N,01928.5636,W,1,08,0.9,101.6,M,60.6,M,,0000*46
$GPGSA,A,3,14,25,09,32,12,31,29,04,,,,,1.7,0.9,1.4*3C
$GPGSV,3,1,12,25,63,198,33,12,60,094,25,14,51,217,34,31,33,278,30*7B
$GPGSV,3,2,12,32,25,311,30,04,18,049,25,20,17,341,27,29,14,167,28*79
$GPGSV,3,3,12,09,10,115,29,02,09,088,35,27,04,115,23,17,00,019,16*7D
$GPRMC,091852.000,A,6532.8215,N,01928.5636,W,27.08,326.97,040912,,,A*49
$GPGGA,091853.000,6532.8278,N,01928.5735,W,1,08,0.9,102.7,M,60.6,M,,0000*4C
$GPGSA,A,3,14,25,09,32,12,31,29,04,,,,,1.7,0.9,1.4*3C
$GPRMC,091853.000,A,6532.8278,N,01928.5735,W,26.98,327.15,040912,,,A*42
$GPGGA,091854.000,6532.8341,N,01928.5833,W,1,08,0.9,104.0,M,60.6,M,,0000*48
$GPGSA,A,3,14,25,09,32,12,31,29,04,,,,,1.7,0.9,1.4*3C
$GPRMC,091854.000,A,6532.8341,N,01928.5833,W,26.83,327.35,040912,,,A*4F
$GPGGA,091855.000,6532.8402,N,01928.5933,W,1,08,0.9,105.2,M,60.6,M,,0000*4B
$GPGSA,A,3,14,25,09,32,12,31,29,04,,,,,1.7,0.9,1.4*3C
$GPRMC,091855.000,A,6532.8402,N,01928.5933,W,26.63,326.40,040912,,,A*42
$GPGGA,091856.000,6532.8464,N,01928.6034,W,1,08,0.9,106.5,M,60.6,M,,0000*41
$GPGSA,A,3,14,25,09,32,12,31,29,04,,,,,1.7,0.9,1.4*3C
$GPRMC,091856.000,A,6532.8464,N,01928.6034,W,26.53,325.57,040912,,,A*4A
$GPGGA,091857.000,6532.8525,N,01928.6136,W,1,08,0.9,107.7,M,60.6,M,,0000*44
$GPGSA,A,3,14,25,09,32,12,31,29,04,,,,,1.7,0.9,1.4*3C
$GPGSV,3,1,12,25,63,198,33,12,60,094,19,14,51,217,26,31,33,278,30*77
$GPGSV,3,2,12,32,25,311,31,04,18,049,30,20,17,341,27,29,14,167,18*7F
$GPGSV,3,3,12,09,10,115,24,02,09,088,35,27,04,115,32,17,00,019,26*73
$GPRMC,091857.000,A,6532.8525,N,01928.6136,W,26.69,325.25,040912,,,A*40
$GPGGA,091858.000,6532.8587,N,01928.6238,W,1,08,0.9,109.3,M,60.6,M,,0000*44
$GPGSA,A,3,14,25,09,32,12,31,29,04,,,,,1.7,0.9,1.4*3C
$GPRMC,091858.000,A,6532.8587,N,01928.6238,W,26.98,325.24,040912,,,A*45
$GPGGA,091859.000,6532.8649,N,01928.6343,W,1,08,0.9,111.1,M,60.6,M,,0000*42
$GPGSA,A,3,14,25,09,32,12,31,29,04,,,,,1.7,0.9,1.4*3C
$GPRMC,091859.000,A,6532.8649,N,01928.6343,W,27.02,323.98,040912,,,A*4B
$GPGGA,091900.000,6532.8709,N,01928.6451,W,1,07,1.0,112.9,M,60.6,M,,0000*42
$GPGSA,A,3,14,25,32,12,31,29,04,,,,,,1.9,1.0,1.6*31
$GPRMC,091900.000,A,6532.8709,N,01928.6451,W,26.93,322.22,040912,,,A*4E
$GPGGA,091901.000,6532.8767,N,01928.6564,W,1,08,0.9,114.6,M,60.6,M,,0000*42
$GPGSA,A,3,14,25,09,32,12,31,29,04,,,,,1.7,0.9,1.4*3C
$GPRMC,091901.000,A,6532.8767,N,01928.6564,W,26.75,320.08,040912,,,A*42
$GPGGA,091902.000,6532.8823,N,01928.6679,W,1,08,0.9,116.3,M,60.6,M,,0000*46
$GPGSA,A,3,14,25,09,32,12,31,29,04,,,,,1.7,0.9,1.4*3C
$GPGSV,3,1,12,25,63,198,33,12,60,094,36,14,51,217,31,31,33,278,37*7B
$GPGSV,3,2,12,32,25,311,36,04,18,049,30,20,17,341,20,29,14,167,30*75
$GPGSV,3,3,12,09,10,115,29,02,09,088,31,27,04,115,28,17,00,019,20*77
$GPRMC,091902.000,A,6532.8823,N,01928.6679,W,26.55,318.59,040912,,,A*4C
$GPGGA,091903.000,6532.8878,N,01928.6799,W,1,08,0.9,117.7,M,60.6,M,,0000*43
$GPGSA,A,3,14,25,09,32,12,31,29,04,,,,,1.7,0.9,1.4*3C
$GPRMC,091903.000,A,6532.8878,N,01928.6799,W,26.55,316.65,040912,,,A*4D
$GPGGA,091904.000,6532.8930,N,01928.6924,W,1,08,0.9,119.1,M,60.6,M,,0000*49
$GPGSA,A,3,14,25,09,32,12,31,29,04,,,,,1.7,0.9,1.4*3C
$GPRMC,091904.000,A,6532.8930,N,01928.6924,W,26.55,314.39,040912,,,A*44
$GPGGA,091905.000,6532.8981,N,01928.7053,W,1,08,0.9,120.5,M,60.6,M,,0000*44
$GPGSA,A,3,14,25,09,32,12,31,29,04,,,,,1.7,0.9,1.4*3C
$GPRMC,091905.000,A,6532.8981,N,01928.7053,W,26.63,312.23,040912,,,A*4F
$GPGGA,091906.000,6532.9029,N,01928.7188,W,1,08,0.9,121.8,M,60.6,M,,0000*46
$GPGSA,A,3,14,25,09,32,12,31,29,04,,,,,1.7,0.9,1.4*3C
$GPRMC,091906.000,A,6532.9029,N,01928.7188,W,26.71,310.27,040912,,,A*44
$GPGGA,091907.000,6532.9076,N,01928.7325,W,1,08,0.9,123.1,M,60.6,M,,0000*43
$GPGSA,A,3,14,25,09,32,12,31,29,04,,,,,1.7,0.9,1.4*3C
$GPGSV,3,1,12,25,63,198,32,12,60,094,32,14,51,217,40,31,33,278,40*78
$GPGSV,3,2,12,32,25,311,26,04,18,049,31,20,17,341,33,29,14,167,18*7D
$GPGSV,3,3,12,09,10,115,27,02,09,088,31,27,04,115,27,17,00,019,22*74
$GPRMC,091907.000,A,6532.9076,N,01928.7325,W,26.76,308.79,040912,,,A*4F
$GPGGA,091908.000,6532.9121,N,01928.7466,W,1,08,0.9,124.3,M,60.6,M,,0000*4A
$GPGSA,A,3,14,25,09,32,12,31,29,04,,,,,1.7,0.9,1.4*3C
$GPRMC,091908.000,A,6532.9121,N,01928.7466,W,26.65,306.89,040912,,,A*40
$GPGGA,091909.000,6532.9163,N,01928.7612,W,1,08,0.9,125.4,M,60.6,M,,0000*4A
$GPGSA,A,3,14,25,09,32,12,31,29,04,,,,,1.7,0.9,1.4*3C
$GPRMC,091909.000,A,6532.9163,N,01928.7612,W,26.61,304.30,040912,,,A*42
$GPGGA,091910.000,6532.9202,N,01928.7760,W,1,07,1.0,126.4,M,60.6,M,,0000*46
$GPGSA,A,3,14,25,09,32,12,29,04,,,,,,1.8,1.0,1.5*38
$GPRMC,091910.000,A,6532.9202,N,01928.7760,W,26.33,301.98,040912,,,A*4A
$GPGGA,091911.000,6532.9239,N,01928.7911,W,1,08,0.9,127.3,M,60.6,M,,0000*46
$GPGSA,A,3,14,25,09,32,12,31,29,04,,,,,1.7,0.9,1.4*3C
$GPRMC,091911.000,A,6532.9239,N,01928.7911,W,26.35,300.05,040912,,,A*48
$GPGGA,091912.000,6532.9274,N,01928.8065,W,1,08,0.9,128.1,M,60.6,M,,0000*44
$GPGSA,A,3,14,25,09,32,12,31,29,04,,,,,1.7,0.9,1.4*3C
$GPGSV,3,1,12,25,63,198,24,12,60,093,33,14,51,216,41,31,33,278,25*7A
$GPGSV,3,2,12,32,25,311,27,04,18,049,31,20,17,340,25,29,14,167,25*74
$GPGSV,3,3,12,09,10,115,34,02,09,088,32,27,04,115,29,17,00,019,14*7E
$GPRMC,091912.000,A,6532.9274,N,01928.8065,W,26.29,298.44,040912,,,A*4F
$GPGGA,091913.000,6532.9307,N,01928.8220,W,1,07,1.0,128.8,M,60.6,M,,0000*4D
$GPGSA,A,3,14,25,09,32,12,29,04,,,,,,1.8,1.0,1.5*38
$GPRMC,091913.000,A,6532.9307,N,01928.8220,W,26.17,296.90,040912,,,A*42
$GPGGA,091914.000,6532.9338,N,01928.8377,W,1,08,0.9,129.5,M,60.6,M,,0000*4E
$GPGSA,A,3,14,25,09,32,12,31,29,04,,,,,1.7,0.9,1.4*3C
$GPRMC,091914.000,A,6532.9338,N,01928.8377,W,26.04,295.21,040912,,,A*41
$GPGGA,091915.000,6532.9367,N,01928.8538,W,1,08,0.9,130.1,M,60.6,M,,0000*44
$GPGSA,A,3,14,25,09,32,12,31,29,04,,,,,1.7,0.9,1.4*3C
$GPRMC,091915.000,A,6532.9367,N,01928.8538,W,26.33,293.45,040912,,,A*47
$GPGGA,091916.000,6532.9394,N,01928.8702,W,1,08,0.9,130.5,M,60.6,M,,0000*44
$GPGSA,A,3,14,25,09,32,12,31,29,04,,,,,1.7,0.9,1.4*3C
$GPRMC,091916.000,A,6532.9394,N,01928.8702,W,26.46,291.71,040912,,,A*44
$GPGGA,091917.000,6532.9419,N,01928.8871,W,1,08,0.9,131.0,M,60.6,M,,0000*48
$GPGSA,A,3,14,25,09,32,12,31,29,04,,,,,1.7,0.9,1.4*3C
$GPGSV,3,1,12,25,63,198,34,12,60,093,33,14,51,216,41,31,33,278,33*7C
$GPGSV,3,2,12,32,25,311,30,04,18,049,28,20,17,340,31,29,14,167,24*7E
$GPGSV,3,3,12,09,10,115,29,02,09,088,28,27,04,115,25,17,00,019,25*77
$GPRMC,091917.000,A,6532.9419,N,01928.8871,W,26.82,289.54,040912,,,A*4A
$GPGGA,091918.000,6532.9441,N,01928.9044,W,1,08,0.9,131.4,M,60.6,M,,0000*41
$GPGSA,A,3,14,25,09,32,12,31,29,04,,,,,1.7,0.9,1.4*3C
$GPRMC,091918.000,A,6532.9441,N,01928.9044,W,26.99,286.58,040912,,,A*4E
$GPGGA,091919.000,6532.9459,N,01928.9221,W,1,08,0.9,131.7,M,60.6,M,,0000*4B
$GPGSA,A,3,14,25,09,32,12,31,29,04,,,,,1.7,0.9,1.4*3C
$GPRMC,091919.000,A,6532.9459,N,01928.9221,W,27.16,283.64,040912,,,A*4B
$GPGGA,091920.000,6532.9474,N,01928.9400,W,1,08,0.9,132.0,M,60.6,M,,0000*4F
$GPGSA,A,3,14,25,09,32,12,31,29,04,,,,,1.7,0.9,1.4*3C
$GPRMC,091920.000,A,6532.9474,N,01928.9400,W,27.28,281.55,040912,,,A*46
$GPGGA,091921.000,6532.9487,N,01928.9580,W,1,08,0.9,132.2,M,60.6,M,,0000*49
$GPGSA,A,3,14,25,09,32,12,31,29,04,,,,,1.7,0.9,1.4*3C
$GPRMC,091921.000,A,6532.9487,N,01928.9580,W,27.30,280.22,040912,,,A*4A
$GPGGA,091922.000,6532.9499,N,01928.9761,W,1,08,0.9,132.5,M,60.6,M,,0000*4F
$GPGSA,A,3,14,25,09,32,12,31,29,04,,,,,1.7,0.9,1.4*3C
$GPGSV,3,1,12,25,63,198,36,12,60,093,26,14,51,216,42,31,33,278,32*78
$GPGSV,3,2,12,32,25,311,22,04,18,049,23,20,17,340,22,29,14,167,28*78
$GPGSV,3,3,12,09,10,115,24,02,09,088,27,27,04,115,24,17,00,019,16*74
$GPRMC,091922.000,A,6532.9499,N,01928.9761,W,27.30,278.64,040912,,,A*4E
$GPGGA,091923.000,6532.9508,N,01928.9942,W,1,08,0.9,132.9,M,60.6,M,,0000*44
$GPGSA,A,3,14,25,09,32,12,31,29,04,,,,,1.7,0.9,1.4*3C
$GPRMC,091923.000,A,6532.9508,N,01928.9942,W,27.26,276.88,040912,,,A*42
$GPGGA,091924.000,6532.9515,N,01929.0122,W,1,08,0.9,133.2,M,60.6,M,,0000*43
$GPGSA,A,3,14,25,09,32,12,31,29,04,,,,,1.7,0.9,1.4*3C
$GPRMC,091924.000,A,6532.9515,N,01929.0122,W,26.96,275.61,040912,,,A*41
$GPGGA,091925.000,6532.9521,N,01929.0301,W,1,08,0.9,133.7,M,60.6,M,,0000*43
$GPGSA,A,3,14,25,09,32,12,31,29,04,,,,,1.7,0.9,1.4*3C
$GPRMC,091925.000,A,6532.9521,N,01929.0301,W,26.87,274.76,040912,,,A*43
$GPGGA,091926.000,6532.9524,N,01929.0480,W,1,08,0.9,134.1,M,60.6,M,,0000*4A
$GPGSA,A,3,14,25,09,32,12,31,29,04,,,,,1.7,0.9,1.4*3C
$GPRMC,091926.000,A,6532.9524,N,01929.0480,W,26.91,272.70,040912,,,A*4C
$GPGGA,091927.000,6532.9523,N,01929.0660,W,1,07,1.1,134.6,M,60.6,M,,0000*41
$GPGSA,A,3,14,25,09,32,31,29,04,,,,,,2.2,1.1,1.9*3D
$GPGSV,3,1,12,25,64,198,38,12,60,093,17,14,51,216,41,31,33,278,18*78
$GPGSV,3,2,12,32,25,311,30,04,18,049,30,20,17,340,18,29,14,167,35*7C
$GPGSV,3,3,12,09,10,115,22,02,09,088,30,27,04,115,25,17,00,019,18*7B
$GPRMC,091927.000,A,6532.9523,N,01929.0660,W,26.90,269.30,040912,,,A*49
$GPGGA,091928.000,6532.9518,N,01929.0838,W,1,07,1.1,135.0,M,60.6,M,,0000*42
$GPGSA,A,3,14,25,09,32,31,29,04,,,,,,2.2,1.1,1.9*3D
$GPRMC,091928.000,A,6532.9518,N,01929.0838,W,26.78,266.30,040912,,,A*44
$GPGGA,091929.000,6532.9510,N,01929.1020,W,1,08,0.9,135.5,M,60.6,M,,0000*48
$GPGSA,A,3,14,25,09,32,12,31,29,04,,,,,1.7,0.9,1.4*3C
$GPRMC,091929.000,A,6532.9510,N,01929.1020,W,27.33,263.93,040912,,,A*4F
$GPGGA,091930.000,6532.9499,N,01929.1202,W,1,08,0.9,135.9,M,60.6,M,,0000*4E
$GPGSA,A,3,14,25,09,32,12,31,29,04,,,,,1.7,0.9,1.4*3C
$GPRMC,091930.000,A,6532.9499,N,01929.1202,W,27.57,261.78,040912,,,A*40
$GPGGA,091931.000,6532.9486,N,01929.1384,W,1,08,0.9,136.2,M,60.6,M,,0000*46
$GPGSA,A,3,14,25,09,32,12,31,29,04,,,,,1.7,0.9,1.4*3C
$GPRMC,091931.000,A,6532.9486,N,01929.1384,W,27.55,260.57,040912,,,A*4E
$GPGGA,091932.000,6532.9472,N,01929.1564,W,1,08,0.9,136.6,M,60.6,M,,0000*42
$GPGSA,A,3,14,25,09,32,12,31,29,04,,,,,1.7,0.9,1.4*3C
$GPGSV,3,1,12,25,64,198,38,12,60,093,28,14,51,216,39,31,33,278,35*74
$GPGSV,3,2,12,32,25,311,30,04,18,049,27,20,17,340,23,29,14,167,31*76
$GPGSV,3,3,12,09,10,115,35,02,09,088,27,27,04,115,24,17,00,019,*73
$GPRMC,091932.000,A,6532.9472,N,01929.1564,W,27.35,259.28,040912,,,A*4A
$GPGGA,091933.000,6532.9455,N,01929.1742,W,1,08,0.9,137.0,M,60.6,M,,0000*47
$GPGSA,A,3,14,25,09,32,12,31,29,04,,,,,1.7,0.9,1.4*3C
$GPRMC,091933.000,A,6532.9455,N,01929.1742,W,27.29,257.55,040912,,,A*41
$GPGGA,091934.000,6532.9435,N,01929.1920,W,1,08,0.9,137.4,M,60.6,M,,0000*48
$GPGSA,A,3,14,25,09,32,12,31,29,04,,,,,1.7,0.9,1.4*3C
$GPRMC,091934.000,A,6532.9435,N,01929.1920,W,27.55,255.27,040912,,,A*46
$GPGGA,091935.000,6532.9413,N,01929.2099,W,1,08,0.9,137.8,M,60.6,M,,0000*49
$GPGSA,A,3,14,25,09,32,12,31,29,04,,,,,1.7,0.9,1.4*3C
$GPRMC,091935.000,A,6532.9413,N,01929.2099,W,27.96,253.38,040912,,,A*4C
$GPGGA,091936.000,6532.9387,N,01929.2278,W,1,08,0.9,138.0,M,60.6,M,,0000*4A
$GPGSA,A,3,14,25,09,32,12,31,29,04,,,,,1.7,0.9,1.4*3C
$GPRMC,091936.000,A,6532.9387,N,01929.2278,W,28.28,251.22,040912,,,A*4B
$GPGGA,091937.000,6532.9359,N,01929.2455,W,1,08,0.9,138.2,M,60.6,M,,0000*43
$GPGSA,A,3,14,25,09,32,12,31,29,04,,,,,1.7,0.9,1.4*3C
$GPGSV,3,1,12,25,64,198,35,12,60,093,26,14,51,216,32,31,33,278,35*7C
$GPGSV,3,2,12,32,25,311,35,04,18,049,23,20,17,340,31,29,14,167,30*75
$GPGSV,3,3,12,09,10,115,27,02,09,088,25,27,04,115,30,17,00,019,20*75
$GPRMC,091937.000,A,6532.9359,N,01929.2455,W,28.17,248.90,040912,,,A*4D
$GPGGA,091938.000,6532.9327,N,01929.2631,W,1,08,0.9,138.3,M,60.6,M,,0000*44
$GPGSA,A,3,14,25,09,32,12,31,29,04,,,,,1.7,0.9,1.4*3C
$GPRMC,091938.000,A,6532.9327,N,01929.2631,W,28.53,246.94,040912,,,A*41
$GPGGA,091939.000,6532.9293,N,01929.2806,W,1,08,0.9,138.5,M,60.6,M,,0000*47
$GPGSA,A,3,14,25,09,32,12,31,29,04,,,,,1.7,0.9,1.4*3C
$GPRMC,091939.000,A,6532.9293,N,01929.2806,W,28.80,245.01,040912,,,A*45
$GPGGA,091940.000,6532.9255,N,01929.2981,W,1,07,1.2,138.6,M,60.6,M,,0000*4B
$GPGSA,A,3,14,25,09,32,12,31,29,,,,,,1.9,1.2,1.4*3C
$GPRMC,091940.000,A,6532.9255,N,01929.2981,W,29.44,242.59,040912,,,A*4C
$GPGGA,091941.000,6532.9214,N,01929.3153,W,1,08,0.9,138.9,M,60.6,M,,0000*43
$GPGSA,A,3,14,25,09,32,12,31,29,04,,,,,1.7,0.9,1.4*3C
$GPRMC,091941.000,A,6532.9214,N,01929.3153,W,29.50,240.27,040912,,,A*40
$GPGGA,091942.000,6532.9170,N,01929.3320,W,1,08,0.9,139.2,M,60.6,M,,0000*4D
$GPGSA,A,3,14,25,09,32,12,31,29,04,,,,,1.7,0.9,1.4*3C
$GPGSV,3,1,12,25,64,198,36,12,60,093,31,14,51,216,35,31,33,278,36*7D
$GPGSV,3,2,12,32,25,310,25,04,18,049,15,20,17,340,26,29,14,167,28*7F
$GPGSV,3,3,12,09,10,115,25,02,09,088,27,27,03,115,23,17,00,019,*72
$GPRMC,091942.000,A,6532.9170,N,01929.3320,W,29.63,237.77,040912,,,A*41
$GPGGA,091943.000,6532.9123,N,01929.3485,W,1,08,0.9,139.6,M,60.6,M,,0000*46
$GPGSA,A,3,14,25,09,32,12,31,29,04,,,,,1.7,0.9,1.4*3C
$GPRMC,091943.000,A,6532.9123,N,01929.3485,W,29.91,235.70,040912,,,A*46
$GPGGA,091944.000,6532.9072,N,01929.3648,W,1,08,0.9,140.0,M,60.6,M,,0000*4F
$GPGSA,A,3,14,25,09,32,12,31,29,04,,,,,1.7,0.9,1.4*3C
$GPRMC,091944.000,A,6532.9072,N,01929.3648,W,30.28,233.69,040912,,,A*43
$GPGGA,091945.000,6532.9019,N,01929.3806,W,1,08,0.9,140.3,M,60.6,M,,0000*44
$GPGSA,A,3,14,25,09,32,12,31,29,04,,,,,1.7,0.9,1.4*3C
$GPRMC,091945.000,A,6532.9019,N,01929.3806,W,30.27,231.37,040912,,,A*4D
$GPGGA,091946.000,6532.8963,N,01929.3958,W,1,08,0.9,140.5,M,60.6,M,,0000*4E
$GPGSA,A,3,14,25,09,32,12,31,29,04,,,,,1.7,0.9,1.4*3C
$GPRMC,091946.000,A,6532.8963,N,01929.3958,W,30.21,228.82,040912,,,A*41
$GPGGA,091947.000,6532.8905,N,01929.4104,W,1,08,0.9,140.7,M,60.6,M,,0000*4B
$GPGSA,A,3,14,25,09,32,12,31,29,04,,,,,1.7,0.9,1.4*3C
$GPGSV,3,1,12,25,64,198,42,12,60,093,28,14,51,216,35,31,33,278,31*71
$GPGSV,3,2,12,32,25,310,28,04,18,049,27,20,17,340,26,29,14,167,32*78
$GPGSV,3,3,12,09,10,115,25,02,09,088,33,27,03,115,20,17,00,019,*74
$GPRMC,091947.000,A,6532.8905,N,01929.4104,W,30.13,226.20,040912,,,A*41
$GPGGA,091948.000,6532.8845,N,01929.4244,W,1,08,0.9,140.9,M,60.6,M,,0000*48
$GPGSA,A,3,14,25,09,32,12,31,29,04,,,,,1.7,0.9,1.4*3C
$GPRMC,091948.000,A,6532.8845,N,01929.4244,W,30.06,224.23,040912,,,A*49
$GPGGA,091949.000,6532.8782,N,01929.4380,W,1,08,0.9,140.9,M,60.6,M,,0000*44
$GPGSA,A,3,14,25,09,32,12,31,29,04,,,,,1.7,0.9,1.4*3C
$GPRMC,091949.000,A,6532.8782,N,01929.4380,W,30.07,222.27,040912,,,A*46
$GPGGA,091950.000,6532.8718,N,01929.4510,W,1,08,0.9,141.0,M,60.6,M,,0000*48
$GPGSA,A,3,14,25,09,32,12,31,29,04,,,,,1.7,0.9,1.4*3C
$GPRMC,091950.000,A,6532.8718,N,01929.4510,W,30.03,220.00,040912,,,A*41
$GPGGA,091951.000,6532.8652,N,01929.4634,W,1,08,0.9,141.0,M,60.6,M,,0000*43
$GPGSA,A,3,14,25,09,32,12,31,29,04,,,,,1.7,0.9,1.4*3C
$GPRMC,091951.000,A,6532.8652,N,01929.4634,W,30.00,217.91,040912,,,A*45
$GPGGA,091952.000,6532.8584,N,01929.4754,W,1,09,0.9,141.1,M,60.6,M,,0000*4F
$GPGSA,A,3,14,25,09,32,20,12,31,29,04,,,,1.6,0.9,1.4*3F
$GPGSV,3,1,12,25,64,198,42,12,60,093,26,14,51,216,35,31,33,278,36*78
$GPGSV,3,2,12,32,25,310,23,04,18,049,29,20,17,340,35,29,14,167,31*7C
$GPGSV,3,3,12,09,10,115,34,02,09,088,26,27,03,115,32,17,00,019,*73
$GPRMC,091952.000,A,6532.8584,N,01929.4754,W,30.11,216.54,040912,,,A*41
$GPGGA,091953.000,6532.8516,N,01929.4872,W,1,09,0.9,141.1,M,60.6,M,,0000*4E
$GPGSA,A,3,14,25,09,32,20,12,31,29,04,,,,1.6,0.9,1.4*3F
$GPRMC,091953.000,A,6532.8516,N,01929.4872,W,30.24,215.44,040912,,,A*44
$GPGGA,091954.000,6532.8446,N,01929.4988,W,1,09,0.9,141.2,M,60.6,M,,0000*4A
$GPGSA,A,3,14,25,09,32,20,12,31,29,04,,,,1.6,0.9,1.4*3F
$GPRMC,091954.000,A,6532.8446,N,01929.4988,W,30.26,214.62,040912,,,A*44
$GPGGA,091955.000,6532.8377,N,01929.5102,W,1,09,0.9,141.4,M,60.6,M,,0000*43
$GPGSA,A,3,14,25,09,32,20,12,31,29,04,,,,1.6,0.9,1.4*3F
$GPRMC,091955.000,A,6532.8377,N,01929.5102,W,30.19,214.41,040912,,,A*46
$GPGGA,091956.000,6532.8307,N,01929.5217,W,1,09,0.9,141.6,M,60.6,M,,0000*42
$GPGSA,A,3,14,25,09,32,20,12,31,29,04,,,,1.6,0.9,1.4*3F
$GPRMC,091956.000,A,6532.8307,N,01929.5217,W,30.37,214.29,040912,,,A*47
$GPGGA,091957.000,6532.8236,N,01929.5333,W,1,09,0.9,141.8,M,60.6,M,,0000*49
$GPGSA,A,3,14,25,09,32,20,12,31,29,04,,,,1.6,0.9,1.4*3F
$GPGSV,3,1,12,25,64,198,41,12,60,093,34,14,51,216,28,31,33,278,42*77
$GPGSV,3,2,12,32,25,310,32,04,18,049,34,20,17,340,24,29,14,167,32*73
$GPGSV,3,3,12,09,10,115,29,02,09,088,27,27,03,115,23,17,00,019,*7E
$GPRMC,091957.000,A,6532.8236,N,01929.5333,W,30.56,214.28,040912,,,A*44
$GPGGA,091958.000,6532.8165,N,01929.5450,W,1,09,0.9,142.1,M,60.6,M,,0000*4B
$GPGSA,A,3,14,25,09,32,20,12,31,29,04,,,,1.6,0.9,1.4*3F
$GPRMC,091958.000,A,6532.8165,N,01929.5450,W,30.80,214.36,040912,,,A*48
$GPGGA,091959.000,6532.8093,N,01929.5567,W,1,09,0.9,142.4,M,60.6,M,,0000*42
$GPGSA,A,3,14,25,09,32,20,12,31,29,04,,,,1.6,0.9,1.4*3F
$GPRMC,091959.000,A,6532.8093,N,01929.5567,W,31.03,214.15,040912,,,A*4F
$GPGGA,092000.000,6532.8021,N,01929.5683,W,1,09,0.9,142.7,M,60.6,M,,0000*47
$GPGSA,A,3,14,25,09,32,20,12,31,29,04,,,,1.6,0.9,1.4*3F
$GPRMC,092000.000,A,6532.8021,N,01929.5683,W,31.02,213.90,040912,,,A*42
$GPGGA,092001.000,6532.7950,N,01929.5800,W,1,09,0.9,143.1,M,60.6,M,,0000*44
$GPGSA,A,3,14,25,09,32,20,12,31,29,04,,,,1.6,0.9,1.4*3F
$GPRMC,092001.000,A,6532.7950,N,01929.5800,W,30.86,214.11,040912,,,A*45
$GPGGA,092002.000,6532.7878,N,01929.5916,W,1,09,0.9,143.5,M,60.6,M,,0000*4E
$GPGSA,A,3,14,25,09,32,20,12,31,29,04,,,,1.6,0.9,1.4*3F
$GPGSV,3,1,12,25,64,198,40,12,60,093,33,14,51,216,29,31,33,278,42*70
$GPGSV,3,2,12,32,25,310,32,04,18,049,33,20,17,340,30,29,14,167,32*71
$GPGSV,3,3,12,09,10,115,27,02,09,088,27,27,03,115,16,17,00,019,*76
$GPRMC,092002.000,A,6532.7878,N,01929.5916,W,30.84,214.22,040912,,,A*49
$GPGGA,092003.000,6532.7808,N,01929.6031,W,1,09,0.9,143.9,M,60.6,M,,0000*4B
$GPGSA,A,3,14,25,09,32,20,12,31,29,04,,,,1.6,0.9,1.4*3F
$GPRMC,092003.000,A,6532.7808,N,01929.6031,W,30.35,214.00,040912,,,A*4A
$GPGGA,092004.000,6532.7738,N,01929.6143,W,1,09,0.9,144.5,M,60.6,M,,0000*4F
$GPGSA,A,3,14,25,09,32,20,12,31,29,04,,,,1.6,0.9,1.4*3F
$GPRMC,092004.000,A,6532.7738,N,01929.6143,W,29.87,214.02,040912,,,A*46
$GPGGA,092005.000,6532.7669,N,01929.6255,W,1,09,0.9,145.0,M,60.6,M,,0000*4B
$GPGSA,A,3,14,25,09,32,20,12,31,29,04,,,,1.6,0.9,1.4*3F
$GPRMC,092005.000,A,6532.7669,N,01929.6255,W,29.78,213.92,040912,,,A*48
$GPGGA,092006.000,6532.7600,N,01929.6367,W,1,09,0.9,145.6,M,60.6,M,,0000*41
$GPGSA,A,3,14,25,09,32,20,12,31,29,04,,,,1.6,0.9,1.4*3F
$GPRMC,092006.000,A,6532.7600,N,01929.6367,W,29.87,214.01,040912,,,A*49
$GPGGA,092007.000,6532.7530,N,01929.6480,W,1,09,0.9,146.2,M,60.6,M,,0000*49
$GPGSA,A,3,14,25,09,32,20,12,31,29,04,,,,1.6,0.9,1.4*3F
$GPGSV,3,1,12,25,64,198,39,12,60,093,24,14,51,216,29,31,33,278,43*79
$GPGSV,3,2,12,32,25,310,32,04,18,049,33,20,17,340,30,29,14,167,34*77
$GPGSV,3,3,12,09,10,115,22,02,09,088,27,27,03,115,24,17,00,019,*72
$GPRMC,092007.000,A,6532.7530,N,01929.6480,W,29.91,214.24,040912,,,A*46
$GPGGA,092008.000,6532.7461,N,01929.6595,W,1,09,0.9,146.8,M,60.6,M,,0000*4C
$GPGSA,A,3,14,25,09,32,20,12,31,29,04,,,,1.6,0.9,1.4*3F
$GPRMC,092008.000,A,6532.7461,N,01929.6595,W,30.09,214.46,040912,,,A*44
$GPGGA,092009.000,6532.7391,N,01929.6708,W,1,09,0.9,147.5,M,60.6,M,,0000*4F
