$GPGGA,193624.000,5229.6266,N,01319.4648,E,1,08,1.1,50.3,M,44.8,M,,0000*6D
$GPGSA,A,3,28,17,11,32,01,19,14,20,,,,,1.6,1.1,1.2*35
$GPRMC,193624.000,A,5229.6266,N,01319.4648,E,2.00,202.77,080912,,,A*69
$GPGGA,193625.000,5229.6262,N,01319.4645,E,1,08,1.1,49.9,M,44.8,M,,0000*67
$GPGSA,A,3,28,17,11,32,01,19,14,20,,,,,1.6,1.1,1.2*35
$GPRMC,193625.000,A,5229.6262,N,01319.4645,E,1.27,200.51,080912,,,A*61
$GPGGA,193626.000,5229.6261,N,01319.4644,E,1,06,3.0,49.6,M,44.8,M,,0000*64
$GPGSA,A,3,28,17,11,32,01,20,,,,,,,4.6,3.0,3.4*3A
$GPRMC,193630.000,A,5229.6260,N,01319.4638,E,0.97,349.61,080912,,,A*68
$GPGGA,193631.000,5229.6263,N,01319.4640,E,1,05,2.9,49.2,M,44.8,M,,0000*6B
$GPGSA,A,3,28,11,01,14,20,,,,,,,,4.2,2.9,2.9*38
$GPRMC,193631.000,A,5229.6263,N,01319.4640,E,1.66,12.53,080912,,,A*56
$GPGGA,193632.000,5229.6266,N,01319.4641,E,1,05,2.9,48.9,M,44.8,M,,0000*66
$GPGSA,A,3,28,11,01,14,20,,,,,,,,4.2,2.9,2.9*38
$GPGSV,3,1,11,01,85,241,21,32,80,232,15,11,65,165,23,20,47,250,13*79
$GPGSV,3,2,11,14,30,049,17,17,26,312,18,19,16,174,14,31,10,105,16*76
$GPGSV,3,3,11,28,10,275,19,23,09,194,,22,05,070,*4C
$GPRMC,193632.000,A,5229.6266,N,01319.4641,E,1.00,11.24,080912,,,A*52
$GPGGA,193633.000,5229.6266,N,01319.4642,E,1,05,3.6,48.2,M,44.8,M,,0000*61
$GPGSA,A,3,28,11,01,19,20,,,,,,,,4.3,3.6,2.5*36
$GPRMC,193635.000,A,5229.6262,N,01319.4649,E,1.05,112.96,080912,,,A*67
$GPGGA,193636.000,5229.6259,N,01319.4658,E,1,06,1.2,46.4,M,44.8,M,,0000*6E
$GPGSA,A,3,28,11,01,19,14,20,,,,,,,1.8,1.2,1.4*39
$GPRMC,193636.000,A,5229.6259,N,01319.4658,E,1.81,101.85,080912,,,A*60
$GPGGA,193637.000,5229.6258,N,01319.4663,E,1,08,1.1,45.6,M,44.8,M,,0000*6A
$GPGSA,A,3,28,17,11,32,01,19,14,20,,,,,1.6,1.1,1.2*35
$GPGSV,3,1,11,01,85,241,21,32,80,232,16,11,65,165,24,20,47,250,14*7A
$GPGSV,3,2,11,14,30,049,18,17,26,312,18,19,16,174,14,31,10,105,16*79
$GPGSV,3,3,11,28,10,275,19,23,09,194,,22,05,070,*4C
$GPRMC,193637.000,A,5229.6258,N,01319.4663,E,1.10,99.18,080912,,,A*54
$GPGGA,193638.000,5229.6258,N,01319.4664,E,1,07,2.2,44.9,M,44.8,M,,0000*63
$GPGSA,A,3,28,17,11,32,01,19,20,,,,,,2.8,2.2,1.7*38
$GPRMC,193644.000,A,5229.6253,N,01319.4655,E,1.16,226.50,080912,,,A*62
$GPGGA,193645.000,5229.6250,N,01319.4650,E,1,08,1.1,43.7,M,44.8,M,,0000*60
$GPGSA,A,3,28,17,11,32,01,19,14,20,,,,,1.6,1.1,1.2*35
$GPRMC,193645.000,A,5229.6250,N,01319.4650,E,1.26,229.34,080912,,,A*6B
$GPGGA,193646.000,5229.6246,N,01319.4644,E,1,08,1.1,43.8,M,44.8,M,,0000*6E
$GPGSA,A,3,28,17,11,32,01,19,14,20,,,,,1.6,1.1,1.2*35
$GPRMC,193646.000,A,5229.6246,N,01319.4644,E,1.50,218.06,080912,,,A*68
$GPGGA,193647.000,5229.6243,N,01319.4642,E,1,08,1.1,43.7,M,44.8,M,,0000*63
$GPGSA,A,3,28,17,11,32,01,19,14,20,,,,,1.6,1.1,1.2*35
$GPGSV,3,1,11,01,85,241,20,32,80,232,16,11,65,165,25,20,47,250,16*78
$GPGSV,3,2,11,14,30,049,19,17,26,312,23,19,16,174,15,31,10,105,15*72
$GPGSV,3,3,11,28,10,275,19,23,09,194,,22,05,070,*4C
$GPRMC,193648.000,A,5229.6240,N,01319.4639,E,1.15,202.95,080912,,,A*6A
$GPGGA,193649.000,5229.6236,N,01319.4637,E,1,08,1.1,43.3,M,44.8,M,,0000*69
$GPGSA,A,3,28,17,11,32,01,19,14,20,,,,,1.6,1.1,1.2*35
$GPRMC,193649.000,A,5229.6236,N,01319.4637,E,1.15,203.66,080912,,,A*69
$GPGGA,193650.000,5229.6233,N,01319.4635,E,1,08,1.1,42.9,M,44.8,M,,0000*6D
$GPGSA,A,3,28,17,11,32,01,19,14,20,,,,,1.6,1.1,1.2*35
$GPRMC,193650.000,A,5229.6233,N,01319.4635,E,0.86,212.87,080912,,,A*62
$GPGGA,193651.000,5229.6230,N,01319.4632,E,1,08,1.1,42.5,M,44.8,M,,0000*64
$GPGSA,A,3,28,17,11,32,01,19,14,20,,,,,1.6,1.1,1.2*35
$GPRMC,193651.000,A,5229.6230,N,01319.4632,E,1.12,221.84,080912,,,A*68
$GPGGA,193652.000,5229.6228,N,01319.4628,E,1,07,2.2,42.2,M,44.8,M,,0000*6D
$GPGSA,A,3,28,17,11,32,01,19,20,,,,,,2.8,2.2,1.7*38
$GPGSV,3,1,11,01,85,241,20,32,80,232,17,11,65,165,26,20,47,250,16*7A
$GPGSV,3,2,11,14,30,049,19,17,26,312,24,19,16,174,15,31,10,105,14*74
$GPGSV,3,3,11,28,10,275,20,23,09,194,,22,05,070,*46
$GPRMC,193652.000,A,5229.6228,N,01319.4628,E,1.02,229.73,080912,,,A*68
$GPGGA,193653.000,5229.6227,N,01319.4631,E,1,08,1.1,41.9,M,44.8,M,,0000*6C
$GPGSA,A,3,28,17,11,32,01,19,14,20,,,,,1.6,1.1,1.2*35
$GPRMC,193656.000,A,5229.6225,N,01319.4644,E,1.34,71.52,080912,,,A*52
$GPGGA,193657.000,5229.6227,N,01319.4650,E,1,08,1.1,41.6,M,44.8,M,,0000*60
$GPGSA,A,3,28,17,11,32,01,19,14,20,,,,,1.6,1.1,1.2*35
$GPGSV,3,1,11,01,85,241,14,32,80,232,17,11,65,165,26,20,47,250,17*7C
$GPGSV,3,2,11,14,30,049,19,17,26,312,25,19,16,174,16,31,10,105,14*76
$GPGSV,3,3,11,28,10,275,21,23,09,194,,22,05,070,*47
$GPRMC,193657.000,A,5229.6227,N,01319.4650,E,1.39,49.18,080912,,,A*5C
$GPGGA,193658.000,5229.6227,N,01319.4655,E,1,08,1.1,41.6,M,44.8,M,,0000*6A
$GPGSA,A,3,28,17,11,32,01,19,14,20,,,,,1.6,1.1,1.2*35
$GPRMC,193702.000,A,5229.6221,N,01319.4664,E,1.13,209.49,080912,,,A*66
$GPGGA,193703.000,5229.6217,N,01319.4660,E,1,08,1.1,43.5,M,44.8,M,,0000*61
$GPGSA,A,3,28,17,11,32,01,19,14,20,,,,,1.6,1.1,1.2*35
$GPRMC,193703.000,A,5229.6217,N,01319.4660,E,1.41,219.27,080912,,,A*68
$GPGGA,193704.000,5229.6218,N,01319.4661,E,1,07,1.1,44.1,M,44.8,M,,0000*64
$GPGSA,A,3,28,17,11,32,01,19,14,,,,,,1.7,1.1,1.3*37
$GPRMC,193709.000,A,5229.6224,N,01319.4672,E,0.94,41.14,080912,,,A*57
$GPGGA,193710.000,5229.6227,N,01319.4677,E,1,08,1.1,47.7,M,44.8,M,,0000*60
$GPGSA,A,3,28,17,11,32,01,19,14,20,,,,,1.6,1.1,1.2*35
$GPRMC,193710.000,A,5229.6227,N,01319.4677,E,0.81,29.70,080912,,,A*51
$GPGGA,193711.000,5229.6229,N,01319.4681,E,1,08,1.1,48.1,M,44.8,M,,0000*6F
$GPGSA,A,3,28,17,11,32,01,19,14,20,,,,,1.6,1.1,1.2*35
$GPRMC,193711.000,A,5229.6229,N,01319.4681,E,0.82,34.99,080912,,,A*5F
$GPGGA,193712.000,5229.6230,N,01319.4682,E,1,08,1.1,48.5,M,44.8,M,,0000*63
$GPGSA,A,3,28,17,11,32,01,19,14,20,,,,,1.6,1.1,1.2*35
$GPGSV,3,1,11,01,85,241,16,32,80,232,16,11,65,165,25,20,47,250,20*78
$GPGSV,3,2,11,14,30,049,18,17,26,312,27,19,16,174,18,31,10,105,16*79
$GPGSV,3,3,11,28,10,275,23,23,09,194,,22,05,070,*45
$GPRMC,193723.000,A,5229.6244,N,01319.4701,E,1.10,29.27,080912,,,A*5F
$GPGGA,193724.000,5229.6248,N,01319.4704,E,1,08,1.1,50.9,M,44.8,M,,0000*63
$GPGSA,A,3,28,17,11,32,01,19,14,20,,,,,1.6,1.1,1.2*35
$GPRMC,193724.000,A,5229.6248,N,01319.4704,E,1.19,39.05,080912,,,A*59
$GPGGA,193725.000,5229.6249,N,01319.4704,E,1,08,1.1,51.1,M,44.8,M,,0000*6A
$GPGSA,A,3,28,17,11,32,01,19,14,20,,,,,1.6,1.1,1.2*35
$GPRMC,193730.000,A,5229.6256,N,01319.4709,E,1.29,22.46,080912,,,A*50
$GPGGA,193731.000,5229.6260,N,01319.4710,E,1,08,1.1,49.8,M,44.8,M,,0000*61
$GPGSA,A,3,28,17,11,32,01,19,14,20,,,,,1.6,1.1,1.2*35
$GPRMC,193731.000,A,5229.6260,N,01319.4710,E,1.10,13.25,080912,,,A*51
$GPGGA,193732.000,5229.6263,N,01319.4712,E,1,08,1.1,49.3,M,44.8,M,,0000*68
$GPGSA,A,3,28,17,11,32,01,19,14,20,,,,,1.6,1.1,1.2*35
$GPGSV,3,1,11,01,85,241,23,32,80,232,15,11,65,165,23,20,47,250,22*79
$GPGSV,3,2,11,14,30,049,18,17,26,312,25,19,16,174,18,31,10,105,16*7B
$GPGSV,3,3,11,28,10,275,26,23,09,194,,22,05,070,*40
$GPRMC,193732.000,A,5229.6263,N,01319.4712,E,0.87,36.14,080912,,,A*59
$GPGGA,193733.000,5229.6265,N,01319.4713,E,1,07,2.2,48.6,M,44.8,M,,0000*65
$GPGSA,A,3,28,17,11,32,01,19,20,,,,,,2.8,2.2,1.7*38
$GPRMC,193737.000,A,5229.6275,N,01319.4718,E,0.84,43.50,080912,,,A*50
$GPGGA,193738.000,5229.6278,N,01319.4719,E,1,08,1.1,44.4,M,44.8,M,,0000*69
$GPGSA,A,3,28,17,11,32,01,19,14,20,,,,,1.6,1.1,1.2*35
$GPRMC,193759.000,A,5229.6279,N,01319.4652,E,0.82,26.67,080912,,,A*5A
$GPGGA,193800.000,5229.6279,N,01319.4650,E,1,07,1.1,49.1,M,44.8,M,,0000*67
$GPGSA,A,3,28,17,11,01,19,14,20,,,,,,1.7,1.1,1.4*33
$GPRMC,193816.000,A,5229.6255,N,01319.4619,E,0.87,355.62,080912,,,A*68
$GPGGA,193817.000,5229.6254,N,01319.4619,E,1,07,1.1,59.6,M,44.8,M,,0000*65
$GPGSA,A,3,28,17,11,01,19,14,20,,,,,,1.7,1.1,1.4*33
$GPGSV,3,1,11,01,85,225,17,32,82,232,,11,63,164,22,20,48,251,23*73
$GPGSV,3,2,11,14,29,048,22,17,27,312,27,19,15,174,16,31,11,105,13*71
$GPGSV,3,3,11,23,11,194,,28,10,274,29,22,04,071,*47
$GPRMC,193824.000,A,5229.6245,N,01319.4634,E,0.95,144.70,080912,,,A*65
$GPGGA,193825.000,5229.6242,N,01319.4638,E,1,08,1.1,60.6,M,44.8,M,,0000*65
$GPGSA,A,3,28,17,11,32,01,19,14,20,,,,,1.6,1.1,1.2*35
$GPRMC,193825.000,A,5229.6242,N,01319.4638,E,1.05,155.16,080912,,,A*67
$GPGGA,193826.000,5229.6239,N,01319.4641,E,1,08,1.1,60.5,M,44.8,M,,0000*67
$GPGSA,A,3,28,17,11,32,01,19,14,20,,,,,1.6,1.1,1.2*35
$GPRMC,193904.000,A,5229.6226,N,01319.4661,E,1.07,30.22,080912,,,A*5C
$GPGGA,193905.000,5229.6231,N,01319.4664,E,1,07,1.1,58.0,M,44.8,M,,0000*69
$GPGSA,A,3,28,17,11,32,19,14,20,,,,,,1.7,1.1,1.4*33
$GPRMC,193905.000,A,5229.6231,N,01319.4664,E,1.59,28.15,080912,,,A*58
$GPGGA,193906.000,5229.6235,N,01319.4666,E,1,07,1.1,57.4,M,44.8,M,,0000*67
$GPGSA,A,3,28,17,11,32,19,14,20,,,,,,1.7,1.1,1.4*33
$GPRMC,193906.000,A,5229.6235,N,01319.4666,E,1.12,21.23,080912,,,A*5E
$GPGGA,193907.000,5229.6239,N,01319.4667,E,1,07,1.1,56.9,M,44.8,M,,0000*67
$GPGSA,A,3,28,17,11,32,19,14,20,,,,,,1.7,1.1,1.4*33
$GPGSV,3,1,11,01,85,221,,32,82,232,13,11,63,164,23,20,48,251,21*70
$GPGSV,3,2,11,14,29,048,19,17,27,311,26,19,15,174,15,31,11,104,18*72
$GPGSV,3,3,11,23,11,194,,28,10,274,28,22,04,071,*46
$GPRMC,193907.000,A,5229.6239,N,01319.4667,E,1.02,15.01,080912,,,A*54
$GPGGA,193908.000,5229.6243,N,01319.4668,E,1,06,2.3,56.3,M,44.8,M,,0000*60
$GPGSA,A,3,28,17,11,32,19,20,,,,,,,2.9,2.3,1.7*39
$GPRMC,193908.000,A,5229.6243,N,01319.4668,E,1.03,30.31,080912,,,A*5C
$GPGGA,193909.000,5229.6247,N,01319.4669,E,1,05,2.3,55.8,M,44.8,M,,0000*6F
$GPGSA,A,3,28,17,11,19,20,,,,,,,,3.0,2.3,1.9*3E
$GPRMC,193909.000,A,5229.6247,N,01319.4669,E,0.85,28.62,080912,,,A*58
$GPGGA,193910.000,5229.6251,N,01319.4673,E,1,07,1.1,55.2,M,44.8,M,,0000*62
$GPGSA,A,3,28,17,11,32,19,14,20,,,,,,1.7,1.1,1.4*33
$GPRMC,193910.000,A,5229.6251,N,01319.4673,E,1.28,44.70,080912,,,A*53
$GPGGA,193911.000,5229.6254,N,01319.4675,E,1,07,1.1,54.7,M,44.8,M,,0000*64
$GPGSA,A,3,28,17,11,32,19,14,20,,,,,,1.7,1.1,1.4*33
$GPRMC,193911.000,A,5229.6254,N,01319.4675,E,0.83,46.32,080912,,,A*55
$GPGGA,193912.000,5229.6256,N,01319.4676,E,1,07,1.1,54.1,M,44.8,M,,0000*60
$GPGSA,A,3,28,17,11,32,19,14,20,,,,,,1.7,1.1,1.4*33
$GPGSV,3,1,11,01,85,221,,32,82,232,14,11,63,164,24,20,48,251,22*73
$GPGSV,3,2,11,14,29,048,18,17,27,311,26,19,15,174,15,31,11,104,17*7C
$GPGSV,3,3,11,23,11,194,,28,10,274,29,22,04,071,*47
$GPRMC,193913.000,A,5229.6255,N,01319.4674,E,0.82,207.13,080912,,,A*62
$GPGGA,193914.000,5229.6254,N,01319.4670,E,1,07,1.1,53.5,M,44.8,M,,0000*61
$GPGSA,A,3,28,17,11,32,19,14,20,,,,,,1.7,1.1,1.4*33
$GPRMC,193914.000,A,5229.6254,N,01319.4670,E,1.19,212.04,080912,,,A*61
$GPGGA,193915.000,5229.6252,N,01319.4665,E,1,07,1.1,53.4,M,44.8,M,,0000*63
$GPGSA,A,3,28,17,11,32,19,14,20,,,,,,1.7,1.1,1.4*33
$GPRMC,193915.000,A,5229.6252,N,01319.4665,E,1.56,210.89,080912,,,A*6E
$GPGGA,193916.000,5229.6250,N,01319.4661,E,1,07,1.1,53.5,M,44.8,M,,0000*67
$GPGSA,A,3,28,17,11,32,19,14,20,,,,,,1.7,1.1,1.4*33
$GPRMC,193916.000,A,5229.6250,N,01319.4661,E,1.25,198.00,080912,,,A*6D
$GPGGA,193917.000,5229.6250,N,01319.4661,E,1,07,1.1,53.6,M,44.8,M,,0000*65
$GPGSA,A,3,28,17,11,32,19,14,20,,,,,,1.7,1.1,1.4*33
$GPGSV,3,1,11,01,85,218,,32,82,232,14,11,63,164,24,20,49,251,22*78
$GPGSV,3,2,11,14,29,048,17,17,27,311,26,19,15,174,15,31,12,104,16*71
$GPGSV,3,3,11,23,11,194,,28,09,274,29,22,03,071,*48
$GPRMC,193920.000,A,5229.6257,N,01319.4665,E,0.96,48.52,080912,,,A*59
$GPGGA,193921.000,5229.6260,N,01319.4668,E,1,07,1.1,54.2,M,44.8,M,,0000*69
$GPGSA,A,3,28,17,11,32,19,14,20,,,,,,1.7,1.1,1.4*33
$GPRMC,193921.000,A,5229.6260,N,01319.4668,E,1.20,39.26,080912,,,A*58
$GPGGA,193922.000,5229.6266,N,01319.4671,E,1,07,1.1,54.3,M,44.8,M,,0000*65
$GPGSA,A,3,28,17,11,32,19,14,20,,,,,,1.7,1.1,1.4*33
$GPGSV,3,1,11,01,85,218,,32,82,232,14,11,63,164,25,20,49,251,22*79
$GPGSV,3,2,11,14,29,048,17,17,27,311,27,19,15,174,15,31,12,104,16*70
$GPGSV,3,3,11,23,11,194,,28,09,274,29,22,03,071,*48
$GPRMC,193922.000,A,5229.6266,N,01319.4671,E,1.63,33.15,080912,,,A*58
$GPGGA,193923.000,5229.6270,N,01319.4673,E,1,07,1.1,54.4,M,44.8,M,,0000*66
$GPGSA,A,3,28,17,11,32,19,14,20,,,,,,1.7,1.1,1.4*33
$GPRMC,193923.000,A,5229.6270,N,01319.4673,E,1.19,15.62,080912,,,A*55
$GPGGA,193924.000,5229.6273,N,01319.4672,E,1,07,1.1,54.8,M,44.8,M,,0000*6F
$GPGSA,A,3,28,17,11,32,19,14,20,,,,,,1.7,1.1,1.4*33
$GPRMC,193928.000,A,5229.6275,N,01319.4661,E,0.89,227.14,080912,,,A*62
$GPGGA,193929.000,5229.6272,N,01319.4656,E,1,06,2.3,56.6,M,44.8,M,,0000*69
$GPGSA,A,3,28,17,11,32,19,20,,,,,,,2.9,2.3,1.7*39
$GPRMC,193929.000,A,5229.6272,N,01319.4656,E,1.30,223.87,080912,,,A*6D
$GPGGA,193930.000,5229.6268,N,01319.4651,E,1,06,2.3,57.2,M,44.8,M,,0000*68
$GPGSA,A,3,28,17,11,32,19,20,,,,,,,2.9,2.3,1.7*39
$GPRMC,193930.000,A,5229.6268,N,01319.4651,E,1.75,220.48,080912,,,A*68
$GPGGA,193931.000,5229.6263,N,01319.4645,E,1,07,1.1,57.9,M,44.8,M,,0000*6C
$GPGSA,A,3,28,17,11,32,19,14,20,,,,,,1.7,1.1,1.4*33
$GPRMC,193931.000,A,5229.6263,N,01319.4645,E,1.79,217.48,080912,,,A*6F
$GPGGA,193932.000,5229.6259,N,01319.4640,E,1,06,1.8,58.5,M,44.8,M,,0000*68
$GPGSA,A,3,28,17,11,32,14,20,,,,,,,2.9,1.8,2.3*3B
$GPGSV,3,1,11,01,85,218,,32,82,232,14,11,63,164,25,20,49,251,21*7A
$GPGSV,3,2,11,14,29,048,16,17,27,311,27,19,15,174,15,31,12,104,15*72
$GPGSV,3,3,11,23,11,194,,28,09,274,29,22,03,071,*48
$GPRMC,193932.000,A,5229.6259,N,01319.4640,E,1.52,206.04,080912,,,A*61
$GPGGA,193933.000,5229.6255,N,01319.4638,E,1,07,1.1,59.1,M,44.8,M,,0000*67
$GPGSA,A,3,28,17,11,32,19,14,20,,,,,,1.7,1.1,1.4*33
$GPRMC,193933.000,A,5229.6255,N,01319.4638,E,1.11,199.84,080912,,,A*69
$GPGGA,193934.000,5229.6252,N,01319.4638,E,1,06,1.1,59.4,M,44.8,M,,0000*63
$GPGSA,A,3,28,17,11,19,14,20,,,,,,,2.0,1.1,1.7*35
$GPRMC,193937.000,A,5229.6248,N,01319.4647,E,0.99,100.17,080912,,,A*62
$GPGGA,193938.000,5229.6245,N,01319.4650,E,1,07,1.1,59.9,M,44.8,M,,0000*6B
$GPGSA,A,3,28,17,11,32,19,14,20,,,,,,1.7,1.1,1.4*33
$GPRMC,193938.000,A,5229.6245,N,01319.4650,E,1.00,133.41,080912,,,A*64
$GPGGA,193939.000,5229.6241,N,01319.4651,E,1,07,1.1,60.0,M,44.8,M,,0000*6C
$GPGSA,A,3,28,17,11,32,19,14,20,,,,,,1.7,1.1,1.4*33
$GPRMC,193939.000,A,5229.6241,N,01319.4651,E,1.16,156.86,080912,,,A*6F
$GPGGA,193940.000,5229.6237,N,01319.4653,E,1,07,1.1,59.9,M,44.8,M,,0000*62
$GPGSA,A,3,28,17,11,32,19,14,20,,,,,,1.7,1.1,1.4*33
$GPRMC,193940.000,A,5229.6237,N,01319.4653,E,1.25,162.39,080912,,,A*61
$GPGGA,193941.000,5229.6233,N,01319.4653,E,1,07,1.1,59.7,M,44.8,M,,0000*69
$GPGSA,A,3,28,17,11,32,19,14,20,,,,,,1.7,1.1,1.4*33
$GPRMC,193941.000,A,5229.6233,N,01319.4653,E,0.93,171.05,080912,,,A*65
$GPGGA,193942.000,5229.6231,N,01319.4653,E,1,06,2.3,59.6,M,44.8,M,,0000*69
$GPGSA,A,3,28,17,11,32,19,20,,,,,,,2.9,2.3,1.7*39
$GPGSV,3,1,11,01,85,218,,32,82,232,14,11,63,164,24,20,49,251,20*7A
$GPGSV,3,2,11,14,29,048,16,17,27,311,27,19,15,174,14,31,12,104,15*73
$GPGSV,3,3,11,23,11,194,,28,09,274,28,22,03,071,*49
$GPRMC,193951.000,A,5229.6222,N,01319.4645,E,0.85,224.10,080912,,,A*63
$GPGGA,193952.000,5229.6220,N,01319.4641,E,1,08,1.1,58.9,M,44.8,M,,0000*6A
$GPGSA,A,3,28,17,11,32,01,19,14,20,,,,,1.6,1.1,1.2*35
$GPGSV,3,1,11,01,85,218,17,32,82,232,14,11,63,164,24,20,49,251,20*7C
$GPGSV,3,2,11,14,29,048,17,17,27,311,26,19,15,174,13,31,12,104,12*73
$GPGSV,3,3,11,23,11,194,,28,09,274,28,22,03,071,*49
$GPRMC,193958.000,A,5229.6214,N,01319.4621,E,1.61,207.40,080912,,,A*62
$GPGGA,193959.000,5229.6211,N,01319.4614,E,1,07,1.7,56.9,M,44.8,M,,0000*64
$GPGSA,A,3,28,17,11,32,01,14,20,,,,,,2.7,1.7,2.0*38
$GPRMC,193959.000,A,5229.6211,N,01319.4614,E,1.50,215.31,080912,,,A*67
$GPGGA,194000.000,5229.6210,N,01319.4607,E,1,06,1.8,56.7,M,44.8,M,,0000*65
$GPGSA,A,3,28,17,11,32,14,20,,,,,,,2.9,1.8,2.3*3B
$GPRMC,194000.000,A,5229.6210,N,01319.4607,E,1.05,225.46,080912,,,A*65
$GPGGA,194001.000,5229.6209,N,01319.4601,E,1,05,1.9,56.7,M,44.8,M,,0000*68
$GPGSA,A,3,28,17,11,14,20,,,,,,,,3.4,1.9,2.9*3D
$GPRMC,194001.000,A,5229.6209,N,01319.4601,E,1.05,234.79,080912,,,A*66
$GPGGA,194002.000,5229.6207,N,01319.4595,E,1,05,1.9,56.9,M,44.8,M,,0000*65
$GPGSA,A,3,28,17,11,14,20,,,,,,,,3.4,1.9,2.9*3D
$GPGSV,3,1,11,01,85,218,19,32,82,232,14,11,63,164,22,20,49,251,20*74
$GPGSV,3,2,11,14,29,048,15,17,27,311,25,19,15,174,,31,12,104,*73
$GPGSV,3,3,11,23,11,194,,28,09,274,28,22,03,071,*49
$GPRMC,194002.000,A,5229.6207,N,01319.4595,E,1.07,216.49,080912,,,A*64
$GPGGA,194003.000,5229.6208,N,01319.4590,E,1,07,1.7,56.9,M,44.8,M,,0000*62
$GPGSA,A,3,28,17,11,32,01,14,20,,,,,,2.7,1.7,2.0*38
$GPRMC,194010.000,A,5229.6203,N,01319.4585,E,1.14,72.75,080912,,,A*5F
$GPGGA,194011.000,5229.6201,N,01319.4585,E,1,06,2.2,55.5,M,44.8,M,,0000*64
$GPGSA,A,3,17,11,32,01,14,20,,,,,,,4.0,2.2,3.4*30
$GPRMC,194015.000,A,5229.6195,N,01319.4584,E,0.97,87.58,080912,,,A*58
$GPGGA,194016.000,5229.6193,N,01319.4587,E,1,05,2.4,53.0,M,44.8,M,,0000*6F
$GPGSA,A,3,17,11,01,14,20,,,,,,,,4.9,2.4,4.2*3F
$GPRMC,194016.000,A,5229.6193,N,01319.4587,E,0.98,109.52,080912,,,A*6C
$GPGGA,194017.000,5229.6190,N,01319.4588,E,1,05,3.2,51.9,M,44.8,M,,0000*6E
$GPGSA,A,3,17,11,32,01,20,,,,,,,,5.6,3.2,4.6*36
$GPGSV,3,1,11,01,85,218,20,32,82,232,17,11,63,164,21,20,49,251,19*74
$GPGSV,3,2,11,14,29,048,16,17,27,311,26,19,15,174,,31,12,104,*73
$GPGSV,3,3,11,23,11,194,,28,09,274,27,22,03,071,*46
$GPRMC,194017.000,A,5229.6190,N,01319.4588,E,0.87,141.55,080912,,,A*64
$GPGGA,194018.000,5229.6185,N,01319.4586,E,1,04,3.3,50.2,M,44.8,M,,0000*61
$GPGSA,A,3,17,11,01,20,,,,,,,,,6.4,3.3,5.5*35
$GPRMC,194018.000,A,5229.6185,N,01319.4586,E,0.82,178.18,080912,,,A*67
$GPGGA,194019.000,5229.6180,N,01319.4585,E,1,06,2.2,47.8,M,44.8,M,,0000*68
$GPGSA,A,3,17,11,32,01,14,20,,,,,,,4.0,2.2,3.4*30
$GPRMC,194019.000,A,5229.6180,N,01319.4585,E,1.19,178.81,080912,,,A*63
$GPGGA,194020.000,5229.6173,N,01319.4584,E,1,06,2.2,45.1,M,44.8,M,,0000*64
$GPGSA,A,3,17,11,32,01,14,20,,,,,,,4.0,2.2,3.4*30
$GPRMC,194020.000,A,5229.6173,N,01319.4584,E,1.58,182.17,080912,,,A*6B
$GPGGA,194021.000,5229.6167,N,01319.4581,E,1,06,2.2,42.6,M,44.8,M,,0000*65
$GPGSA,A,3,17,11,32,01,14,20,,,,,,,4.0,2.2,3.4*30
$GPRMC,194021.000,A,5229.6167,N,01319.4581,E,1.40,201.01,080912,,,A*6C
$GPGGA,194022.000,5229.6160,N,01319.4572,E,1,05,2.4,40.1,M,44.8,M,,0000*6D
$GPGSA,A,3,17,11,32,14,20,,,,,,,,5.1,2.4,4.5*31
$GPGSV,3,1,11,01,85,218,16,32,82,232,18,11,63,164,21,20,49,251,19*7E
$GPGSV,3,2,11,14,29,048,15,17,27,311,26,19,15,174,,31,12,104,*70
$GPGSV,3,3,11,23,11,194,,28,09,274,27,22,03,071,*46
$GPRMC,194022.000,A,5229.6160,N,01319.4572,E,2.66,214.97,080912,,,A*68
$GPGGA,194023.000,5229.6151,N,01319.4560,E,1,05,2.4,37.4,M,44.8,M,,0000*68
$GPGSA,A,3,17,11,32,14,20,,,,,,,,5.1,2.4,4.5*31
$GPRMC,194023.000,A,5229.6151,N,01319.4560,E,3.56,215.48,080912,,,A*69
$GPGGA,194024.000,5229.6140,N,01319.4546,E,1,05,2.4,34.6,M,44.8,M,,0000*6A
$GPGSA,A,3,17,11,32,14,20,,,,,,,,5.1,2.4,4.5*31
$GPRMC,194024.000,A,5229.6140,N,01319.4546,E,4.14,216.95,080912,,,A*68
$GPGGA,194025.000,5229.6128,N,01319.4532,E,1,05,2.4,32.2,M,44.8,M,,0000*64
$GPGSA,A,3,17,11,32,14,20,,,,,,,,5.1,2.4,4.5*31
$GPRMC,194025.000,A,5229.6128,N,01319.4532,E,4.43,216.34,080912,,,A*6D
$GPGGA,194026.000,5229.6116,N,01319.4516,E,1,05,2.4,29.9,M,44.8,M,,0000*6D
$GPGSA,A,3,17,11,32,14,20,,,,,,,,5.1,2.4,4.5*31
$GPRMC,194026.000,A,5229.6116,N,01319.4516,E,4.73,218.71,080912,,,A*69
$GPGGA,194027.000,5229.6108,N,01319.4499,E,1,04,1.5,27.9,M,44.8,M,,0000*68
$GPGSA,A,3,17,11,14,20,,,,,,,,,1.8,1.5,1.0*3F
$GPGSV,3,1,11,01,85,218,,32,82,232,17,11,63,164,21,20,49,251,20*7C
$GPGSV,3,2,11,14,29,048,13,17,27,311,26,19,15,174,,31,12,104,*76
$GPGSV,3,3,11,23,11,194,,28,09,274,23,22,03,071,12*41
$GPRMC,194027.000,A,5229.6108,N,01319.4499,E,4.38,231.54,080912,,,A*62
$GPGGA,194028.000,5229.6102,N,01319.4487,E,1,03,3.0,26.3,M,44.8,M,,0000*69
$GPGSA,A,2,17,11,20,,,,,,,,,,3.1,3.0,1.0*37
$GPRMC,194028.000,A,5229.6102,N,01319.4487,E,3.18,229.12,080912,,,A*66
$GPGGA,194029.000,5229.6098,N,01319.4480,E,1,04,3.4,25.0,M,44.8,M,,0000*6E
$GPGSA,A,3,17,11,32,20,,,,,,,,,6.3,3.4,5.3*33
$GPRMC,194029.000,A,5229.6098,N,01319.4480,E,1.87,221.93,080912,,,A*67
$GPGGA,194030.000,5229.6096,N,01319.4475,E,1,03,3.0,24.1,M,44.8,M,,0000*61
$GPGSA,A,2,17,11,20,,,,,,,,,,3.1,3.0,1.0*37
$GPRMC,194030.000,A,5229.6096,N,01319.4475,E,1.37,207.68,080912,,,A*60
$GPGGA,194031.000,5229.6097,N,01319.4478,E,1,04,3.4,23.5,M,44.8,M,,0000*6C
$GPGSA,A,3,17,11,32,20,,,,,,,,,6.3,3.4,5.3*33
$GPRMC,194031.000,A,5229.6097,N,01319.4478,E,0.90,90.63,080912,,,A*56
$GPGGA,194032.000,5229.6101,N,01319.4486,E,1,04,3.4,23.0,M,44.8,M,,0000*65
$GPGSA,A,3,17,11,32,20,,,,,,,,,6.3,3.4,5.3*33
$GPGSV,3,1,11,01,85,218,,32,82,232,16,11,63,164,22,20,49,251,20*7E
$GPGSV,3,2,11,14,29,048,,17,27,311,26,19,15,174,,31,12,104,*74
$GPGSV,3,3,11,23,11,194,,28,09,274,24,22,03,071,13*47
$GPRMC,194032.000,A,5229.6101,N,01319.4486,E,1.77,65.71,080912,,,A*5B
$GPGGA,194033.000,5229.6104,N,01319.4491,E,1,04,3.4,22.2,M,44.8,M,,0000*64
$GPGSA,A,3,17,11,32,20,,,,,,,,,6.3,3.4,5.3*33
$GPRMC,194033.000,A,5229.6104,N,01319.4491,E,1.17,62.16,080912,,,A*59
$GPGGA,194034.000,5229.6106,N,01319.4495,E,1,04,3.4,21.1,M,44.8,M,,0000*65
$GPGSA,A,3,17,11,32,20,,,,,,,,,6.3,3.4,5.3*33
$GPRMC,194036.000,A,5229.6113,N,01319.4508,E,1.02,51.63,080912,,,A*5D
$GPGGA,194037.000,5229.6114,N,01319.4518,E,1,04,3.4,17.9,M,44.8,M,,0000*6C
$GPGSA,A,3,17,11,32,20,,,,,,,,,6.3,3.4,5.3*33
$GPGSV,3,1,11,01,85,218,,32,82,232,15,11,63,164,22,20,49,251,21*7C
$GPGSV,3,2,11,14,29,048,,17,27,311,26,19,15,174,,31,12,104,*74
$GPGSV,3,3,11,23,11,194,,28,09,274,24,22,03,071,12*46
$GPRMC,194037.000,A,5229.6114,N,01319.4518,E,1.29,89.07,080912,,,A*54
$GPGGA,194038.000,5229.6113,N,01319.4526,E,1,04,3.4,16.4,M,44.8,M,,0000*65
$GPGSA,A,3,17,11,32,20,,,,,,,,,6.3,3.4,5.3*33
$GPRMC,194038.000,A,5229.6113,N,01319.4526,E,1.44,135.94,080912,,,A*66
$GPGGA,194039.000,5229.6112,N,01319.4531,E,1,04,3.4,14.9,M,44.8,M,,0000*6C
$GPGSA,A,3,17,11,32,20,,,,,,,,,6.3,3.4,5.3*33
$GPRMC,194044.000,A,5229.6121,N,01319.4578,E,1.27,125.92,080912,,,A*65
$GPGGA,194045.000,5229.6120,N,01319.4596,E,1,04,3.3,3.3,M,44.8,M,,0000*50
$GPGSA,A,3,17,11,01,20,,,,,,,,,6.4,3.3,5.4*34
$GPRMC,194045.000,A,5229.6120,N,01319.4596,E,2.10,124.42,080912,,,A*6E
$GPGGA,194046.000,5229.6121,N,01319.4616,E,1,04,3.3,0.5,M,44.8,M,,0000*5C
$GPGSA,A,3,17,11,01,20,,,,,,,,,6.4,3.3,5.4*34
$GPRMC,194046.000,A,5229.6121,N,01319.4616,E,2.23,100.11,080912,,,A*67
$GPGGA,194047.000,5229.6120,N,01319.4631,E,1,04,3.3,-2.6,M,44.8,M,,0000*75
$GPGSA,A,3,17,11,01,20,,,,,,,,,6.4,3.3,5.4*34
$GPGSV,3,1,11,01,85,218,18,32,82,232,,11,63,164,22,20,49,251,22*72
$GPGSV,3,2,11,14,29,048,,17,27,311,25,19,15,174,,31,12,104,*77
$GPGSV,3,3,11,23,11,194,,28,09,274,24,22,03,071,*45
$GPRMC,194047.000,A,5229.6120,N,01319.4631,E,1.55,120.60,080912,,,A*64
$GPGGA,194048.000,5229.6120,N,01319.4639,E,1,03,3.0,-5.2,M,44.8,M,,0000*75
$GPGSA,A,2,17,11,20,,,,,,,,,,3.1,3.0,1.0*37
$GPRMC,194049.000,A,5229.6119,N,01319.4644,E,1.00,180.72,080912,,,A*6B
$GPGGA,194050.000,5229.6120,N,01319.4656,E,1,04,3.3,-9.5,M,44.8,M,,0000*7A
$GPGSA,A,3,17,11,01,20,,,,,,,,,6.4,3.3,5.4*34
$GPRMC,194050.000,A,5229.6120,N,01319.4656,E,1.23,111.07,080912,,,A*61
$GPGGA,194051.000,5229.6121,N,01319.4668,E,1,04,3.3,-12.2,M,44.8,M,,0000*4A
$GPGSA,A,3,17,11,01,20,,,,,,,,,6.4,3.3,5.4*34
$GPRMC,194051.000,A,5229.6121,N,01319.4668,E,1.32,104.00,080912,,,A*6F
$GPGGA,194052.000,5229.6120,N,01319.4681,E,1,04,3.3,-15.4,M,44.8,M,,0000*4E
$GPGSA,A,3,17,11,01,20,,,,,,,,,6.4,3.3,5.4*34
$GPGSV,3,1,11,01,85,218,19,32,82,232,,11,63,164,22,20,49,251,22*73
$GPGSV,3,2,11,14,29,048,,17,27,311,25,19,15,174,,31,12,104,*77
$GPGSV,3,3,11,23,11,194,,28,09,274,25,22,03,071,*44
$GPRMC,194052.000,A,5229.6120,N,01319.4681,E,1.57,116.17,080912,,,A*6C
$GPGGA,194053.000,5229.6119,N,01319.4691,E,1,04,3.3,-18.2,M,44.8,M,,0000*4F
$GPGSA,A,3,17,11,01,20,,,,,,,,,6.4,3.3,5.4*34
$GPRMC,194053.000,A,5229.6119,N,01319.4691,E,1.34,120.82,080912,,,A*6A
$GPGGA,194054.000,5229.6117,N,01319.4697,E,1,04,3.3,-20.6,M,44.8,M,,0000*4F
$GPGSA,A,3,17,11,01,20,,,,,,,,,6.4,3.3,5.4*34
$GPRMC,194054.000,A,5229.6117,N,01319.4697,E,1.49,147.66,080912,,,A*64
$GPGGA,194055.000,5229.6118,N,01319.4704,E,1,04,3.3,-22.6,M,44.8,M,,0000*48
$GPGSA,A,3,17,11,01,20,,,,,,,,,6.4,3.3,5.4*34
$GPRMC,194055.000,A,5229.6118,N,01319.4704,E,1.14,143.23,080912,,,A*6C
$GPGGA,194056.000,5229.6119,N,01319.4711,E,1,04,3.3,-24.1,M,44.8,M,,0000*4F
$GPGSA,A,3,17,11,01,20,,,,,,,,,6.4,3.3,5.4*34
$GPRMC,194056.000,A,5229.6119,N,01319.4711,E,1.04,117.29,080912,,,A*60
$GPGGA,194057.000,5229.6118,N,01319.4712,E,1,04,3.3,-25.7,M,44.8,M,,0000*4B
$GPGSA,A,3,17,11,01,20,,,,,,,,,6.4,3.3,5.4*34
$GPGSV,3,1,11,01,85,218,20,32,82,232,,11,63,164,22,20,49,251,22*79
$GPGSV,3,2,11,14,29,048,,17,27,311,25,19,15,174,,31,12,104,*77
$GPGSV,3,3,11,23,11,194,,28,09,274,25,22,03,071,*44
$GPRMC,194057.000,A,5229.6118,N,01319.4712,E,1.01,186.58,080912,,,A*68
$GPGGA,194058.000,5229.6115,N,01319.4708,E,1,04,3.3,-27.3,M,44.8,M,,0000*44
$GPGSA,A,3,17,11,01,20,,,,,,,,,6.4,3.3,5.4*34
$GPRMC,194058.000,A,5229.6115,N,01319.4708,E,1.67,210.08,080912,,,A*68
$GPGGA,194059.000,5229.6112,N,01319.4707,E,1,04,3.3,-29.1,M,44.8,M,,0000*41
$GPGSA,A,3,17,11,01,20,,,,,,,,,6.4,3.3,5.4*34
$GPRMC,194059.000,A,5229.6112,N,01319.4707,E,1.49,190.51,080912,,,A*6A
$GPGGA,194100.000,5229.6112,N,01319.4709,E,1,04,3.3,-30.5,M,44.8,M,,0000*4E
$GPGSA,A,3,17,11,01,20,,,,,,,,,6.4,3.3,5.4*34
$GPRMC,194102.000,A,5229.6108,N,01319.4705,E,1.03,183.92,080912,,,A*6F
$GPGGA,194103.000,5229.6107,N,01319.4708,E,1,04,3.3,-34.1,M,44.8,M,,0000*48
$GPGSA,A,3,17,11,01,20,,,,,,,,,6.4,3.3,5.4*34
$GPRMC,194103.000,A,5229.6107,N,01319.4708,E,1.38,127.67,080912,,,A*60
$GPGGA,194104.000,5229.6106,N,01319.4711,E,1,04,3.3,-34.7,M,44.8,M,,0000*40
$GPGSA,A,3,17,11,01,20,,,,,,,,,6.4,3.3,5.4*34
$GPRMC,194104.000,A,5229.6106,N,01319.4711,E,1.35,118.13,080912,,,A*6C
$GPGGA,194105.000,5229.6103,N,01319.4712,E,1,04,3.3,-34.9,M,44.8,M,,0000*49
$GPGSA,A,3,17,11,01,20,,,,,,,,,6.4,3.3,5.4*34
$GPRMC,194105.000,A,5229.6103,N,01319.4712,E,1.48,149.74,080912,,,A*64
$GPGGA,194106.000,5229.6102,N,01319.4715,E,1,04,3.3,-35.3,M,44.8,M,,0000*47
$GPGSA,A,3,17,11,01,20,,,,,,,,,6.4,3.3,5.4*34
$GPRMC,194106.000,A,5229.6102,N,01319.4715,E,1.11,128.05,080912,,,A*6C
$GPGGA,194107.000,5229.6102,N,01319.4717,E,1,04,3.3,-35.5,M,44.8,M,,0000*42
$GPGSA,A,3,17,11,01,20,,,,,,,,,6.4,3.3,5.4*34
$GPGSV,3,1,11,01,85,218,21,32,82,232,,11,63,164,21,20,49,251,22*7B
$GPGSV,3,2,11,14,29,048,,17,27,311,27,19,15,174,,31,12,104,*75
$GPGSV,3,3,11,23,11,194,,28,09,274,21,22,03,071,*40
$GPRMC,194109.000,A,5229.6103,N,01319.4718,E,0.97,100.06,080912,,,A*69
$GPGGA,194110.000,5229.6107,N,01319.4726,E,1,04,3.3,-35.2,M,44.8,M,,0000*44
$GPGSA,A,3,17,11,01,20,,,,,,,,,6.4,3.3,5.4*34
$GPRMC,194110.000,A,5229.6107,N,01319.4726,E,2.36,69.26,080912,,,A*5D
$GPGGA,194111.000,5229.6112,N,01319.4736,E,1,04,3.3,-34.9,M,44.8,M,,0000*4A
$GPGSA,A,3,17,11,01,20,,,,,,,,,6.4,3.3,5.4*34
$GPRMC,194111.000,A,5229.6112,N,01319.4736,E,2.62,63.98,080912,,,A*57
$GPGGA,194112.000,5229.6117,N,01319.4744,E,1,04,3.3,-34.8,M,44.8,M,,0000*48
$GPGSA,A,3,17,11,01,20,,,,,,,,,6.4,3.3,5.4*34
$GPGSV,3,1,11,01,85,218,21,32,82,232,,11,63,164,20,20,49,251,22*7A
$GPGSV,3,2,11,14,29,048,,17,27,311,27,19,15,174,,31,12,104,*75
$GPGSV,3,3,11,23,11,194,,28,09,274,19,22,03,071,*4B
$GPRMC,194112.000,A,5229.6117,N,01319.4744,E,2.32,54.78,080912,,,A*5B
$GPGGA,194113.000,5229.6120,N,01319.4753,E,1,04,3.3,-34.9,M,44.8,M,,0000*4A
$GPGSA,A,3,17,11,01,20,,,,,,,,,6.4,3.3,5.4*34
$GPRMC,194113.000,A,5229.6120,N,01319.4753,E,1.86,68.16,080912,,,A*53
$GPGGA,194114.000,5229.6122,N,01319.4766,E,1,04,3.3,-35.0,M,44.8,M,,0000*41
$GPGSA,A,3,17,11,01,20,,,,,,,,,6.4,3.3,5.4*34
$GPRMC,194114.000,A,5229.6122,N,01319.4766,E,2.81,85.43,080912,,,A*57
$GPGGA,194115.000,5229.6121,N,01319.4782,E,1,04,3.3,-35.2,M,44.8,M,,0000*4B
$GPGSA,A,3,17,11,01,20,,,,,,,,,6.4,3.3,5.4*34
$GPRMC,194115.000,A,5229.6121,N,01319.4782,E,3.11,96.80,080912,,,A*5A
$GPGGA,194116.000,5229.6121,N,01319.4804,E,1,04,3.3,-35.5,M,44.8,M,,0000*4E
$GPGSA,A,3,17,11,01,20,,,,,,,,,6.4,3.3,5.4*34
$GPRMC,194116.000,A,5229.6121,N,01319.4804,E,4.01,91.62,080912,,,A*55
$GPGGA,194117.000,5229.6121,N,01319.4826,E,0,00,,-35.9,M,44.8,M,,0000*68
$GPGSA,A,1,,,,,,,,,,,,,,,*1E
$GPGSV,3,1,11,01,85,218,16,32,82,232,,11,63,164,19,20,49,251,22*74
$GPGSV,3,2,11,14,29,048,,17,27,311,27,19,15,174,,31,12,104,*75
$GPGSV,3,3,11,23,11,194,,28,09,274,20,22,03,071,*41
$GPRMC,194119.000,A,5229.6120,N,01319.4890,E,7.87,95.10,080912,,,A*5A
$GPGGA,194120.000,5229.6121,N,01319.4937,E,1,04,3.3,-37.1,M,44.8,M,,0000*4C
$GPGSA,A,3,17,11,01,20,,,,,,,,,6.4,3.3,5.4*34
$GPRMC,194120.000,A,5229.6121,N,01319.4937,E,8.69,90.15,080912,,,A*52
$GPGGA,194121.000,5229.6125,N,01319.4993,E,1,03,3.0,-37.0,M,44.8,M,,0000*42
$GPGSA,A,2,17,01,20,,,,,,,,,,3.1,3.0,1.0*36
$GPRMC,194121.000,A,5229.6125,N,01319.4993,E,10.42,86.53,080912,,,A*6C
$GPGGA,194122.000,5229.6127,N,01319.5048,E,1,03,3.0,-36.7,M,44.8,M,,0000*4B
$GPGSA,A,2,17,01,20,,,,,,,,,,3.1,3.0,1.0*36
$GPGSV,3,1,11,01,85,218,14,32,82,232,,11,63,164,12,20,49,251,23*7C
$GPGSV,3,2,11,14,29,048,,17,27,311,28,19,15,174,,31,12,104,*7A
$GPGSV,3,3,11,23,11,194,,28,09,274,19,22,03,071,*4B
$GPRMC,194122.000,A,5229.6127,N,01319.5048,E,10.30,89.80,080912,,,A*67
$GPGGA,194123.000,5229.6133,N,01319.5110,E,1,03,3.0,-36.3,M,44.8,M,,0000*47
$GPGSA,A,2,17,01,20,,,,,,,,,,3.1,3.0,1.0*36
$GPRMC,194123.000,A,5229.6133,N,01319.5110,E,11.35,85.15,080912,,,A*6B
$GPGGA,194124.000,5229.6138,N,01319.5171,E,1,03,3.0,-35.8,M,44.8,M,,0000*44
$GPGSA,A,2,17,01,20,,,,,,,,,,3.1,3.0,1.0*36
$GPRMC,194124.000,A,5229.6138,N,01319.5171,E,11.15,86.50,080912,,,A*60
$GPGGA,194125.000,5229.6142,N,01319.5232,E,1,03,3.0,-35.3,M,44.8,M,,0000*47
$GPGSA,A,2,17,01,20,,,,,,,,,,3.1,3.0,1.0*36
$GPRMC,194125.000,A,5229.6142,N,01319.5232,E,10.97,88.17,080912,,,A*6E
$GPGGA,194126.000,5229.6146,N,01319.5295,E,1,03,3.0,-34.7,M,44.8,M,,0000*48
$GPGSA,A,2,17,01,20,,,,,,,,,,3.1,3.0,1.0*36
$GPRMC,194126.000,A,5229.6146,N,01319.5295,E,11.22,89.39,080912,,,A*66
$GPGGA,194127.000,5229.6153,N,01319.5360,E,1,03,3.0,-34.1,M,44.8,M,,0000*40
$GPGSA,A,2,17,01,20,,,,,,,,,,3.1,3.0,1.0*36
$GPGSV,3,1,11,01,85,218,13,32,82,232,,11,63,164,,20,49,251,23*78
$GPGSV,3,2,11,14,29,048,,17,27,311,28,19,15,174,,31,12,104,*7A
$GPGSV,3,3,11,23,11,194,,28,09,274,18,22,03,071,*4A
$GPRMC,194127.000,A,5229.6153,N,01319.5360,E,11.44,84.85,080912,,,A*62
$GPGGA,194128.000,5229.6160,N,01319.5424,E,1,03,3.0,-33.5,M,44.8,M,,0000*4B
$GPGSA,A,2,17,01,20,,,,,,,,,,3.1,3.0,1.0*36
$GPRMC,194128.000,A,5229.6160,N,01319.5424,E,11.54,82.28,080912,,,A*6A
$GPGGA,194129.000,5229.6167,N,01319.5493,E,1,03,3.0,-32.8,M,44.8,M,,0000*4D
$GPGSA,A,2,17,01,20,,,,,,,,,,3.1,3.0,1.0*36
$GPRMC,194129.000,A,5229.6167,N,01319.5493,E,12.27,83.05,080912,,,A*69
$GPGGA,194130.000,5229.6174,N,01319.5562,E,1,03,3.0,-32.2,M,44.8,M,,0000*42
$GPGSA,A,2,17,01,20,,,,,,,,,,3.1,3.0,1.0*36
$GPRMC,194130.000,A,5229.6174,N,01319.5562,E,12.31,83.86,080912,,,A*60
$GPGGA,194131.000,5229.6179,N,01319.5629,E,1,03,3.0,-31.5,M,44.8,M,,0000*46
$GPGSA,A,2,17,01,20,,,,,,,,,,3.1,3.0,1.0*36
$GPRMC,194131.000,A,5229.6179,N,01319.5629,E,11.99,84.83,080912,,,A*63
$GPGGA,194132.000,5229.6186,N,01319.5695,E,1,03,3.0,-31.0,M,44.8,M,,0000*47
$GPGSA,A,2,17,01,20,,,,,,,,,,3.1,3.0,1.0*36
$GPGSV,3,1,11,01,85,218,12,32,82,232,,11,63,164,,20,49,251,23*79
$GPGSV,3,2,11,14,29,048,,17,27,311,29,19,15,174,,31,12,104,*7B
$GPGSV,3,3,11,23,11,194,,28,09,274,19,22,03,071,*4B
$GPRMC,194132.000,A,5229.6186,N,01319.5695,E,12.29,82.87,080912,,,A*6D
$GPGGA,194133.000,5229.6192,N,01319.5761,E,0,00,,-30.4,M,44.8,M,,0000*63
$GPGSA,A,1,,,,,,,,,,,,,,,*1E
$GPRMC,194229.000,A,5229.6422,N,01319.8581,E,4.68,226.24,080912,,,A*63
$GPGGA,194230.000,5229.6395,N,01319.8258,E,1,04,1.5,-14.8,M,44.8,M,,0000*41
$GPGSA,A,3,17,11,14,20,,,,,,,,,1.8,1.5,1.0*3F
$GPRMC,194230.000,A,5229.6395,N,01319.8258,E,3.28,234.62,080912,,,A*61
$GPGGA,194231.000,5229.6376,N,01319.7961,E,1,04,2.7,-8.6,M,44.8,M,,0000*71
$GPGSA,A,3,17,11,01,14,,,,,,,,,5.4,2.7,4.7*37
$GPRMC,194231.000,A,5229.6376,N,01319.7961,E,2.29,243.27,080912,,,A*62
$GPGGA,194232.000,5229.6365,N,01319.7690,E,1,04,3.3,-0.5,M,44.8,M,,0000*7F
$GPGSA,A,3,17,11,01,20,,,,,,,,,6.3,3.3,5.4*33
$GPGSV,3,1,11,01,85,199,16,32,83,231,,11,62,163,20,20,50,252,14*7E
$GPGSV,3,2,11,17,28,310,21,14,28,047,12,19,14,174,,31,13,103,*77
$GPGSV,3,3,11,23,12,195,,28,09,273,21,22,02,071,*44
$GPRMC,194232.000,A,5229.6365,N,01319.7690,E,1.31,268.85,080912,,,A*69
$GPGGA,194233.000,5229.6360,N,01319.7438,E,1,05,2.5,6.9,M,44.8,M,,0000*5A
$GPGSA,A,3,17,11,32,01,14,,,,,,,,4.6,2.5,3.8*3F
$GPRMC,194233.000,A,5229.6360,N,01319.7438,E,2.13,305.52,080912,,,A*6E
$GPGGA,194234.000,5229.6353,N,01319.7205,E,1,06,2.1,13.3,M,44.8,M,,0000*6C
$GPGSA,A,3,17,11,32,01,14,20,,,,,,,4.0,2.1,3.4*33
$GPRMC,194234.000,A,5229.6353,N,01319.7205,E,1.68,290.63,080912,,,A*61
$GPGGA,194235.000,5229.6350,N,01319.6993,E,1,06,2.1,19.2,M,44.8,M,,0000*60
$GPGSA,A,3,17,11,32,01,14,20,,,,,,,4.0,2.1,3.4*33
$GPRMC,194235.000,A,5229.6350,N,01319.6993,E,1.89,327.03,080912,,,A*62
$GPGGA,194236.000,5229.6347,N,01319.6797,E,1,05,2.4,24.5,M,44.8,M,,0000*60
$GPGSA,A,3,17,11,01,14,20,,,,,,,,4.9,2.4,4.3*3E
$GPRMC,194236.000,A,5229.6347,N,01319.6797,E,1.99,332.02,080912,,,A*69
