$GPGGA,143600.000,5230.1021,N,01320.4687,E,1,05,2.2,-5.0,M,44.8,M,,0000*72
$GPGSA,A,3,18,21,06,07,16,,,,,,,,3.7,2.2,3.0*39
$GPGSV,3,1,12,06,67,285,26,16,62,235,22,21,51,069,23,03,49,289,*77
$GPGSV,3,2,12,18,48,119,24,30,39,193,,22,27,168,21,19,21,285,*7E
$GPGSV,3,3,12,07,15,320,30,15,09,067,24,26,08,032,32,08,01,353,27*74
$GPRMC,143600.000,A,5230.1021,N,01320.4687,E,2.09,7.24,110912,,,A*65
$GPGGA,143601.000,5230.1032,N,01320.4694,E,1,04,2.7,-4.2,M,44.8,M,,0000*74
$GPGSA,A,3,18,21,06,07,,,,,,,,,4.0,2.7,3.0*3B
$GPRMC,143601.000,A,5230.1032,N,01320.4694,E,1.15,21.18,110912,,,A*51
$GPGGA,143602.000,5230.1039,N,01320.4698,E,1,04,2.7,-3.1,M,44.8,M,,0000*74
$GPGSA,A,3,18,21,06,07,,,,,,,,,4.0,2.7,3.0*3B
$GPRMC,143605.000,A,5230.1043,N,01320.4686,E,1.09,253.94,110912,,,A*6E
$GPGGA,143606.000,5230.1042,N,01320.4678,E,1,05,2.6,-0.8,M,44.8,M,,0000*78
$GPGSA,A,3,18,21,03,06,07,,,,,,,,3.9,2.6,3.0*37
$GPRMC,143606.000,A,5230.1042,N,01320.4678,E,0.90,265.58,110912,,,A*69
$GPGGA,143607.000,5230.1039,N,01320.4672,E,1,05,2.6,-0.4,M,44.8,M,,0000*73
$GPGSA,A,3,18,21,03,06,07,,,,,,,,3.9,2.6,3.0*37
$GPRMC,143611.000,A,5230.1021,N,01320.4648,E,1.36,200.33,110912,,,A*6A
$GPGGA,143612.000,5230.1014,N,01320.4642,E,1,05,2.6,-2.4,M,44.8,M,,0000*79
$GPGSA,A,3,18,21,03,06,07,,,,,,,,3.9,2.6,3.0*37
$GPRMC,143612.000,A,5230.1014,N,01320.4642,E,1.44,199.50,110912,,,A*66
$GPGGA,143613.000,5230.1009,N,01320.4637,E,1,04,2.6,-2.7,M,44.8,M,,0000*74
$GPGSA,A,3,21,03,06,07,,,,,,,,,2.8,2.6,1.0*3C
$GPRMC,143614.000,A,5230.1003,N,01320.4635,E,1.34,187.46,110912,,,A*69
$GPGGA,143615.000,5230.0998,N,01320.4633,E,1,05,2.6,-3.1,M,44.8,M,,0000*70
$GPGSA,A,3,18,21,03,06,07,,,,,,,,3.9,2.6,3.0*37
$GPGSV,3,1,12,06,67,285,20,16,62,235,18,21,51,069,32,03,49,289,22*78
$GPGSV,3,2,12,18,48,119,20,30,39,193,25,22,27,168,27,19,21,285,22*7B
$GPGSV,3,3,12,07,15,320,22,15,09,067,24,26,08,032,34,08,01,353,26*70
$GPRMC,143615.000,A,5230.0998,N,01320.4633,E,1.40,186.39,110912,,,A*6E
$GPGGA,143616.000,5230.0994,N,01320.4631,E,1,05,2.6,-3.3,M,44.8,M,,0000*7F
$GPGSA,A,3,18,21,03,06,07,,,,,,,,3.9,2.6,3.0*37
$GPRMC,143616.000,A,5230.0994,N,01320.4631,E,1.07,196.21,110912,,,A*68
$GPGGA,143617.000,5230.0991,N,01320.4630,E,1,05,2.6,-3.2,M,44.8,M,,0000*7B
$GPGSA,A,3,18,21,03,06,07,,,,,,,,3.9,2.6,3.0*37
$GPRMC,143617.000,A,5230.0991,N,01320.4630,E,1.11,195.44,110912,,,A*6A
$GPGGA,143618.000,5230.0989,N,01320.4629,E,1,05,2.6,-2.7,M,44.8,M,,0000*71
$GPGSA,A,3,18,21,03,06,07,,,,,,,,3.9,2.6,3.0*37
$GPRMC,143618.000,A,5230.0989,N,01320.4629,E,1.14,200.38,110912,,,A*65
$GPGGA,143619.000,5230.0988,N,01320.4629,E,1,05,2.6,-2.0,M,44.8,M,,0000*76
$GPGSA,A,3,18,21,03,06,07,,,,,,,,3.9,2.6,3.0*37
$GPRMC,143622.000,A,5230.1002,N,01320.4634,E,1.01,3.47,110912,,,A*66
$GPGGA,143623.000,5230.1009,N,01320.4637,E,1,06,2.1,4.3,M,44.8,M,,0000*5D
$GPGSA,A,3,18,21,03,06,07,16,,,,,,,3.6,2.1,2.9*30
$GPRMC,143623.000,A,5230.1009,N,01320.4637,E,1.26,358.16,110912,,,A*63
$GPGGA,143624.000,5230.1017,N,01320.4639,E,1,06,2.1,6.7,M,44.8,M,,0000*5D
$GPGSA,A,3,18,21,03,06,07,16,,,,,,,3.6,2.1,2.9*30
$GPRMC,143624.000,A,5230.1017,N,01320.4639,E,1.09,358.18,110912,,,A*66
$GPGGA,143625.000,5230.1025,N,01320.4642,E,1,06,2.1,9.4,M,44.8,M,,0000*5D
$GPGSA,A,3,18,21,03,06,07,16,,,,,,,3.6,2.1,2.9*30
$GPGSV,3,1,12,06,67,285,19,16,62,235,19,21,51,069,34,03,49,289,23*74
$GPGSV,3,2,12,18,48,119,24,30,39,193,20,22,27,168,21,19,21,285,21*7F
$GPGSV,3,3,12,07,15,320,26,15,09,067,32,26,08,032,18,08,01,353,23*78
$GPRMC,143625.000,A,5230.1025,N,01320.4642,E,1.04,358.93,110912,,,A*64
$GPGGA,143626.000,5230.1035,N,01320.4647,E,1,06,2.1,12.0,M,44.8,M,,0000*64
$GPGSA,A,3,18,21,03,06,07,16,,,,,,,3.6,2.1,2.9*30
$GPRMC,143626.000,A,5230.1035,N,01320.4647,E,1.76,15.54,110912,,,A*57
$GPGGA,143627.000,5230.1046,N,01320.4650,E,1,06,2.1,15.1,M,44.8,M,,0000*61
$GPGSA,A,3,18,21,03,06,07,16,,,,,,,3.6,2.1,2.9*30
$GPRMC,143627.000,A,5230.1046,N,01320.4650,E,2.23,10.04,110912,,,A*57
$GPGGA,143628.000,5230.1058,N,01320.4652,E,1,06,2.1,18.6,M,44.8,M,,0000*69
$GPGSA,A,3,18,21,03,06,07,16,,,,,,,3.6,2.1,2.9*30
$GPRMC,143628.000,A,5230.1058,N,01320.4652,E,2.00,355.31,110912,,,A*60
$GPGGA,143629.000,5230.1069,N,01320.4652,E,1,06,2.1,22.4,M,44.8,M,,0000*61
$GPGSA,A,3,18,21,03,06,07,16,,,,,,,3.6,2.1,2.9*30
$GPRMC,143629.000,A,5230.1069,N,01320.4652,E,1.86,352.36,110912,,,A*6E
$GPGGA,143630.000,5230.1082,N,01320.4654,E,1,06,2.1,26.3,M,44.8,M,,0000*69
$GPGSA,A,3,18,21,03,06,07,16,,,,,,,3.6,2.1,2.9*30
$GPGSV,3,1,12,06,67,285,20,16,62,235,21,21,51,069,34,03,49,289,22*74
$GPGSV,3,2,12,18,48,119,24,30,39,193,14,22,27,168,20,19,21,285,*7A
$GPGSV,3,3,12,07,15,320,27,15,09,067,33,26,08,032,24,08,01,353,23*77
$GPRMC,143630.000,A,5230.1082,N,01320.4654,E,2.29,1.68,110912,,,A*6D
$GPGGA,143631.000,5230.1094,N,01320.4654,E,1,06,2.1,30.4,M,44.8,M,,0000*6F
$GPGSA,A,3,18,21,03,06,07,16,,,,,,,3.6,2.1,2.9*30
$GPRMC,143631.000,A,5230.1094,N,01320.4654,E,2.18,356.67,110912,,,A*67
$GPGGA,143632.000,5230.1107,N,01320.4653,E,1,06,2.1,34.8,M,44.8,M,,0000*68
$GPGSA,A,3,18,21,03,06,07,16,,,,,,,3.6,2.1,2.9*30
$GPRMC,143632.000,A,5230.1107,N,01320.4653,E,2.38,352.20,110912,,,A*6D
$GPGGA,143633.000,5230.1118,N,01320.4652,E,1,06,2.1,38.9,M,44.8,M,,0000*6B
$GPGSA,A,3,18,21,03,06,07,16,,,,,,,3.6,2.1,2.9*30
$GPRMC,143633.000,A,5230.1118,N,01320.4652,E,1.95,344.08,110912,,,A*6A
$GPGGA,143634.000,5230.1127,N,01320.4652,E,1,06,2.1,42.7,M,44.8,M,,0000*63
$GPGSA,A,3,18,21,03,06,07,16,,,,,,,3.6,2.1,2.9*30
$GPRMC,143634.000,A,5230.1127,N,01320.4652,E,1.52,344.25,110912,,,A*65
$GPGGA,143635.000,5230.1134,N,01320.4651,E,1,06,2.1,45.9,M,44.8,M,,0000*6A
$GPGSA,A,3,18,21,03,06,07,16,,,,,,,3.6,2.1,2.9*30
$GPGSV,3,1,12,06,67,285,21,16,62,235,21,21,51,069,30,03,49,289,20*73
$GPGSV,3,2,12,18,48,119,25,30,39,193,23,22,27,168,21,19,21,285,24*78
$GPGSV,3,3,12,07,15,320,27,15,09,067,33,26,08,032,29,08,01,353,24*7D
$GPRMC,143635.000,A,5230.1134,N,01320.4651,E,1.31,341.09,110912,,,A*6B
$GPGGA,143636.000,5230.1142,N,01320.4652,E,1,04,3.6,48.9,M,44.8,M,,0000*62
$GPGSA,A,3,21,06,07,16,,,,,,,,,6.1,3.6,4.9*38
$GPRMC,143636.000,A,5230.1142,N,01320.4652,E,1.63,355.28,110912,,,A*6B
$GPGGA,143637.000,5230.1152,N,01320.4654,E,1,04,3.6,51.7,M,44.8,M,,0000*62
$GPGSA,A,3,21,06,07,16,,,,,,,,,6.1,3.6,4.9*38
$GPRMC,143637.000,A,5230.1152,N,01320.4654,E,2.85,6.17,110912,,,A*6F
$GPGGA,143638.000,5230.1160,N,01320.4654,E,1,05,3.4,54.3,M,44.8,M,,0000*6E
$GPGSA,A,3,21,03,06,07,16,,,,,,,,5.6,3.4,4.5*31
$GPRMC,143638.000,A,5230.1160,N,01320.4654,E,2.23,356.62,110912,,,A*69
$GPGGA,143639.000,5230.1166,N,01320.4653,E,1,03,2.9,56.3,M,44.8,M,,0000*66
$GPGSA,A,2,21,06,07,,,,,,,,,,3.1,2.9,1.0*39
$GPRMC,143639.000,A,5230.1166,N,01320.4653,E,1.75,345.65,110912,,,A*6C
$GPGGA,143640.000,5230.1172,N,01320.4656,E,1,04,2.6,58.3,M,44.8,M,,0000*6E
$GPGSA,A,3,21,03,06,07,,,,,,,,,2.8,2.6,1.0*3C
$GPGSV,3,1,12,06,67,285,20,16,62,235,08,21,51,069,26,03,49,289,15*78
$GPGSV,3,2,12,18,48,119,18,30,39,193,23,22,27,168,20,19,21,285,15*75
$GPGSV,3,3,12,07,15,320,20,15,09,067,32,26,08,032,27,08,01,353,25*74
$GPRMC,143640.000,A,5230.1172,N,01320.4656,E,1.65,4.57,110912,,,A*64
$GPGGA,143641.000,5230.1180,N,01320.4661,E,1,03,3.0,60.1,M,44.8,M,,0000*6F
$GPGSA,A,2,21,06,07,,,,,,,,,,3.1,3.0,1.0*31
$GPRMC,143641.000,A,5230.1180,N,01320.4661,E,2.16,16.34,110912,,,A*5D
$GPGGA,143642.000,5230.1188,N,01320.4670,E,1,04,2.7,61.7,M,44.8,M,,0000*62
$GPGSA,A,3,18,21,06,07,,,,,,,,,4.1,2.7,3.0*3A
$GPRMC,143642.000,A,5230.1188,N,01320.4670,E,2.81,26.29,110912,,,A*57
$GPGGA,143643.000,5230.1198,N,01320.4684,E,1,05,2.6,63.1,M,44.8,M,,0000*6D
$GPGSA,A,3,18,21,03,06,07,,,,,,,,3.9,2.6,3.0*37
$GPRMC,143643.000,A,5230.1198,N,01320.4684,E,3.76,33.64,110912,,,A*58
$GPGGA,143644.000,5230.1206,N,01320.4693,E,1,05,2.6,64.4,M,44.8,M,,0000*6A
$GPGSA,A,3,18,21,03,06,07,,,,,,,,3.9,2.6,3.0*37
$GPRMC,143644.000,A,5230.1206,N,01320.4693,E,2.63,29.45,110912,,,A*50
$GPGGA,143645.000,5230.1211,N,01320.4700,E,1,04,2.8,65.1,M,44.8,M,,0000*6D
$GPGSA,A,3,18,21,06,07,,,,,,,,,4.1,2.8,3.0*35
$GPGSV,3,1,12,06,67,285,21,16,62,235,,21,51,069,26,03,49,289,16*72
$GPGSV,3,2,12,18,48,119,26,30,39,193,24,22,27,168,20,19,21,285,14*7E
$GPGSV,3,3,12,07,15,320,26,15,09,067,25,26,08,032,31,08,01,353,27*71
$GPRMC,143645.000,A,5230.1211,N,01320.4700,E,2.05,26.87,110912,,,A*5D
$GPGGA,143646.000,5230.1218,N,01320.4706,E,1,05,2.6,65.6,M,44.8,M,,0000*69
$GPGSA,A,3,18,21,03,06,07,,,,,,,,3.9,2.6,3.0*37
$GPRMC,143646.000,A,5230.1218,N,01320.4706,E,2.50,14.80,110912,,,A*57
$GPGGA,143647.000,5230.1221,N,01320.4707,E,1,05,2.2,66.0,M,44.8,M,,0000*62
$GPGSA,A,3,18,21,06,07,16,,,,,,,,3.7,2.2,3.0*39
$GPRMC,143647.000,A,5230.1221,N,01320.4707,E,1.52,1.49,110912,,,A*6D
$GPGGA,143648.000,5230.1224,N,01320.4708,E,1,06,2.1,66.2,M,44.8,M,,0000*65
$GPGSA,A,3,18,21,03,06,07,16,,,,,,,3.6,2.1,2.9*30
$GPRMC,143648.000,A,5230.1224,N,01320.4708,E,1.21,1.46,110912,,,A*63
$GPGGA,143649.000,5230.1225,N,01320.4706,E,1,05,2.3,66.4,M,44.8,M,,0000*6C
$GPGSA,A,3,18,21,03,07,16,,,,,,,,4.3,2.3,3.6*38
$GPRMC,143649.000,A,5230.1225,N,01320.4706,E,0.97,346.15,110912,,,A*67
$GPGGA,143650.000,5230.1228,N,01320.4703,E,1,06,2.1,67.1,M,44.8,M,,0000*69
$GPGSA,A,3,18,21,03,06,07,16,,,,,,,3.6,2.1,2.9*30
$GPGSV,3,1,12,06,67,285,12,16,62,235,15,21,51,069,21,03,49,289,17*70
$GPGSV,3,2,12,18,48,119,16,30,39,193,20,22,27,168,19,19,21,285,*76
$GPGSV,3,3,12,07,15,320,19,15,09,067,33,26,08,032,26,08,01,353,23*78
$GPRMC,143650.000,A,5230.1228,N,01320.4703,E,1.31,333.89,110912,,,A*6D
$GPGGA,143651.000,5230.1233,N,01320.4703,E,1,06,2.1,67.7,M,44.8,M,,0000*64
$GPGSA,A,3,18,21,03,06,07,16,,,,,,,3.6,2.1,2.9*30
$GPRMC,143651.000,A,5230.1233,N,01320.4703,E,1.44,348.65,110912,,,A*6A
$GPGGA,143652.000,5230.1236,N,01320.4704,E,1,05,2.6,68.2,M,44.8,M,,0000*6B
$GPGSA,A,3,18,21,03,06,07,,,,,,,,4.0,2.6,3.0*39
$GPRMC,143652.000,A,5230.1236,N,01320.4704,E,1.01,352.98,110912,,,A*63
$GPGGA,143653.000,5230.1239,N,01320.4705,E,1,04,2.7,68.6,M,44.8,M,,0000*60
$GPGSA,A,3,18,21,03,07,,,,,,,,,4.6,2.7,3.7*3F
$GPRMC,143654.000,A,5230.1241,N,01320.4711,E,1.05,44.72,110912,,,A*55
$GPGGA,143655.000,5230.1244,N,01320.4718,E,1,04,2.8,70.0,M,44.8,M,,0000*60
$GPGSA,A,3,18,21,06,07,,,,,,,,,4.1,2.8,3.0*35
$GPGSV,3,1,12,06,67,285,19,16,62,235,17,21,51,069,25,03,49,289,17*7D
$GPGSV,3,2,12,18,48,119,23,30,39,193,16,22,27,168,19,19,21,285,*75
$GPGSV,3,3,12,07,15,320,24,15,09,067,26,26,08,032,22,08,01,353,24*71
$GPRMC,143655.000,A,5230.1244,N,01320.4718,E,1.33,37.53,110912,,,A*5A
$GPGGA,143656.000,5230.1247,N,01320.4727,E,1,04,3.3,70.8,M,44.8,M,,0000*6E
$GPGSA,A,3,18,03,06,07,,,,,,,,,3.5,3.3,1.0*3E
$GPRMC,143656.000,A,5230.1247,N,01320.4727,E,1.78,54.86,110912,,,A*54
$GPGGA,143657.000,5230.1248,N,01320.4734,E,1,04,3.3,71.4,M,44.8,M,,0000*6F
$GPGSA,A,3,18,03,06,07,,,,,,,,,3.5,3.3,1.0*3E
$GPRMC,143657.000,A,5230.1248,N,01320.4734,E,0.96,51.22,110912,,,A*52
$GPGGA,143658.000,5230.1250,N,01320.4743,E,1,04,3.3,71.9,M,44.8,M,,0000*64
$GPGSA,A,3,18,03,06,07,,,,,,,,,3.5,3.3,1.0*3E
$GPRMC,143658.000,A,5230.1250,N,01320.4743,E,1.58,54.40,110912,,,A*56
$GPGGA,143659.000,5230.1251,N,01320.4744,E,1,03,4.4,72.2,M,44.8,M,,0000*6C
$GPGSA,A,2,18,06,07,,,,,,,,,,4.5,4.4,1.0*3B
$GPRMC,143700.000,A,5230.1249,N,01320.4740,E,1.50,253.91,110912,,,A*60
$GPGGA,143701.000,5230.1244,N,01320.4740,E,1,04,2.8,72.6,M,44.8,M,,0000*69
$GPGSA,A,3,18,21,06,07,,,,,,,,,4.1,2.8,3.0*35
$GPRMC,143701.000,A,5230.1244,N,01320.4740,E,1.71,204.64,110912,,,A*67
$GPGGA,143702.000,5230.1240,N,01320.4743,E,1,03,3.2,72.7,M,44.8,M,,0000*60
$GPGSA,A,2,18,21,07,,,,,,,,,,3.4,3.2,1.0*39
$GPRMC,143702.000,A,5230.1240,N,01320.4743,E,1.35,170.92,110912,,,A*6A
$GPGGA,143703.000,5230.1242,N,01320.4749,E,1,03,3.2,73.4,M,44.8,M,,0000*6B
$GPGSA,A,2,18,21,07,,,,,,,,,,3.4,3.2,1.0*39
$GPRMC,143705.000,A,5230.1254,N,01320.4756,E,2.52,345.67,110912,,,A*60
$GPGGA,143706.000,5230.1264,N,01320.4760,E,1,03,3.2,75.9,M,44.8,M,,0000*6A
$GPGSA,A,2,18,21,07,,,,,,,,,,3.4,3.2,1.0*39
$GPRMC,143706.000,A,5230.1264,N,01320.4760,E,2.67,353.30,110912,,,A*66
$GPGGA,143707.000,5230.1271,N,01320.4766,E,1,03,3.2,76.8,M,44.8,M,,0000*6B
$GPGSA,A,2,18,21,07,,,,,,,,,,3.4,3.2,1.0*39
$GPRMC,143707.000,A,5230.1271,N,01320.4766,E,1.55,14.07,110912,,,A*53
$GPGGA,143708.000,5230.1270,N,01320.4774,E,1,04,2.7,77.5,M,44.8,M,,0000*69
$GPGSA,A,3,15,18,21,07,,,,,,,,,3.9,2.7,2.8*3E
$GPRMC,143708.000,A,5230.1270,N,01320.4774,E,1.12,146.69,110912,,,A*63
$GPGGA,143709.000,5230.1264,N,01320.4783,E,1,06,2.1,77.8,M,44.8,M,,0000*6C
$GPGSA,A,3,15,18,21,06,07,16,,,,,,,3.2,2.1,2.4*3E
$GPRMC,143709.000,A,5230.1264,N,01320.4783,E,2.77,169.17,110912,,,A*6B
$GPGGA,143710.000,5230.1259,N,01320.4792,E,1,04,2.6,78.1,M,44.8,M,,0000*69
$GPGSA,A,3,15,21,07,16,,,,,,,,,4.0,2.6,3.0*36
$GPGSV,3,1,12,06,67,285,16,16,62,235,16,21,51,069,24,03,49,289,*74
$GPGSV,3,2,12,18,48,119,17,30,39,193,21,22,27,168,19,19,21,285,14*73
$GPGSV,3,3,12,07,15,320,17,15,09,067,34,26,08,032,21,08,01,353,21*74
$GPRMC,143710.000,A,5230.1259,N,01320.4792,E,2.78,167.46,110912,,,A*68
$GPGGA,143711.000,5230.1256,N,01320.4800,E,1,05,2.2,78.4,M,44.8,M,,0000*63
$GPGSA,A,3,15,18,21,07,16,,,,,,,,3.6,2.2,2.8*33
$GPRMC,143711.000,A,5230.1256,N,01320.4800,E,2.21,170.35,110912,,,A*6C
$GPGGA,143712.000,5230.1253,N,01320.4808,E,1,04,2.6,78.7,M,44.8,M,,0000*6B
$GPGSA,A,3,15,21,07,16,,,,,,,,,4.0,2.6,3.0*36
$GPRMC,143712.000,A,5230.1253,N,01320.4808,E,2.17,174.90,110912,,,A*6C
$GPGGA,143713.000,5230.1252,N,01320.4815,E,1,04,2.6,79.1,M,44.8,M,,0000*60
$GPGSA,A,3,15,21,07,16,,,,,,,,,4.0,2.6,3.0*36
$GPRMC,143713.000,A,5230.1252,N,01320.4815,E,1.72,181.34,110912,,,A*64
$GPGGA,143714.000,5230.1252,N,01320.4822,E,1,05,2.2,79.5,M,44.8,M,,0000*62
$GPGSA,A,3,15,18,21,07,16,,,,,,,,3.6,2.2,2.8*33
$GPRMC,143714.000,A,5230.1252,N,01320.4822,E,1.11,177.19,110912,,,A*64
$GPGGA,143715.000,5230.1255,N,01320.4831,E,1,04,2.6,79.9,M,44.8,M,,0000*6F
$GPGSA,A,3,15,21,07,16,,,,,,,,,4.0,2.6,3.0*36
$GPGSV,3,1,12,06,67,285,16,16,62,235,14,21,51,069,26,03,49,289,*74
$GPGSV,3,2,12,18,48,119,16,30,39,193,22,22,27,168,19,19,21,285,14*71
$GPGSV,3,3,12,07,15,320,17,15,09,067,35,26,08,032,19,08,01,353,21*7E
$GPRMC,143717.000,A,5230.1257,N,01320.4848,E,1.22,162.24,110912,,,A*64
$GPGGA,143718.000,5230.1252,N,01320.4852,E,1,05,2.2,80.2,M,44.8,M,,0000*68
$GPGSA,A,3,15,18,21,07,16,,,,,,,,3.6,2.2,2.8*33
$GPRMC,143718.000,A,5230.1252,N,01320.4852,E,2.43,179.38,110912,,,A*66
$GPGGA,143719.000,5230.1246,N,01320.4858,E,1,04,2.7,79.8,M,44.8,M,,0000*6E
$GPGSA,A,3,15,18,21,07,,,,,,,,,3.9,2.7,2.8*3E
$GPRMC,143719.000,A,5230.1246,N,01320.4858,E,2.18,174.22,110912,,,A*60
$GPGGA,143720.000,5230.1241,N,01320.4862,E,1,04,2.7,79.3,M,44.8,M,,0000*61
$GPGSA,A,3,15,18,21,07,,,,,,,,,3.9,2.7,2.8*3E
$GPGSV,3,1,12,06,67,285,16,16,62,235,15,21,51,069,27,03,49,289,17*72
$GPGSV,3,2,12,18,48,119,16,30,39,193,16,22,27,168,20,19,21,285,15*7D
$GPGSV,3,3,12,07,15,320,18,15,09,067,36,26,08,032,22,08,01,353,21*7A
$GPRMC,143720.000,A,5230.1241,N,01320.4862,E,1.70,177.45,110912,,,A*6B
$GPGGA,143721.000,5230.1240,N,01320.4864,E,1,03,6.4,78.7,M,44.8,M,,0000*62
$GPGSA,A,2,15,21,07,,,,,,,,,,6.5,6.4,1.0*33
$GPRMC,143724.000,A,5230.1239,N,01320.4868,E,1.09,193.68,110912,,,A*61
$GPGGA,143725.000,5230.1234,N,01320.4871,E,1,05,2.6,75.1,M,44.8,M,,0000*6A
$GPGSA,A,3,15,21,03,07,16,,,,,,,,3.8,2.6,2.8*33
$GPGSV,3,1,12,06,67,285,15,16,62,235,16,21,51,069,27,03,49,289,17*72
$GPGSV,3,2,12,18,48,119,18,30,39,193,16,22,27,168,20,19,21,285,16*70
$GPGSV,3,3,12,07,15,320,19,15,09,067,33,26,08,032,17,08,01,353,20*79
$GPRMC,143725.000,A,5230.1234,N,01320.4871,E,1.83,178.73,110912,,,A*68
$GPGGA,143726.000,5230.1230,N,01320.4875,E,1,04,2.6,73.8,M,44.8,M,,0000*67
$GPGSA,A,3,15,21,07,16,,,,,,,,,4.0,2.6,3.0*36
$GPRMC,143726.000,A,5230.1230,N,01320.4875,E,1.51,173.67,110912,,,A*6A
$GPGGA,143727.000,5230.1229,N,01320.4878,E,1,07,2.1,72.7,M,44.8,M,,0000*69
$GPGSA,A,3,15,18,21,03,06,07,16,,,,,,3.2,2.1,2.4*3D
$GPRMC,143727.000,A,5230.1229,N,01320.4878,E,0.97,174.11,110912,,,A*63
$GPGGA,143728.000,5230.1228,N,01320.4881,E,1,05,2.6,71.9,M,44.8,M,,0000*69
$GPGSA,A,3,15,21,03,07,16,,,,,,,,3.8,2.6,2.8*33
$GPRMC,143728.000,A,5230.1228,N,01320.4881,E,0.96,167.41,110912,,,A*6D
$GPGGA,143729.000,5230.1228,N,01320.4883,E,1,05,2.6,71.4,M,44.8,M,,0000*67
$GPGSA,A,3,15,21,03,07,16,,,,,,,,3.8,2.6,2.8*33
$GPRMC,143733.000,A,5230.1240,N,01320.4900,E,1.08,16.52,110912,,,A*52
$GPGGA,143734.000,5230.1246,N,01320.4907,E,1,05,2.2,74.0,M,44.8,M,,0000*6B
$GPGSA,A,3,15,18,21,07,16,,,,,,,,3.6,2.2,2.8*33
$GPRMC,143734.000,A,5230.1246,N,01320.4907,E,1.27,29.85,110912,,,A*5F
$GPGGA,143735.000,5230.1254,N,01320.4912,E,1,05,2.2,75.5,M,44.8,M,,0000*69
$GPGSA,A,3,15,18,21,07,16,,,,,,,,3.6,2.2,2.8*33
$GPGSV,3,1,12,06,67,285,17,16,62,235,15,21,51,069,24,03,49,289,16*71
$GPGSV,3,2,12,18,48,119,24,30,39,193,14,22,27,168,15,19,21,285,17*7A
$GPGSV,3,3,12,07,15,320,22,15,09,067,33,26,08,032,25,08,01,353,23*73
$GPRMC,143735.000,A,5230.1254,N,01320.4912,E,1.67,8.53,110912,,,A*65
$GPGGA,143736.000,5230.1263,N,01320.4917,E,1,05,2.2,77.2,M,44.8,M,,0000*6E
$GPGSA,A,3,15,18,21,07,16,,,,,,,,3.6,2.2,2.8*33
$GPRMC,143736.000,A,5230.1263,N,01320.4917,E,1.48,2.38,110912,,,A*6D
$GPGGA,143737.000,5230.1271,N,01320.4922,E,1,05,2.2,79.1,M,44.8,M,,0000*67
$GPGSA,A,3,15,18,21,07,16,,,,,,,,3.6,2.2,2.8*33
$GPRMC,143737.000,A,5230.1271,N,01320.4922,E,1.41,4.01,110912,,,A*6C
$GPGGA,143738.000,5230.1281,N,01320.4928,E,1,05,2.2,81.0,M,44.8,M,,0000*6B
$GPGSA,A,3,15,18,21,07,16,,,,,,,,3.6,2.2,2.8*33
$GPRMC,143738.000,A,5230.1281,N,01320.4928,E,1.89,12.55,110912,,,A*54
$GPGGA,143739.000,5230.1288,N,01320.4934,E,1,05,2.2,82.9,M,44.8,M,,0000*64
$GPGSA,A,3,15,18,21,07,16,,,,,,,,3.6,2.2,2.8*33
$GPRMC,143739.000,A,5230.1288,N,01320.4934,E,1.27,17.60,110912,,,A*56
$GPGGA,143740.000,5230.1295,N,01320.4937,E,1,05,2.2,84.4,M,44.8,M,,0000*6E
$GPGSA,A,3,15,18,21,07,16,,,,,,,,3.6,2.2,2.8*33
$GPGSV,3,1,12,06,67,285,16,16,62,235,14,21,51,069,30,03,49,289,16*74
$GPGSV,3,2,12,18,48,119,22,30,39,193,,22,27,168,15,19,21,285,16*78
$GPGSV,3,3,12,07,15,320,22,15,09,067,33,26,08,032,31,08,01,353,*77
$GPRMC,143740.000,A,5230.1295,N,01320.4937,E,1.30,353.31,110912,,,A*66
$GPGGA,143741.000,5230.1303,N,01320.4941,E,1,04,2.7,85.7,M,44.8,M,,0000*66
$GPGSA,A,3,15,18,21,07,,,,,,,,,3.9,2.7,2.8*3E
$GPRMC,143741.000,A,5230.1303,N,01320.4941,E,1.34,8.83,110912,,,A*68
$GPGGA,143742.000,5230.1310,N,01320.4944,E,1,05,2.2,86.6,M,44.8,M,,0000*64
$GPGSA,A,3,15,18,21,07,16,,,,,,,,3.6,2.2,2.8*33
$GPRMC,143742.000,A,5230.1310,N,01320.4944,E,1.82,3.74,110912,,,A*62
$GPGGA,143743.000,5230.1316,N,01320.4943,E,1,04,2.6,87.1,M,44.8,M,,0000*67
$GPGSA,A,3,15,21,07,16,,,,,,,,,4.0,2.6,3.0*36
$GPRMC,143743.000,A,5230.1316,N,01320.4943,E,1.72,348.83,110912,,,A*69
$GPGGA,143744.000,5230.1322,N,01320.4943,E,1,04,2.6,87.3,M,44.8,M,,0000*65
$GPGSA,A,3,15,21,07,16,,,,,,,,,4.0,2.6,3.0*36
$GPRMC,143744.000,A,5230.1322,N,01320.4943,E,1.49,347.37,110912,,,A*61
$GPGGA,143745.000,5230.1328,N,01320.4940,E,1,05,2.2,87.3,M,44.8,M,,0000*68
$GPGSA,A,3,15,18,21,07,16,,,,,,,,3.6,2.2,2.8*33
$GPGSV,3,1,12,06,67,285,14,16,62,235,13,21,51,069,33,03,49,289,16*72
$GPGSV,3,2,12,18,48,119,19,30,39,193,,22,27,168,15,19,21,285,14*72
$GPGSV,3,3,12,07,15,320,22,15,09,067,34,26,08,032,31,08,01,353,*70
$GPRMC,143745.000,A,5230.1328,N,01320.4940,E,1.74,342.02,110912,,,A*64
$GPGGA,143746.000,5230.1332,N,01320.4941,E,1,05,2.2,87.3,M,44.8,M,,0000*61
$GPGSA,A,3,15,18,21,07,16,,,,,,,,3.6,2.2,2.8*33
$GPRMC,143746.000,A,5230.1332,N,01320.4941,E,1.18,0.94,110912,,,A*6D
$GPGGA,143747.000,5230.1336,N,01320.4942,E,1,04,2.7,87.3,M,44.8,M,,0000*63
$GPGSA,A,3,15,18,21,07,,,,,,,,,3.9,2.7,2.8*3E
$GPRMC,143748.000,A,5230.1339,N,01320.4946,E,0.86,72.84,110912,,,A*5D
$GPGGA,143749.000,5230.1345,N,01320.4950,E,1,04,2.7,87.7,M,44.8,M,,0000*6E
$GPGSA,A,3,15,18,21,07,,,,,,,,,3.9,2.7,2.9*3F
$GPRMC,143749.000,A,5230.1345,N,01320.4950,E,1.03,49.11,110912,,,A*58
$GPGGA,143750.000,5230.1350,N,01320.4952,E,1,04,2.7,87.9,M,44.8,M,,0000*6E
$GPGSA,A,3,15,18,21,07,,,,,,,,,3.9,2.7,2.9*3F
$GPGSV,3,1,12,06,67,285,13,16,62,235,,21,51,069,34,03,49,289,15*73
$GPGSV,3,2,12,18,48,119,21,30,39,193,,22,27,168,17,19,21,285,*7E
$GPGSV,3,3,12,07,15,320,21,15,09,067,34,26,08,032,31,08,01,353,*73
$GPRMC,143750.000,A,5230.1350,N,01320.4952,E,0.82,43.54,110912,,,A*55
$GPGGA,143751.000,5230.1352,N,01320.4954,E,1,04,2.7,87.7,M,44.8,M,,0000*65
$GPGSA,A,3,15,18,21,07,,,,,,,,,3.9,2.7,2.9*3F
$GPRMC,143752.000,A,5230.1351,N,01320.4958,E,1.08,128.95,110912,,,A*6E
$GPGGA,143753.000,5230.1353,N,01320.4961,E,1,04,2.7,86.9,M,44.8,M,,0000*6F
$GPGSA,A,3,15,18,21,07,,,,,,,,,3.9,2.7,2.9*3F
$GPRMC,143753.000,A,5230.1353,N,01320.4961,E,0.86,96.88,110912,,,A*58
$GPGGA,143754.000,5230.1353,N,01320.4962,E,1,04,2.7,86.3,M,44.8,M,,0000*61
$GPGSA,A,3,15,18,21,07,,,,,,,,,3.9,2.7,2.9*3F
$GPRMC,143755.000,A,5230.1352,N,01320.4964,E,0.97,133.77,110912,,,A*64
$GPGGA,143756.000,5230.1350,N,01320.4966,E,1,04,2.7,84.9,M,44.8,M,,0000*6C
$GPGSA,A,3,15,18,21,07,,,,,,,,,3.9,2.7,2.9*3F
$GPRMC,143756.000,A,5230.1350,N,01320.4966,E,0.90,140.59,110912,,,A*68
$GPGGA,143757.000,5230.1348,N,01320.4968,E,1,03,6.2,84.1,M,44.8,M,,0000*64
$GPGSA,A,2,15,18,21,,,,,,,,,,6.3,6.2,1.0*3D
$GPRMC,143757.000,A,5230.1348,N,01320.4968,E,0.99,145.65,110912,,,A*6D
$GPGGA,143758.000,5230.1346,N,01320.4968,E,1,04,3.0,83.2,M,44.8,M,,0000*61
$GPGSA,A,3,15,18,21,16,,,,,,,,,4.2,3.0,3.0*3D
$GPRMC,143800.000,A,5230.1339,N,01320.4966,E,1.05,193.99,110912,,,A*64
$GPGGA,143801.000,5230.1338,N,01320.4966,E,1,05,2.2,80.4,M,44.8,M,,0000*62
$GPGSA,A,3,15,18,21,07,16,,,,,,,,3.6,2.2,2.9*32
$GPRMC,143806.000,A,5230.1344,N,01320.4975,E,0.94,184.96,110912,,,A*6A
$GPGGA,143807.000,5230.1343,N,01320.4977,E,1,05,2.2,79.9,M,44.8,M,,0000*63
$GPGSA,A,3,15,18,21,07,16,,,,,,,,3.6,2.2,2.9*32
$GPRMC,143808.000,A,5230.1345,N,01320.4982,E,0.84,33.71,110912,,,A*58
$GPGGA,143809.000,5230.1348,N,01320.4987,E,1,03,6.3,80.3,M,44.8,M,,0000*66
$GPGSA,A,2,15,18,21,,,,,,,,,,6.3,6.3,1.0*3C
$GPRMC,143809.000,A,5230.1348,N,01320.4987,E,1.01,46.05,110912,,,A*5C
$GPGGA,143810.000,5230.1350,N,01320.4991,E,1,03,6.3,80.6,M,44.8,M,,0000*65
$GPGSA,A,2,15,18,21,,,,,,,,,,6.3,6.3,1.0*3C
$GPGSV,3,1,12,06,67,285,,16,62,235,19,21,51,069,25,03,49,289,16*7A
$GPGSV,3,2,12,18,48,119,23,30,39,193,24,22,27,168,23,19,21,285,18*74
$GPGSV,3,3,12,07,15,320,,15,09,067,32,26,08,032,26,08,01,353,23*71
$GPRMC,143815.000,A,5230.1343,N,01320.5001,E,1.15,330.86,110912,,,A*60
$GPGGA,143816.000,5230.1338,N,01320.5003,E,1,05,2.6,80.7,M,44.8,M,,0000*68
$GPGSA,A,3,15,18,21,03,07,,,,,,,,3.8,2.6,2.8*3D
$GPRMC,143817.000,A,5230.1331,N,01320.5006,E,1.64,182.98,110912,,,A*62
$GPGGA,143818.000,5230.1326,N,01320.5009,E,1,04,5.5,80.7,M,44.8,M,,0000*66
$GPGSA,A,3,15,21,03,07,,,,,,,,,6.7,5.5,3.9*3A
$GPRMC,143822.000,A,5230.1324,N,01320.5014,E,0.99,344.19,110912,,,A*61
$GPGGA,143823.000,5230.1322,N,01320.5012,E,1,06,2.5,79.0,M,44.8,M,,0000*64
$GPGSA,A,3,15,21,03,07,16,06,,,,,,,3.5,2.5,2.5*36
$GPRMC,143823.000,A,5230.1322,N,01320.5012,E,0.86,325.97,110912,,,A*6F
$GPGGA,143824.000,5230.1318,N,01320.5010,E,1,05,2.5,78.0,M,44.8,M,,0000*6A
$GPGSA,A,3,15,21,03,07,16,,,,,,,,3.8,2.5,2.8*30
$GPRMC,143828.000,A,5230.1292,N,01320.5003,E,2.21,171.21,110912,,,A*6F
$GPGGA,143829.000,5230.1283,N,01320.5000,E,1,05,2.5,71.7,M,44.8,M,,0000*6B
$GPGSA,A,3,15,21,03,07,16,,,,,,,,3.8,2.5,2.8*30
$GPRMC,143829.000,A,5230.1283,N,01320.5000,E,1.84,183.82,110912,,,A*65
$GPGGA,143830.000,5230.1276,N,01320.4995,E,1,05,2.5,70.4,M,44.8,M,,0000*6F
$GPGSA,A,3,15,21,03,07,16,,,,,,,,3.8,2.5,2.8*30
$GPGSV,3,1,12,06,68,285,14,16,61,232,22,03,50,289,21,21,50,069,28*7C
$GPGSV,3,2,12,18,48,118,17,30,38,193,15,22,28,167,21,19,22,286,14*7F
$GPGSV,3,3,12,07,15,319,26,15,10,066,37,26,08,031,32,08,02,353,25*70
$GPRMC,143830.000,A,5230.1276,N,01320.4995,E,1.60,198.06,110912,,,A*6F
$GPGGA,143831.000,5230.1271,N,01320.4990,E,1,05,2.5,69.2,M,44.8,M,,0000*62
$GPGSA,A,3,15,21,03,07,16,,,,,,,,3.8,2.5,2.8*30
$GPRMC,143831.000,A,5230.1271,N,01320.4990,E,1.04,205.48,110912,,,A*63
$GPGGA,143832.000,5230.1268,N,01320.4986,E,1,05,2.5,68.1,M,44.8,M,,0000*6C
$GPGSA,A,3,15,21,03,07,16,,,,,,,,3.8,2.5,2.8*30
$GPRMC,143832.000,A,5230.1268,N,01320.4986,E,0.91,210.38,110912,,,A*61
$GPGGA,143833.000,5230.1267,N,01320.4982,E,1,05,2.5,67.1,M,44.8,M,,0000*69
$GPGSA,A,3,15,21,03,07,16,,,,,,,,3.8,2.5,2.8*30
$GPRMC,143840.000,A,5230.1288,N,01320.4979,E,1.08,16.25,110912,,,A*53
$GPGGA,143841.000,5230.1296,N,01320.4980,E,1,06,2.2,69.8,M,44.8,M,,0000*63
$GPGSA,A,3,15,18,21,03,07,16,,,,,,,3.5,2.2,2.7*3C
$GPRMC,143841.000,A,5230.1296,N,01320.4980,E,1.23,14.83,110912,,,A*5C
$GPGGA,143842.000,5230.1305,N,01320.4983,E,1,05,2.7,71.1,M,44.8,M,,0000*6E
$GPGSA,A,3,15,18,21,03,07,,,,,,,,3.9,2.7,2.8*3D
$GPRMC,143842.000,A,5230.1305,N,01320.4983,E,1.54,24.29,110912,,,A*54
$GPGGA,143843.000,5230.1313,N,01320.4989,E,1,05,2.7,72.5,M,44.8,M,,0000*65
$GPGSA,A,3,15,18,21,03,07,,,,,,,,3.9,2.7,2.8*3D
$GPRMC,143843.000,A,5230.1313,N,01320.4989,E,1.80,53.93,110912,,,A*50
$GPGGA,143844.000,5230.1322,N,01320.4989,E,1,04,5.6,73.7,M,44.8,M,,0000*64
$GPGSA,A,3,15,21,03,07,,,,,,,,,6.8,5.6,3.9*36
$GPRMC,143844.000,A,5230.1322,N,01320.4989,E,1.39,7.21,110912,,,A*6F
$GPGGA,143845.000,5230.1329,N,01320.4989,E,1,04,5.6,74.7,M,44.8,M,,0000*69
$GPGSA,A,3,15,21,03,07,,,,,,,,,6.8,5.6,3.9*36
$GPGSV,3,1,12,06,68,285,15,16,61,232,18,03,50,289,21,21,50,069,24*78
$GPGSV,3,2,12,18,48,118,19,30,38,193,22,22,28,167,16,19,22,286,16*73
$GPGSV,3,3,12,07,15,319,27,15,10,066,31,26,08,031,28,08,02,353,24*7D
$GPRMC,143845.000,A,5230.1329,N,01320.4989,E,1.05,5.30,110912,,,A*68
$GPGGA,143846.000,5230.1335,N,01320.4987,E,1,05,2.5,75.5,M,44.8,M,,0000*6F
$GPGSA,A,3,15,21,03,07,16,,,,,,,,3.8,2.5,2.8*30
$GPRMC,143853.000,A,5230.1346,N,01320.4964,E,1.14,347.60,110912,,,A*65
$GPGGA,143854.000,5230.1347,N,01320.4960,E,1,07,2.1,70.6,M,44.8,M,,0000*60
$GPGSA,A,3,15,18,21,03,07,16,06,,,,,,3.2,2.1,2.4*3D
$GPRMC,143856.000,A,5230.1346,N,01320.4949,E,1.31,211.60,110912,,,A*6A
$GPGGA,143857.000,5230.1346,N,01320.4941,E,1,07,2.1,69.1,M,44.8,M,,0000*6E
$GPGSA,A,3,15,18,21,03,07,16,06,,,,,,3.2,2.1,2.4*3D
$GPRMC,143857.000,A,5230.1346,N,01320.4941,E,1.11,235.65,110912,,,A*62
$GPGGA,143858.000,5230.1347,N,01320.4934,E,1,07,2.1,68.5,M,44.8,M,,0000*67
$GPGSA,A,3,15,18,21,03,07,16,06,,,,,,3.2,2.1,2.4*3D
$GPRMC,143858.000,A,5230.1347,N,01320.4934,E,1.17,241.88,110912,,,A*68
$GPGGA,143859.000,5230.1352,N,01320.4927,E,1,06,2.2,68.2,M,44.8,M,,0000*65
$GPGSA,A,3,15,18,21,03,07,16,,,,,,,3.5,2.2,2.7*3C
$GPRMC,143859.000,A,5230.1352,N,01320.4927,E,1.17,319.22,110912,,,A*63
$GPGGA,143900.000,5230.1358,N,01320.4920,E,1,06,2.2,67.9,M,44.8,M,,0000*61
$GPGSA,A,3,15,18,21,03,07,16,,,,,,,3.5,2.2,2.7*3C
$GPGSV,3,1,12,06,68,285,18,16,61,232,18,03,50,289,20,21,50,069,24*74
$GPGSV,3,2,12,18,48,118,20,30,38,193,21,22,28,167,19,19,22,286,17*74
$GPGSV,3,3,12,07,15,319,19,15,10,066,29,26,08,031,34,08,02,353,24*74
$GPRMC,143900.000,A,5230.1358,N,01320.4920,E,1.59,316.10,110912,,,A*67
$GPGGA,143901.000,5230.1362,N,01320.4911,E,1,06,2.2,67.4,M,44.8,M,,0000*66
$GPGSA,A,3,15,18,21,03,07,16,,,,,,,3.5,2.2,2.7*3C
$GPRMC,143901.000,A,5230.1362,N,01320.4911,E,1.45,297.26,110912,,,A*6D
$GPGGA,143902.000,5230.1366,N,01320.4902,E,1,05,2.7,66.8,M,44.8,M,,0000*68
$GPGSA,A,3,15,18,21,03,07,,,,,,,,3.9,2.7,2.8*3D
$GPRMC,143902.000,A,5230.1366,N,01320.4902,E,1.56,298.03,110912,,,A*62
$GPGGA,143903.000,5230.1371,N,01320.4897,E,1,05,2.7,66.2,M,44.8,M,,0000*68
$GPGSA,A,3,15,18,21,03,07,,,,,,,,3.9,2.7,2.8*3D
$GPRMC,143903.000,A,5230.1371,N,01320.4897,E,1.06,327.14,110912,,,A*6E
$GPGGA,143904.000,5230.1373,N,01320.4895,E,1,04,5.6,65.1,M,44.8,M,,0000*68
$GPGSA,A,3,15,21,03,07,,,,,,,,,6.9,5.6,4.0*39
$GPRMC,143905.000,A,5230.1376,N,01320.4900,E,1.83,60.39,110912,,,A*52
$GPGGA,143906.000,5230.1376,N,01320.4905,E,1,05,2.7,62.8,M,44.8,M,,0000*6E
$GPGSA,A,3,15,18,21,03,07,,,,,,,,3.9,2.7,2.8*3D
$GPRMC,143906.000,A,5230.1376,N,01320.4905,E,1.76,104.22,110912,,,A*67
$GPGGA,143907.000,5230.1370,N,01320.4903,E,1,05,2.7,61.3,M,44.8,M,,0000*67
$GPGSA,A,3,15,18,21,03,07,,,,,,,,3.9,2.7,2.8*3D
$GPRMC,143907.000,A,5230.1370,N,01320.4903,E,1.72,175.71,110912,,,A*62
$GPGGA,143908.000,5230.1366,N,01320.4899,E,1,07,2.1,60.0,M,44.8,M,,0000*6B
$GPGSA,A,3,15,18,21,03,07,16,06,,,,,,3.2,2.1,2.4*3D
$GPRMC,143908.000,A,5230.1366,N,01320.4899,E,1.72,192.67,110912,,,A*66
$GPGGA,143909.000,5230.1362,N,01320.4892,E,1,06,2.2,59.0,M,44.8,M,,0000*6D
$GPGSA,A,3,15,18,21,03,07,16,,,,,,,3.5,2.2,2.7*3C
$GPRMC,143909.000,A,5230.1362,N,01320.4892,E,1.59,216.97,110912,,,A*61
$GPGGA,143910.000,5230.1359,N,01320.4885,E,1,06,2.2,58.2,M,44.8,M,,0000*68
$GPGSA,A,3,15,18,21,03,16,06,,,,,,,3.6,2.2,2.8*31
$GPGSV,3,1,12,06,68,285,17,16,61,232,24,03,50,289,20,21,50,069,26*76
$GPGSV,3,2,12,18,48,118,22,30,38,193,23,22,28,167,07,19,22,286,*7D
$GPGSV,3,3,12,07,15,319,18,15,10,066,32,26,08,031,41,08,02,353,28*71
$GPRMC,143910.000,A,5230.1359,N,01320.4885,E,1.47,210.16,110912,,,A*67
$GPGGA,143911.000,5230.1358,N,01320.4880,E,1,07,2.1,57.7,M,44.8,M,,0000*65
$GPGSA,A,3,15,18,21,03,07,16,06,,,,,,3.2,2.1,2.4*3D
$GPRMC,143911.000,A,5230.1358,N,01320.4880,E,0.92,226.59,110912,,,A*65
$GPGGA,143912.000,5230.1358,N,01320.4875,E,1,07,2.1,57.4,M,44.8,M,,0000*6F
$GPGSA,A,3,15,18,21,03,07,16,06,,,,,,3.2,2.1,2.4*3D
$GPRMC,143913.000,A,5230.1359,N,01320.4869,E,1.17,281.62,110912,,,A*68
$GPGGA,143914.000,5230.1362,N,01320.4865,E,1,05,3.0,57.0,M,44.8,M,,0000*67
$GPGSA,A,3,15,21,03,16,06,,,,,,,,4.1,3.0,2.8*3B
$GPRMC,143914.000,A,5230.1362,N,01320.4865,E,1.24,319.45,110912,,,A*6E
$GPGGA,143915.000,5230.1361,N,01320.4861,E,1,04,3.1,56.9,M,44.8,M,,0000*69
$GPGSA,A,3,15,21,03,16,,,,,,,,,4.3,3.1,3.0*37
$GPGSV,3,1,12,06,68,285,18,16,61,232,23,03,50,289,20,21,50,069,23*7B
$GPGSV,3,2,12,18,48,118,08,30,38,193,23,22,28,167,22,19,22,286,23*73
$GPGSV,3,3,12,07,15,319,17,15,10,066,35,26,08,031,31,08,02,353,23*75
$GPRMC,143916.000,A,5230.1357,N,01320.4858,E,1.12,196.28,110912,,,A*6F
$GPGGA,143917.000,5230.1352,N,01320.4856,E,1,06,2.4,56.4,M,44.8,M,,0000*64
$GPGSA,A,3,15,21,03,07,16,06,,,,,,,3.5,2.4,2.5*37
$GPRMC,143917.000,A,5230.1352,N,01320.4856,E,1.53,187.78,110912,,,A*65
$GPGGA,143918.000,5230.1348,N,01320.4852,E,1,05,2.5,56.1,M,44.8,M,,0000*63
$GPGSA,A,3,15,21,03,07,16,,,,,,,,3.8,2.5,2.9*31
$GPRMC,143918.000,A,5230.1348,N,01320.4852,E,1.18,209.02,110912,,,A*62
$GPGGA,143919.000,5230.1342,N,01320.4847,E,1,06,2.4,55.6,M,44.8,M,,0000*6A
$GPGSA,A,3,15,21,03,07,16,06,,,,,,,3.5,2.4,2.5*37
$GPRMC,143919.000,A,5230.1342,N,01320.4847,E,1.89,202.84,110912,,,A*60
$GPGGA,143920.000,5230.1333,N,01320.4842,E,1,06,2.4,55.0,M,44.8,M,,0000*65
$GPGSA,A,3,15,21,03,07,16,06,,,,,,,3.5,2.4,2.5*37
$GPGSV,3,1,12,06,68,285,18,16,61,232,22,03,50,289,20,21,50,069,20*79
$GPGSV,3,2,12,18,48,118,,30,38,193,18,22,28,167,21,19,22,286,15*75
$GPGSV,3,3,12,07,15,319,20,15,10,066,23,26,08,031,26,08,02,353,23*70
$GPRMC,143920.000,A,5230.1333,N,01320.4842,E,2.28,194.20,110912,,,A*63
$GPGGA,143921.000,5230.1322,N,01320.4840,E,1,06,2.4,54.4,M,44.8,M,,0000*63
$GPGSA,A,3,15,21,03,07,16,06,,,,,,,3.5,2.4,2.5*37
$GPRMC,143921.000,A,5230.1322,N,01320.4840,E,2.80,176.14,110912,,,A*69
$GPGGA,143922.000,5230.1310,N,01320.4840,E,1,06,2.4,54.0,M,44.8,M,,0000*65
$GPGSA,A,3,15,21,03,07,16,06,,,,,,,3.5,2.4,2.5*37
$GPRMC,143922.000,A,5230.1310,N,01320.4840,E,3.42,175.89,110912,,,A*63
$GPGGA,143923.000,5230.1296,N,01320.4835,E,1,07,2.1,53.5,M,44.8,M,,0000*6F
$GPGSA,A,3,15,18,21,03,07,16,06,,,,,,3.2,2.1,2.4*3D
$GPRMC,143923.000,A,5230.1296,N,01320.4835,E,3.45,190.20,110912,,,A*60
$GPGGA,143924.000,5230.1283,N,01320.4830,E,1,07,2.1,52.7,M,44.8,M,,0000*6A
$GPGSA,A,3,15,18,21,03,07,16,06,,,,,,3.2,2.1,2.4*3D
$GPRMC,143924.000,A,5230.1283,N,01320.4830,E,3.09,195.38,110912,,,A*62
$GPGGA,143925.000,5230.1272,N,01320.4824,E,1,05,2.5,51.8,M,44.8,M,,0000*6A
$GPGSA,A,3,15,21,03,07,16,,,,,,,,3.8,2.5,2.9*31
$GPGSV,3,1,12,06,68,285,18,16,61,232,21,03,50,289,23,21,50,069,21*78
$GPGSV,3,2,12,18,48,118,18,30,38,193,18,22,28,167,21,19,22,286,18*71
$GPGSV,3,3,12,07,15,319,19,15,10,066,29,26,08,031,31,08,02,353,22*77
$GPRMC,143925.000,A,5230.1272,N,01320.4824,E,2.27,206.68,110912,,,A*69
$GPGGA,143926.000,5230.1259,N,01320.4817,E,1,07,2.1,50.4,M,44.8,M,,0000*6B
$GPGSA,A,3,15,18,21,03,07,16,06,,,,,,3.2,2.1,2.4*3D
$GPRMC,143926.000,A,5230.1259,N,01320.4817,E,2.42,202.38,110912,,,A*61
$GPGGA,143927.000,5230.1245,N,01320.4808,E,1,07,2.1,49.0,M,44.8,M,,0000*65
$GPGSA,A,3,15,18,21,03,07,16,06,,,,,,3.2,2.1,2.4*3D
$GPRMC,143927.000,A,5230.1245,N,01320.4808,E,2.89,210.50,110912,,,A*69
$GPGGA,143928.000,5230.1230,N,01320.4799,E,1,06,2.2,47.7,M,44.8,M,,0000*64
$GPGSA,A,3,15,18,21,03,07,16,,,,,,,3.5,2.2,2.7*3C
$GPRMC,143928.000,A,5230.1230,N,01320.4799,E,2.95,209.19,110912,,,A*6B
$GPGGA,143929.000,5230.1220,N,01320.4789,E,1,06,2.1,46.7,M,44.8,M,,0000*67
$GPGSA,A,3,18,21,03,07,16,06,,,,,,,3.6,2.1,2.9*30
$GPRMC,143929.000,A,5230.1220,N,01320.4789,E,2.17,225.99,110912,,,A*66
$GPGGA,143930.000,5230.1214,N,01320.4779,E,1,07,2.1,45.8,M,44.8,M,,0000*6A
$GPGSA,A,3,15,18,21,03,07,16,06,,,,,,3.2,2.1,2.4*3D
$GPGSV,3,1,12,06,68,285,23,16,61,232,20,03,50,289,25,21,50,069,21*77
$GPGSV,3,2,12,18,48,118,25,30,38,193,25,22,28,167,22,19,22,286,22*7B
$GPGSV,3,3,12,07,15,319,20,15,10,066,25,26,08,031,31,08,02,353,20*73
$GPRMC,143930.000,A,5230.1214,N,01320.4779,E,1.40,265.32,110912,,,A*62
$GPGGA,143931.000,5230.1208,N,01320.4771,E,1,07,2.1,45.2,M,44.8,M,,0000*64
$GPGSA,A,3,15,18,21,03,07,16,06,,,,,,3.2,2.1,2.4*3D
$GPRMC,143931.000,A,5230.1208,N,01320.4771,E,1.19,236.00,110912,,,A*6D
$GPGGA,143932.000,5230.1201,N,01320.4761,E,1,07,2.1,44.9,M,44.8,M,,0000*65
$GPGSA,A,3,15,18,21,03,07,16,06,,,,,,3.2,2.1,2.4*3D
$GPRMC,143932.000,A,5230.1201,N,01320.4761,E,1.90,233.93,110912,,,A*68
$GPGGA,143933.000,5230.1194,N,01320.4755,E,1,07,2.1,44.8,M,44.8,M,,0000*6D
$GPGSA,A,3,15,18,21,03,07,16,06,,,,,,3.2,2.1,2.4*3D
$GPRMC,143933.000,A,5230.1194,N,01320.4755,E,1.66,208.61,110912,,,A*6D
$GPGGA,143934.000,5230.1191,N,01320.4748,E,1,07,2.1,44.8,M,44.8,M,,0000*63
$GPGSA,A,3,15,18,21,03,07,16,06,,,,,,3.2,2.1,2.4*3D
$GPRMC,143934.000,A,5230.1191,N,01320.4748,E,0.88,242.44,110912,,,A*6B
$GPGGA,143935.000,5230.1189,N,01320.4738,E,1,07,2.1,44.9,M,44.8,M,,0000*6D
$GPGSA,A,3,15,18,21,03,07,16,06,,,,,,3.2,2.1,2.4*3D
$GPGSV,3,1,12,06,68,285,21,16,61,232,21,03,50,289,24,21,50,069,22*76
$GPGSV,3,2,12,18,48,118,24,30,38,193,24,22,28,167,22,19,22,286,24*7D
$GPGSV,3,3,12,07,15,319,19,15,10,066,26,26,08,031,21,08,02,353,18*70
$GPRMC,143935.000,A,5230.1189,N,01320.4738,E,1.60,265.59,110912,,,A*6A
$GPGGA,143936.000,5230.1185,N,01320.4729,E,1,07,2.1,44.9,M,44.8,M,,0000*62
$GPGSA,A,3,15,18,21,03,07,16,06,,,,,,3.2,2.1,2.4*3D
$GPRMC,143936.000,A,5230.1185,N,01320.4729,E,1.41,245.48,110912,,,A*64
$GPGGA,143937.000,5230.1180,N,01320.4721,E,1,07,2.1,45.1,M,44.8,M,,0000*67
$GPGSA,A,3,15,18,21,03,07,16,06,,,,,,3.2,2.1,2.4*3D
$GPRMC,143937.000,A,5230.1180,N,01320.4721,E,1.74,217.19,110912,,,A*6D
$GPGGA,143938.000,5230.1179,N,01320.4713,E,1,07,2.1,45.4,M,44.8,M,,0000*6A
$GPGSA,A,3,15,18,21,03,07,16,06,,,,,,3.2,2.1,2.4*3D
$GPRMC,143939.000,A,5230.1176,N,01320.4705,E,0.87,216.83,110912,,,A*63
$GPGGA,143940.000,5230.1170,N,01320.4697,E,1,07,2.1,45.9,M,44.8,M,,0000*6C
$GPGSA,A,3,15,18,21,03,07,16,06,,,,,,3.2,2.1,2.4*3D
$GPGSV,3,1,12,06,68,285,21,16,61,232,26,03,50,289,24,21,50,069,21*72
$GPGSV,3,2,12,18,48,118,20,30,38,193,22,22,28,167,21,19,22,286,23*7B
$GPGSV,3,3,12,07,15,319,20,15,10,066,19,26,08,031,19,08,02,353,14*71
$GPRMC,143940.000,A,5230.1170,N,01320.4697,E,1.51,199.85,110912,,,A*69
$GPGGA,143941.000,5230.1166,N,01320.4689,E,1,07,2.1,46.2,M,44.8,M,,0000*6D
$GPGSA,A,3,15,18,21,03,07,16,06,,,,,,3.2,2.1,2.4*3D
$GPRMC,143941.000,A,5230.1166,N,01320.4689,E,0.93,219.23,110912,,,A*68
$GPGGA,143942.000,5230.1161,N,01320.4683,E,1,07,2.1,46.5,M,44.8,M,,0000*64
$GPGSA,A,3,15,18,21,03,07,16,06,,,,,,3.2,2.1,2.4*3D
$GPRMC,143942.000,A,5230.1161,N,01320.4683,E,1.16,190.46,110912,,,A*6B
$GPGGA,143943.000,5230.1156,N,01320.4678,E,1,07,2.1,46.9,M,44.8,M,,0000*69
$GPGSA,A,3,15,18,21,03,07,16,06,,,,,,3.2,2.1,2.4*3D
$GPRMC,143943.000,A,5230.1156,N,01320.4678,E,1.10,178.14,110912,,,A*6D
$GPGGA,143944.000,5230.1153,N,01320.4674,E,1,06,3.2,47.6,M,44.8,M,,0000*6A
$GPGSA,A,3,15,18,03,07,16,06,,,,,,,4.9,3.2,3.8*3D
$GPRMC,143950.000,A,5230.1151,N,01320.4647,E,0.87,353.83,110912,,,A*6E
$GPGGA,143951.000,5230.1152,N,01320.4645,E,1,06,2.2,56.3,M,44.8,M,,0000*69
$GPGSA,A,3,15,18,21,03,16,06,,,,,,,3.6,2.2,2.8*31
$GPRMC,143955.000,A,5230.1149,N,01320.4638,E,1.04,151.93,110912,,,A*61
$GPGGA,143956.000,5230.1145,N,01320.4636,E,1,06,2.2,61.5,M,44.8,M,,0000*6E
$GPGSA,A,3,15,18,21,03,16,06,,,,,,,3.6,2.2,2.8*31
$GPRMC,143956.000,A,5230.1145,N,01320.4636,E,1.09,155.49,110912,,,A*6E
$GPGGA,143957.000,5230.1140,N,01320.4634,E,1,06,2.2,62.1,M,44.8,M,,0000*6F
$GPGSA,A,3,15,18,21,03,16,06,,,,,,,3.6,2.2,2.8*31
$GPRMC,143957.000,A,5230.1140,N,01320.4634,E,1.66,166.78,110912,,,A*63
$GPGGA,143958.000,5230.1134,N,01320.4630,E,1,06,2.2,62.4,M,44.8,M,,0000*62
$GPGSA,A,3,15,18,21,03,16,06,,,,,,,3.6,2.2,2.8*31
$GPRMC,143958.000,A,5230.1134,N,01320.4630,E,1.35,173.86,110912,,,A*68
$GPGGA,143959.000,5230.1133,N,01320.4625,E,1,04,4.0,62.5,M,44.8,M,,0000*67
$GPGSA,A,3,15,03,16,06,,,,,,,,,7.2,4.0,6.0*33
$GPRMC,144000.000,A,5230.1136,N,01320.4620,E,1.36,351.54,110912,,,A*66
$GPGGA,144001.000,5230.1137,N,01320.4614,E,1,05,3.5,63.5,M,44.8,M,,0000*60
$GPGSA,A,3,15,18,03,16,06,,,,,,,,6.0,3.5,4.9*30
$GPRMC,144001.000,A,5230.1137,N,01320.4614,E,1.06,305.26,110912,,,A*66
$GPGGA,144002.000,5230.1138,N,01320.4611,E,1,05,3.5,63.7,M,44.8,M,,0000*6B
$GPGSA,A,3,15,18,03,16,06,,,,,,,,6.0,3.5,4.9*30
$GPRMC,144005.000,A,5230.1128,N,01320.4595,E,0.94,220.77,110912,,,A*6E
$GPGGA,144006.000,5230.1123,N,01320.4589,E,1,07,2.1,60.6,M,44.8,M,,0000*62
$GPGSA,A,3,15,18,21,03,07,16,06,,,,,,3.2,2.1,2.4*3D
$GPRMC,144006.000,A,5230.1123,N,01320.4589,E,1.47,208.09,110912,,,A*67
$GPGGA,144007.000,5230.1119,N,01320.4585,E,1,07,2.1,59.7,M,44.8,M,,0000*6D
$GPGSA,A,3,15,18,21,03,07,16,06,,,,,,3.2,2.1,2.4*3D
$GPRMC,144007.000,A,5230.1119,N,01320.4585,E,0.94,197.85,110912,,,A*6D
$GPGGA,144008.000,5230.1113,N,01320.4582,E,1,07,2.1,58.8,M,44.8,M,,0000*61
$GPGSA,A,3,15,18,21,03,07,16,06,,,,,,3.2,2.1,2.4*3D
$GPRMC,144008.000,A,5230.1113,N,01320.4582,E,1.30,192.90,110912,,,A*61
$GPGGA,144009.000,5230.1108,N,01320.4579,E,1,07,2.1,57.9,M,44.8,M,,0000*60
$GPGSA,A,3,15,18,21,03,07,16,06,,,,,,3.2,2.1,2.4*3D
$GPRMC,144009.000,A,5230.1108,N,01320.4579,E,1.02,207.83,110912,,,A*62
$GPGGA,144010.000,5230.1104,N,01320.4576,E,1,07,2.1,57.0,M,44.8,M,,0000*62
$GPGSA,A,3,15,18,21,03,07,16,06,,,,,,3.2,2.1,2.4*3D
$GPGSV,3,1,12,06,68,285,25,16,61,232,25,03,50,289,27,21,50,069,24*73
$GPGSV,3,2,12,18,48,118,28,30,38,193,18,22,28,167,19,19,22,286,20*72
$GPGSV,3,3,12,07,15,319,23,15,10,066,24,26,08,031,18,08,02,353,15*7C
$GPRMC,144010.000,A,5230.1104,N,01320.4576,E,0.87,227.87,110912,,,A*63
$GPGGA,144011.000,5230.1100,N,01320.4573,E,1,07,2.1,56.1,M,44.8,M,,0000*62
$GPGSA,A,3,15,18,21,03,07,16,06,,,,,,3.2,2.1,2.4*3D
$GPRMC,144011.000,A,5230.1100,N,01320.4573,E,0.81,217.61,110912,,,A*6E
$GPGGA,144012.000,5230.1096,N,01320.4574,E,1,07,2.1,55.2,M,44.8,M,,0000*68
$GPGSA,A,3,15,18,21,03,07,16,06,,,,,,3.2,2.1,2.4*3D
$GPRMC,144015.000,A,5230.1095,N,01320.4570,E,1.20,287.11,110912,,,A*60
$GPGGA,144016.000,5230.1097,N,01320.4569,E,1,05,2.3,53.5,M,44.8,M,,0000*60
$GPGSA,A,3,15,18,21,03,16,,,,,,,,3.9,2.3,3.1*31
$GPRMC,144016.000,A,5230.1097,N,01320.4569,E,0.86,331.50,110912,,,A*6D
$GPGGA,144017.000,5230.1100,N,01320.4575,E,1,04,2.1,53.9,M,44.8,M,,0000*6C
$GPGSA,A,3,18,21,03,16,,,,,,,,,2.4,2.1,1.0*38
$GPRMC,144017.000,A,5230.1100,N,01320.4575,E,1.46,39.02,110912,,,A*5F
$GPGGA,144018.000,5230.1099,N,01320.4581,E,1,04,2.1,54.1,M,44.8,M,,0000*66
$GPGSA,A,3,18,21,03,16,,,,,,,,,2.4,2.1,1.0*38
$GPRMC,144018.000,A,5230.1099,N,01320.4581,E,1.21,103.39,110912,,,A*6B
$GPGGA,144019.000,5230.1101,N,01320.4586,E,1,04,2.1,54.1,M,44.8,M,,0000*60
$GPGSA,A,3,18,21,03,16,,,,,,,,,2.4,2.1,1.0*38
$GPRMC,144019.000,A,5230.1101,N,01320.4586,E,1.13,53.36,110912,,,A*57
$GPGGA,144020.000,5230.1101,N,01320.4587,E,1,04,2.1,54.1,M,44.8,M,,0000*6B
$GPGSA,A,3,18,21,03,16,,,,,,,,,2.4,2.1,1.0*38
$GPGSV,3,1,12,06,68,285,16,16,61,232,19,03,50,289,23,21,50,069,19*76
$GPGSV,3,2,12,18,48,118,22,30,38,193,14,22,28,167,20,19,22,286,*7C
$GPGSV,3,3,12,07,15,319,18,15,10,066,17,26,08,031,17,08,02,353,14*7A
$GPRMC,144036.000,A,5230.1059,N,01320.4596,E,0.98,29.76,110912,,,A*5C
$GPGGA,144037.000,5230.1062,N,01320.4603,E,1,07,2.1,59.9,M,44.8,M,,0000*60
$GPGSA,A,3,15,18,21,03,07,16,06,,,,,,3.2,2.1,2.4*3D
$GPRMC,144037.000,A,5230.1062,N,01320.4603,E,1.35,27.91,110912,,,A*5B
$GPGGA,144038.000,5230.1067,N,01320.4609,E,1,07,2.1,61.2,M,44.8,M,,0000*60
$GPGSA,A,3,15,18,21,03,07,16,06,,,,,,3.2,2.1,2.4*3D
$GPRMC,144038.000,A,5230.1067,N,01320.4609,E,1.08,28.55,110912,,,A*52
$GPGGA,144039.000,5230.1072,N,01320.4613,E,1,07,2.1,62.3,M,44.8,M,,0000*6C
$GPGSA,A,3,15,18,21,03,07,16,06,,,,,,3.2,2.1,2.4*3D
$GPRMC,144039.000,A,5230.1072,N,01320.4613,E,1.23,10.22,110912,,,A*5E
$GPGGA,144040.000,5230.1079,N,01320.4615,E,1,06,2.2,63.6,M,44.8,M,,0000*69
$GPGSA,A,3,15,18,21,03,16,06,,,,,,,3.6,2.2,2.8*31
$GPGSV,3,1,12,06,68,285,21,16,61,232,25,03,50,289,24,21,50,069,26*76
$GPGSV,3,2,12,18,48,118,25,30,38,193,23,22,28,167,19,19,22,286,*75
$GPGSV,3,3,12,07,15,319,18,15,10,066,23,26,08,031,16,08,02,353,*79
$GPRMC,144040.000,A,5230.1079,N,01320.4615,E,1.58,349.47,110912,,,A*6D
$GPGGA,144041.000,5230.1090,N,01320.4614,E,1,06,2.2,65.2,M,44.8,M,,0000*6C
$GPGSA,A,3,15,18,21,03,16,06,,,,,,,3.6,2.2,2.8*31
$GPRMC,144041.000,A,5230.1090,N,01320.4614,E,2.62,341.55,110912,,,A*6B
$GPGGA,144042.000,5230.1102,N,01320.4612,E,1,07,2.1,66.6,M,44.8,M,,0000*66
$GPGSA,A,3,15,18,21,03,07,16,06,,,,,,3.2,2.1,2.4*3D
$GPRMC,144042.000,A,5230.1102,N,01320.4612,E,2.87,343.98,110912,,,A*6C
$GPGGA,144043.000,5230.1110,N,01320.4611,E,1,07,2.1,67.7,M,44.8,M,,0000*67
$GPGSA,A,3,15,18,21,03,07,16,06,,,,,,3.2,2.1,2.4*3D
$GPRMC,144043.000,A,5230.1110,N,01320.4611,E,2.15,343.49,110912,,,A*6A
$GPGGA,144044.000,5230.1115,N,01320.4613,E,1,07,2.1,68.4,M,44.8,M,,0000*6B
$GPGSA,A,3,15,18,21,03,07,16,06,,,,,,3.2,2.1,2.4*3D
$GPRMC,144044.000,A,5230.1115,N,01320.4613,E,1.00,18.59,110912,,,A*51
$GPGGA,144045.000,5230.1117,N,01320.4616,E,1,06,2.2,68.7,M,44.8,M,,0000*6C
$GPGSA,A,3,15,18,21,03,16,06,,,,,,,3.6,2.2,2.8*31
$GPGSV,3,1,12,06,68,285,28,16,61,232,20,03,50,289,32,21,50,069,22*79
$GPGSV,3,2,12,18,48,118,24,30,38,193,17,22,28,167,18,19,22,286,*72
$GPGSV,3,3,12,07,15,319,21,15,10,066,23,26,08,031,16,08,02,353,*73
$GPRMC,144046.000,A,5230.1121,N,01320.4616,E,1.14,14.08,110912,,,A*5C
$GPGGA,144047.000,5230.1126,N,01320.4617,E,1,07,2.1,69.3,M,44.8,M,,0000*6A
$GPGSA,A,3,15,18,21,03,07,16,06,,,,,,3.2,2.1,2.4*3D
$GPRMC,144047.000,A,5230.1126,N,01320.4617,E,1.25,11.56,110912,,,A*57
$GPGGA,144048.000,5230.1131,N,01320.4618,E,1,07,2.1,69.6,M,44.8,M,,0000*69
$GPGSA,A,3,15,18,21,03,07,16,06,,,,,,3.2,2.1,2.4*3D
$GPRMC,144048.000,A,5230.1131,N,01320.4618,E,1.11,36.85,110912,,,A*5D
$GPGGA,144049.000,5230.1131,N,01320.4619,E,1,07,2.1,69.5,M,44.8,M,,0000*6A
$GPGSA,A,3,15,18,21,03,07,16,06,,,,,,3.2,2.1,2.4*3D
$GPRMC,144050.000,A,5230.1129,N,01320.4617,E,0.95,187.13,110912,,,A*6B
$GPGGA,144051.000,5230.1125,N,01320.4612,E,1,07,2.1,69.1,M,44.8,M,,0000*69
$GPGSA,A,3,15,18,21,03,07,16,06,,,,,,3.2,2.1,2.4*3D
$GPRMC,144051.000,A,5230.1125,N,01320.4612,E,1.41,203.28,110912,,,A*6C
$GPGGA,144052.000,5230.1122,N,01320.4608,E,1,07,2.1,69.2,M,44.8,M,,0000*65
$GPGSA,A,3,15,18,21,03,07,16,06,,,,,,3.2,2.1,2.4*3D
$GPRMC,144052.000,A,5230.1122,N,01320.4608,E,1.46,207.02,110912,,,A*68
$GPGGA,144053.000,5230.1121,N,01320.4607,E,1,07,2.1,69.5,M,44.8,M,,0000*6F
$GPGSA,A,3,15,18,21,03,07,16,06,,,,,,3.2,2.1,2.4*3D
$GPRMC,144053.000,A,5230.1121,N,01320.4607,E,0.91,168.11,110912,,,A*66
$GPGGA,144054.000,5230.1120,N,01320.4608,E,1,07,2.1,69.9,M,44.8,M,,0000*6A
$GPGSA,A,3,15,18,21,03,07,16,06,,,,,,3.2,2.1,2.4*3D
$GPRMC,144055.000,A,5230.1117,N,01320.4607,E,1.09,182.30,110912,,,A*62
$GPGGA,144056.000,5230.1117,N,01320.4606,E,1,07,2.1,70.7,M,44.8,M,,0000*64
$GPGSA,A,3,15,18,21,03,07,16,06,,,,,,3.2,2.1,2.4*3D
$GPRMC,144057.000,A,5230.1115,N,01320.4605,E,1.10,189.49,110912,,,A*6D
$GPGGA,144058.000,5230.1113,N,01320.4600,E,1,06,2.1,71.4,M,44.8,M,,0000*6B
$GPGSA,A,3,18,21,03,07,16,06,,,,,,,3.6,2.1,2.9*30
$GPRMC,144058.000,A,5230.1113,N,01320.4600,E,1.28,224.91,110912,,,A*6B
$GPGGA,144059.000,5230.1110,N,01320.4595,E,1,04,2.9,71.6,M,44.8,M,,0000*6E
$GPGSA,A,3,18,21,03,06,,,,,,,,,8.6,2.9,8.1*31
$GPRMC,144059.000,A,5230.1110,N,01320.4595,E,1.86,220.25,110912,,,A*69
$GPGGA,144100.000,5230.1108,N,01320.4591,E,1,05,2.8,71.7,M,44.8,M,,0000*6F
$GPGSA,A,3,15,18,21,03,06,,,,,,,,4.2,2.8,3.2*34
$GPGSV,3,1,12,06,68,285,22,16,61,232,16,03,50,289,27,21,50,069,22*72
$GPGSV,3,2,12,18,48,118,35,30,38,193,17,22,28,167,17,19,22,286,17*7B
$GPGSV,3,3,12,07,15,319,19,15,10,066,13,26,08,031,23,08,02,353,*7D
$GPRMC,144100.000,A,5230.1108,N,01320.4591,E,1.01,226.92,110912,,,A*6C
$GPGGA,144101.000,5230.1102,N,01320.4588,E,1,05,2.8,71.4,M,44.8,M,,0000*6F
$GPGSA,A,3,15,18,21,03,06,,,,,,,,4.2,2.8,3.2*34
$GPRMC,144101.000,A,5230.1102,N,01320.4588,E,2.05,203.95,110912,,,A*68
$GPGGA,144102.000,5230.1095,N,01320.4588,E,1,05,2.8,71.0,M,44.8,M,,0000*67
$GPGSA,A,3,15,18,21,03,06,,,,,,,,4.2,2.8,3.2*34
$GPRMC,144102.000,A,5230.1095,N,01320.4588,E,1.74,181.37,110912,,,A*60
$GPGGA,144103.000,5230.1088,N,01320.4589,E,0,03,,70.5,M,44.8,M,,0000*4C
$GPGSA,A,1,18,03,06,,,,,,,,,,,,*12
$GPRMC,144104.000,A,5230.1079,N,01320.4591,E,2.68,176.19,110912,,,A*66
$GPGGA,144105.000,5230.1068,N,01320.4595,E,1,04,3.4,69.4,M,44.8,M,,0000*6F
$GPGSA,A,3,18,03,16,06,,,,,,,,,8.8,3.4,8.1*37
$GPGSV,3,1,12,06,68,285,14,16,61,232,17,03,50,289,22,21,50,069,13*71
$GPGSV,3,2,12,18,48,118,24,30,38,193,17,22,28,167,16,19,22,286,16*7B
$GPGSV,3,3,12,07,15,319,18,15,10,066,,26,08,031,,08,02,353,*7F
$GPRMC,144105.000,A,5230.1068,N,01320.4595,E,3.30,172.13,110912,,,A*61
$GPGGA,144106.000,5230.1060,N,01320.4598,E,1,05,3.0,68.9,M,44.8,M,,0000*60
$GPGSA,A,3,21,03,07,16,06,,,,,,,,5.0,3.0,4.0*36
$GPRMC,144106.000,A,5230.1060,N,01320.4598,E,2.36,175.35,110912,,,A*63
$GPGGA,144107.000,5230.1056,N,01320.4603,E,1,05,2.2,68.6,M,44.8,M,,0000*69
$GPGSA,A,3,18,21,07,16,06,,,,,,,,3.8,2.2,3.1*37
$GPRMC,144107.000,A,5230.1056,N,01320.4603,E,1.54,157.96,110912,,,A*68
$GPGGA,144108.000,5230.1056,N,01320.4612,E,1,06,2.1,68.6,M,44.8,M,,0000*66
$GPGSA,A,3,18,21,03,07,16,06,,,,,,,3.6,2.1,2.9*30
$GPRMC,144108.000,A,5230.1056,N,01320.4612,E,1.16,117.63,110912,,,A*6F
$GPGGA,144109.000,5230.1059,N,01320.4618,E,1,05,2.8,68.9,M,44.8,M,,0000*67
$GPGSA,A,3,18,21,03,07,06,,,,,,,,4.2,2.8,3.1*34
$GPRMC,144110.000,A,5230.1063,N,01320.4619,E,1.16,333.79,110912,,,A*64
$GPGGA,144111.000,5230.1069,N,01320.4621,E,1,03,4.6,69.1,M,44.8,M,,0000*60
$GPGSA,A,2,18,07,06,,,,,,,,,,4.7,4.6,1.0*3B
$GPRMC,144111.000,A,5230.1069,N,01320.4621,E,1.80,353.43,110912,,,A*64
$GPGGA,144112.000,5230.1079,N,01320.4621,E,1,03,4.6,69.0,M,44.8,M,,0000*63
$GPGSA,A,2,18,07,06,,,,,,,,,,4.7,4.6,1.0*3B
$GPRMC,144112.000,A,5230.1079,N,01320.4621,E,2.87,345.64,110912,,,A*60
$GPGGA,144113.000,5230.1090,N,01320.4617,E,1,03,4.6,69.0,M,44.8,M,,0000*60
$GPGSA,A,2,18,07,06,,,,,,,,,,4.7,4.6,1.0*3B
$GPRMC,144113.000,A,5230.1090,N,01320.4617,E,3.64,339.43,110912,,,A*61
$GPGGA,144114.000,5230.1100,N,01320.4612,E,0,03,,69.2,M,44.8,M,,0000*45
$GPGSA,A,1,18,03,06,,,,,,,,,,,,*12
$GPRMC,144335.000,A,5230.0708,N,01320.3742,E,2.17,65.98,110912,,,A*5F
$GPGGA,144336.000,5230.0746,N,01320.3890,E,1,03,7.6,82.1,M,44.8,M,,0000*69
$GPGSA,A,2,15,21,18,,,,,,,,,,7.7,7.6,1.0*3D
$GPRMC,144336.000,A,5230.0746,N,01320.3890,E,1.30,105.80,110912,,,A*6E
$GPGGA,144337.000,5230.0790,N,01320.4030,E,1,03,7.6,81.5,M,44.8,M,,0000*61
$GPGSA,A,2,15,21,18,,,,,,,,,,7.7,7.6,1.0*3D
$GPRMC,144337.000,A,5230.0790,N,01320.4030,E,1.83,41.64,110912,,,A*52
$GPGGA,144338.000,5230.0833,N,01320.4158,E,1,03,7.6,81.4,M,44.8,M,,0000*66
$GPGSA,A,2,15,21,18,,,,,,,,,,7.7,7.6,1.0*3D
$GPRMC,144338.000,A,5230.0833,N,01320.4158,E,1.25,6.01,110912,,,A*68
$GPGGA,144339.000,5230.0866,N,01320.4262,E,1,04,3.3,80.3,M,44.8,M,,0000*6D
$GPGSA,A,3,15,21,18,16,,,,,,,,,4.6,3.3,3.2*38
$GPRMC,144339.000,A,5230.0866,N,01320.4262,E,1.17,248.54,110912,,,A*6A
$GPGGA,144340.000,5230.0897,N,01320.4367,E,1,04,3.3,79.5,M,44.8,M,,0000*69
$GPGSA,A,3,15,21,18,16,,,,,,,,,4.6,3.3,3.2*38
$GPGSV,3,1,12,06,69,285,18,16,61,230,20,03,51,289,,18,49,116,35*74
$GPGSV,3,2,12,21,49,068,33,30,37,192,,22,29,167,,19,23,286,*78
$GPGSV,3,3,12,07,15,318,26,15,10,065,34,26,08,030,21,08,03,352,*75
$GPRMC,144351.000,A,5230.1138,N,01320.4968,E,0.81,203.31,110912,,,A*64
$GPGGA,144352.000,5230.1151,N,01320.4990,E,1,07,2.0,56.6,M,44.8,M,,0000*65
$GPGSA,A,3,15,21,18,06,07,16,03,,,,,,3.2,2.0,2.4*3C
$GPRMC,144353.000,A,5230.1163,N,01320.5009,E,0.88,141.32,110912,,,A*68
$GPGGA,144354.000,5230.1173,N,01320.5022,E,1,07,2.0,53.4,M,44.8,M,,0000*65
$GPGSA,A,3,15,21,18,06,07,16,03,,,,,,3.2,2.0,2.4*3C
$GPRMC,144354.000,A,5230.1173,N,01320.5022,E,1.58,190.12,110912,,,A*65
$GPGGA,144355.000,5230.1183,N,01320.5035,E,1,07,2.0,52.2,M,44.8,M,,0000*6A
$GPGSA,A,3,15,21,18,06,07,16,03,,,,,,3.2,2.0,2.4*3C
$GPGSV,3,1,12,06,69,285,25,16,61,230,22,03,51,289,26,18,49,116,34*7D
$GPGSV,3,2,12,21,49,068,40,30,37,192,25,22,29,167,24,19,23,286,22*7D
$GPGSV,3,3,12,07,15,318,31,15,10,065,37,26,08,030,22,08,03,352,*73
$GPRMC,144355.000,A,5230.1183,N,01320.5035,E,1.14,145.66,110912,,,A*6E
$GPGGA,144356.000,5230.1192,N,01320.5047,E,1,07,2.0,50.9,M,44.8,M,,0000*65
$GPGSA,A,3,15,21,18,06,07,16,03,,,,,,3.2,2.0,2.4*3C
$GPRMC,144356.000,A,5230.1192,N,01320.5047,E,1.35,132.68,110912,,,A*65
$GPGGA,144357.000,5230.1201,N,01320.5058,E,1,06,2.1,49.9,M,44.8,M,,0000*6B
$GPGSA,A,3,15,21,18,06,07,16,,,,,,,3.2,2.1,2.5*3F
$GPRMC,144357.000,A,5230.1201,N,01320.5058,E,1.37,117.79,110912,,,A*66
$GPGGA,144358.000,5230.1209,N,01320.5067,E,1,06,2.1,48.9,M,44.8,M,,0000*61
$GPGSA,A,3,15,21,18,06,07,16,,,,,,,3.2,2.1,2.5*3F
$GPRMC,144358.000,A,5230.1209,N,01320.5067,E,1.39,125.71,110912,,,A*6A
$GPGGA,144359.000,5230.1218,N,01320.5077,E,1,07,2.0,48.1,M,44.8,M,,0000*69
$GPGSA,A,3,15,21,18,06,07,16,03,,,,,,3.2,2.0,2.4*3C
$GPRMC,144359.000,A,5230.1218,N,01320.5077,E,1.56,89.88,110912,,,A*52
$GPGGA,144400.000,5230.1231,N,01320.5087,E,1,07,2.0,47.3,M,44.8,M,,0000*6B
$GPGSA,A,3,15,21,18,06,07,16,03,,,,,,3.2,2.0,2.4*3C
$GPGSV,3,1,12,06,69,285,21,16,61,230,18,03,51,289,21,18,49,116,32*71
$GPGSV,3,2,12,21,49,068,40,30,37,192,24,22,29,167,26,19,23,286,22*7E
$GPGSV,3,3,12,07,15,318,34,15,10,065,32,26,08,030,22,08,03,352,*73
$GPRMC,144400.000,A,5230.1231,N,01320.5087,E,2.31,56.45,110912,,,A*5C
$GPGGA,144401.000,5230.1241,N,01320.5096,E,1,07,2.0,46.8,M,44.8,M,,0000*67
$GPGSA,A,3,15,21,18,06,07,16,03,,,,,,3.2,2.0,2.4*3C
$GPRMC,144401.000,A,5230.1241,N,01320.5096,E,1.91,60.87,110912,,,A*58
$GPGGA,144402.000,5230.1255,N,01320.5104,E,1,07,2.0,46.3,M,44.8,M,,0000*60
$GPGSA,A,3,15,21,18,06,07,16,03,,,,,,3.2,2.0,2.4*3C
$GPRMC,144402.000,A,5230.1255,N,01320.5104,E,2.50,39.62,110912,,,A*5D
$GPGGA,144403.000,5230.1265,N,01320.5112,E,1,07,2.0,45.9,M,44.8,M,,0000*6C
$GPGSA,A,3,15,21,18,06,07,16,03,,,,,,3.2,2.0,2.4*3C
$GPRMC,144403.000,A,5230.1265,N,01320.5112,E,2.08,59.07,110912,,,A*50
$GPGGA,144404.000,5230.1274,N,01320.5121,E,1,07,2.0,45.5,M,44.8,M,,0000*67
$GPGSA,A,3,15,21,18,06,07,16,03,,,,,,3.2,2.0,2.4*3C
$GPRMC,144404.000,A,5230.1274,N,01320.5121,E,2.07,63.27,110912,,,A*53
$GPGGA,144405.000,5230.1284,N,01320.5128,E,1,07,2.0,45.4,M,44.8,M,,0000*61
$GPGSA,A,3,15,21,18,06,07,16,03,,,,,,3.2,2.0,2.4*3C
$GPGSV,3,1,12,06,69,285,23,16,61,230,26,03,51,289,26,18,49,116,27*7D
$GPGSV,3,2,12,21,49,068,39,30,37,192,26,22,29,167,30,19,23,286,26*71
$GPGSV,3,3,12,07,15,318,35,15,10,065,37,26,08,030,25,08,03,352,*70
$GPRMC,144405.000,A,5230.1284,N,01320.5128,E,1.77,58.22,110912,,,A*5D
$GPGGA,144406.000,5230.1292,N,01320.5136,E,1,07,2.0,45.4,M,44.8,M,,0000*6A
$GPGSA,A,3,15,21,18,06,07,16,03,,,,,,3.2,2.0,2.4*3C
$GPRMC,144406.000,A,5230.1292,N,01320.5136,E,1.88,73.39,110912,,,A*55
$GPGGA,144407.000,5230.1302,N,01320.5143,E,1,07,2.0,45.7,M,44.8,M,,0000*62
$GPGSA,A,3,15,21,18,06,07,16,03,,,,,,3.2,2.0,2.4*3C
$GPRMC,144407.000,A,5230.1302,N,01320.5143,E,1.78,58.27,110912,,,A*57
$GPGGA,144408.000,5230.1311,N,01320.5149,E,1,07,2.0,46.0,M,44.8,M,,0000*61
$GPGSA,A,3,15,21,18,06,07,16,03,,,,,,3.2,2.0,2.4*3C
$GPRMC,144408.000,A,5230.1311,N,01320.5149,E,1.77,55.78,110912,,,A*58
$GPGGA,144409.000,5230.1320,N,01320.5158,E,1,06,2.3,46.2,M,44.8,M,,0000*62
$GPGSA,A,3,15,21,06,07,16,03,,,,,,,3.4,2.3,2.5*31
$GPRMC,144409.000,A,5230.1320,N,01320.5158,E,2.45,65.98,110912,,,A*54
$GPGGA,144410.000,5230.1330,N,01320.5165,E,1,06,2.3,46.6,M,44.8,M,,0000*61
$GPGSA,A,3,15,21,06,07,16,03,,,,,,,3.4,2.3,2.5*31
$GPGSV,3,1,12,06,69,285,23,16,61,230,25,03,51,289,25,18,49,116,*78
$GPGSV,3,2,12,21,49,068,38,30,37,192,26,22,29,167,24,19,23,286,24*77
$GPGSV,3,3,12,07,15,318,36,15,10,065,37,26,08,030,25,08,03,352,*73
$GPRMC,144410.000,A,5230.1330,N,01320.5165,E,2.34,40.74,110912,,,A*50
$GPGGA,144411.000,5230.1337,N,01320.5170,E,1,07,2.0,46.8,M,44.8,M,,0000*6F
$GPGSA,A,3,15,21,18,06,07,16,03,,,,,,3.2,2.0,2.4*3C
$GPRMC,144411.000,A,5230.1337,N,01320.5170,E,1.63,61.63,110912,,,A*56
$GPGGA,144412.000,5230.1343,N,01320.5178,E,1,07,2.0,47.0,M,44.8,M,,0000*6E
$GPGSA,A,3,15,21,18,06,07,16,03,,,,,,3.2,2.0,2.4*3C
$GPRMC,144412.000,A,5230.1343,N,01320.5178,E,1.71,80.58,110912,,,A*5A
$GPGGA,144413.000,5230.1343,N,01320.5183,E,1,07,2.0,46.8,M,44.8,M,,0000*62
$GPGSA,A,3,15,21,18,06,07,16,03,,,,,,3.2,2.0,2.4*3C
$GPRMC,144413.000,A,5230.1343,N,01320.5183,E,1.38,127.57,110912,,,A*61
$GPGGA,144414.000,5230.1344,N,01320.5191,E,1,07,2.0,46.5,M,44.8,M,,0000*6C
$GPGSA,A,3,15,21,18,06,07,16,03,,,,,,3.2,2.0,2.4*3C
$GPRMC,144414.000,A,5230.1344,N,01320.5191,E,1.92,108.99,110912,,,A*6D
$GPGGA,144415.000,5230.1343,N,01320.5197,E,1,07,2.0,46.0,M,44.8,M,,0000*69
$GPGSA,A,3,15,21,18,06,07,16,03,,,,,,3.2,2.0,2.4*3C
$GPGSV,3,1,12,06,71,284,27,16,60,227,25,03,53,289,25,18,50,114,31*79
$GPGSV,3,2,12,21,47,068,32,30,35,192,26,22,31,167,27,19,24,287,26*7F
$GPGSV,3,3,12,07,15,316,33,15,11,064,38,26,08,029,27,08,03,351,*7E
$GPRMC,144415.000,A,5230.1343,N,01320.5197,E,1.66,113.85,110912,,,A*61
$GPGGA,144416.000,5230.1341,N,01320.5204,E,1,07,2.0,45.2,M,44.8,M,,0000*60
$GPGSA,A,3,15,21,18,06,07,16,03,,,,,,3.2,2.0,2.4*3C
$GPRMC,144416.000,A,5230.1341,N,01320.5204,E,1.71,115.87,110912,,,A*6B
$GPGGA,144417.000,5230.1337,N,01320.5210,E,1,07,2.0,44.3,M,44.8,M,,0000*65
$GPGSA,A,3,15,21,18,06,07,16,03,,,,,,3.2,2.0,2.4*3C
$GPRMC,144417.000,A,5230.1337,N,01320.5210,E,1.80,117.91,110912,,,A*65
$GPGGA,144418.000,5230.1332,N,01320.5217,E,1,07,2.0,43.4,M,44.8,M,,0000*68
$GPGSA,A,3,15,21,18,06,07,16,03,,,,,,3.2,2.0,2.4*3C
$GPRMC,144418.000,A,5230.1332,N,01320.5217,E,1.85,130.15,110912,,,A*64
$GPGGA,144419.000,5230.1327,N,01320.5222,E,1,07,2.0,42.6,M,44.8,M,,0000*68
$GPGSA,A,3,15,21,18,06,07,16,03,,,,,,3.2,2.0,2.4*3C
$GPRMC,144419.000,A,5230.1327,N,01320.5222,E,1.77,129.25,110912,,,A*61
$GPGGA,144420.000,5230.1322,N,01320.5228,E,1,07,2.0,41.8,M,44.8,M,,0000*60
$GPGSA,A,3,15,21,18,06,07,16,03,,,,,,3.2,2.0,2.4*3C
$GPGSV,3,1,12,06,71,284,30,16,60,227,23,03,53,289,25,18,50,114,31*79
$GPGSV,3,2,12,21,47,068,38,30,35,192,26,22,31,167,27,19,24,287,26*75
$GPGSV,3,3,12,07,15,316,40,15,11,064,37,26,08,029,27,08,03,351,*75
$GPRMC,144420.000,A,5230.1322,N,01320.5228,E,1.76,125.75,110912,,,A*6C
$GPGGA,144421.000,5230.1317,N,01320.5234,E,1,07,2.0,41.1,M,44.8,M,,0000*63
$GPGSA,A,3,15,21,18,06,07,16,03,,,,,,3.2,2.0,2.4*3C
$GPRMC,144421.000,A,5230.1317,N,01320.5234,E,1.91,120.68,110912,,,A*66
$GPGGA,144422.000,5230.1311,N,01320.5237,E,1,07,2.0,40.6,M,44.8,M,,0000*63
$GPGSA,A,3,15,21,18,06,07,16,03,,,,,,3.2,2.0,2.4*3C
$GPRMC,144422.000,A,5230.1311,N,01320.5237,E,1.68,137.84,110912,,,A*62
$GPGGA,144423.000,5230.1306,N,01320.5239,E,1,07,2.0,40.2,M,44.8,M,,0000*6E
$GPGSA,A,3,15,21,18,06,07,16,03,,,,,,3.2,2.0,2.4*3C
$GPRMC,144423.000,A,5230.1306,N,01320.5239,E,1.25,138.68,110912,,,A*6F
$GPGGA,144424.000,5230.1301,N,01320.5241,E,1,07,2.0,40.0,M,44.8,M,,0000*63
$GPGSA,A,3,15,21,18,06,07,16,03,,,,,,3.2,2.0,2.4*3C
$GPRMC,144424.000,A,5230.1301,N,01320.5241,E,1.35,130.17,110912,,,A*61
$GPGGA,144425.000,5230.1296,N,01320.5244,E,1,07,2.0,39.7,M,44.8,M,,0000*61
$GPGSA,A,3,15,21,18,06,07,16,03,,,,,,3.2,2.0,2.4*3C
$GPGSV,3,1,12,06,71,284,32,16,60,227,23,03,53,289,31,18,50,114,32*7D
$GPGSV,3,2,12,21,47,068,35,30,35,192,25,22,31,167,34,19,24,287,21*7E
$GPGSV,3,3,12,07,15,316,35,15,11,064,36,26,08,029,26,08,03,351,*77
$GPRMC,144425.000,A,5230.1296,N,01320.5244,E,1.35,124.92,110912,,,A*62
$GPGGA,144426.000,5230.1291,N,01320.5246,E,1,07,2.0,39.5,M,44.8,M,,0000*65
$GPGSA,A,3,15,21,18,06,07,16,03,,,,,,3.2,2.0,2.4*3C
$GPRMC,144426.000,A,5230.1291,N,01320.5246,E,1.24,122.58,110912,,,A*64
$GPGGA,144427.000,5230.1286,N,01320.5250,E,1,07,2.0,39.4,M,44.8,M,,0000*64
$GPGSA,A,3,15,21,18,06,07,16,03,,,,,,3.2,2.0,2.4*3C
$GPRMC,144427.000,A,5230.1286,N,01320.5250,E,1.73,111.43,110912,,,A*6C
$GPGGA,144428.000,5230.1279,N,01320.5252,E,1,07,2.0,39.4,M,44.8,M,,0000*69
$GPGSA,A,3,15,21,18,06,07,16,03,,,,,,3.2,2.0,2.4*3C
$GPRMC,144428.000,A,5230.1279,N,01320.5252,E,1.65,139.74,110912,,,A*68
$GPGGA,144429.000,5230.1272,N,01320.5253,E,1,07,2.0,39.5,M,44.8,M,,0000*63
$GPGSA,A,3,15,21,18,06,07,16,03,,,,,,3.2,2.0,2.4*3C
$GPRMC,144429.000,A,5230.1272,N,01320.5253,E,1.62,143.77,110912,,,A*6A
$GPGGA,144430.000,5230.1266,N,01320.5257,E,1,07,2.0,39.7,M,44.8,M,,0000*68
$GPGSA,A,3,15,21,18,06,07,16,03,,,,,,3.2,2.0,2.4*3C
$GPGSV,3,1,12,06,71,284,32,16,60,227,19,03,53,289,32,18,50,114,32*77
$GPGSV,3,2,12,21,47,068,39,30,35,192,40,22,31,167,37,19,24,287,23*70
$GPGSV,3,3,12,07,15,316,36,15,11,064,35,26,08,029,27,08,03,351,*76
$GPRMC,144430.000,A,5230.1266,N,01320.5257,E,1.93,121.63,110912,,,A*6C
$GPGGA,144431.000,5230.1260,N,01320.5259,E,1,07,2.0,39.9,M,44.8,M,,0000*6F
$GPGSA,A,3,15,21,18,06,07,16,03,,,,,,3.2,2.0,2.4*3C
$GPRMC,144431.000,A,5230.1260,N,01320.5259,E,1.42,118.71,110912,,,A*60
$GPGGA,144432.000,5230.1253,N,01320.5262,E,1,07,2.0,40.2,M,44.8,M,,0000*61
$GPGSA,A,3,15,21,18,06,07,16,03,,,,,,3.2,2.0,2.4*3C
$GPRMC,144432.000,A,5230.1253,N,01320.5262,E,1.70,133.67,110912,,,A*64
$GPGGA,144433.000,5230.1247,N,01320.5265,E,1,07,2.0,40.5,M,44.8,M,,0000*65
$GPGSA,A,3,15,21,18,06,07,16,03,,,,,,3.2,2.0,2.4*3C
$GPRMC,144433.000,A,5230.1247,N,01320.5265,E,1.75,132.09,110912,,,A*6B
$GPGGA,144434.000,5230.1240,N,01320.5266,E,1,07,2.0,40.8,M,44.8,M,,0000*6B
$GPGSA,A,3,15,21,18,06,07,16,03,,,,,,3.2,2.0,2.4*3C
$GPRMC,144434.000,A,5230.1240,N,01320.5266,E,1.77,148.79,110912,,,A*60
$GPGGA,144435.000,5230.1231,N,01320.5265,E,1,07,2.0,40.9,M,44.8,M,,0000*6E
$GPGSA,A,3,15,21,18,06,07,16,03,,,,,,3.2,2.0,2.4*3C
$GPGSV,3,1,12,06,71,284,33,16,60,227,30,03,53,289,34,18,50,114,41*7F
$GPGSV,3,2,12,21,47,068,41,30,35,192,32,22,31,167,31,19,24,287,22*7D
$GPGSV,3,3,12,07,15,316,34,15,11,064,35,26,08,029,24,08,03,351,*77
$GPRMC,144435.000,A,5230.1231,N,01320.5265,E,1.81,171.08,110912,,,A*61
$GPGGA,144436.000,5230.1222,N,01320.5263,E,1,07,2.0,40.8,M,44.8,M,,0000*68
$GPGSA,A,3,15,21,18,06,07,16,03,,,,,,3.2,2.0,2.4*3C
$GPRMC,144436.000,A,5230.1222,N,01320.5263,E,1.97,175.37,110912,,,A*69
$GPGGA,144437.000,5230.1211,N,01320.5259,E,1,07,2.0,40.5,M,44.8,M,,0000*6D
$GPGSA,A,3,15,21,18,06,07,16,03,,,,,,3.2,2.0,2.4*3C
$GPRMC,144437.000,A,5230.1211,N,01320.5259,E,2.16,185.50,110912,,,A*65
