$GPGGA,141158.000,6415.2142,N,02206.5910,W,1,09,1.1,-7.9,M,60.7,M,,0000*65
$GPGSA,A,3,21,05,13,30,07,03,19,16,06,,,,2.1,1.1,1.8*32
$GPRMC,141158.000,A,6415.2142,N,02206.5910,W,9.30,267.70,060912,,,A*7E
$GPGGA,141159.000,6415.2141,N,02206.5969,W,1,09,1.1,-8.4,M,60.7,M,,0000*6B
$GPGSA,A,3,21,05,13,30,07,03,19,16,06,,,,2.1,1.1,1.8*32
$GPRMC,141159.000,A,6415.2141,N,02206.5969,W,9.33,267.56,060912,,,A*75
$GPGGA,141200.000,6415.2140,N,02206.6027,W,1,09,1.1,-8.9,M,60.7,M,,0000*68
$GPGSA,A,3,21,05,13,30,07,03,19,16,06,,,,2.1,1.1,1.8*32
$GPGSV,3,1,12,16,73,184,21,06,64,217,20,03,48,237,23,21,47,083,20*76
$GPGSV,3,2,12,30,45,146,33,07,30,312,27,19,19,238,20,13,16,277,19*7F
$GPGSV,3,3,12,05,11,004,31,18,09,108,23,08,01,335,19,29,00,070,*79
$GPRMC,141200.000,A,6415.2140,N,02206.6027,W,9.00,268.74,060912,,,A*74
$GPGGA,141201.000,6415.2140,N,02206.6088,W,1,09,1.1,-9.3,M,60.7,M,,0000*67
$GPGSA,A,3,21,05,13,30,07,03,19,16,06,,,,2.1,1.1,1.8*32
$GPRMC,141201.000,A,6415.2140,N,02206.6088,W,9.39,270.74,060912,,,A*73
$GPGGA,141202.000,6415.2140,N,02206.6148,W,1,09,1.1,-9.7,M,60.7,M,,0000*6D
$GPGSA,A,3,21,05,13,30,07,03,19,16,06,,,,2.1,1.1,1.8*32
$GPRMC,141202.000,A,6415.2140,N,02206.6148,W,9.43,269.97,060912,,,A*75
$GPGGA,141203.000,6415.2139,N,02206.6209,W,1,09,1.1,-9.9,M,60.7,M,,0000*6A
$GPGSA,A,3,21,05,13,30,07,03,19,16,06,,,,2.1,1.1,1.8*32
$GPRMC,141203.000,A,6415.2139,N,02206.6209,W,9.28,268.71,060912,,,A*78
$GPGGA,141204.000,6415.2140,N,02206.6268,W,1,09,1.1,-9.9,M,60.7,M,,0000*64
$GPGSA,A,3,21,05,13,30,07,03,19,16,06,,,,2.1,1.1,1.8*32
$GPRMC,141204.000,A,6415.2140,N,02206.6268,W,9.10,270.07,060912,,,A*75
$GPGGA,141205.000,6415.2140,N,02206.6328,W,1,09,1.1,-10.2,M,60.7,M,,0000*53
$GPGSA,A,3,21,05,13,30,07,03,19,16,06,,,,2.1,1.1,1.8*32
$GPGSV,3,1,12,16,73,184,20,06,64,217,21,03,48,237,25,21,47,083,22*72
$GPGSV,3,2,12,30,45,146,33,07,30,312,27,19,19,238,20,13,16,277,18*7E
$GPGSV,3,3,12,05,11,004,28,18,09,108,29,08,01,335,22,29,00,070,*73
$GPRMC,141205.000,A,6415.2140,N,02206.6328,W,9.21,270.69,060912,,,A*7B
$GPGGA,141206.000,6415.2138,N,02206.6393,W,1,09,1.1,-10.5,M,60.7,M,,0000*58
$GPGSA,A,3,21,05,13,30,07,03,19,16,06,,,,2.1,1.1,1.8*32
$GPRMC,141206.000,A,6415.2138,N,02206.6393,W,9.85,267.90,060912,,,A*79
$GPGGA,141207.000,6415.2137,N,02206.6455,W,1,09,1.1,-10.9,M,60.7,M,,0000*57
$GPGSA,A,3,21,05,13,30,07,03,19,16,06,,,,2.1,1.1,1.8*32
$GPRMC,141207.000,A,6415.2137,N,02206.6455,W,9.48,267.14,060912,,,A*77
$GPGGA,141208.000,6415.2136,N,02206.6518,W,1,09,1.1,-11.1,M,60.7,M,,0000*58
$GPGSA,A,3,21,05,13,30,07,03,19,16,06,,,,2.1,1.1,1.8*32
$GPRMC,141208.000,A,6415.2136,N,02206.6518,W,9.73,269.62,060912,,,A*76
$GPGGA,141209.000,6415.2137,N,02206.6576,W,1,09,1.1,-11.4,M,60.7,M,,0000*55
$GPGSA,A,3,21,05,13,30,07,03,19,16,06,,,,2.1,1.1,1.8*32
$GPRMC,141209.000,A,6415.2137,N,02206.6576,W,8.88,272.93,060912,,,A*7F
$GPGGA,141210.000,6415.2138,N,02206.6635,W,1,09,1.1,-11.7,M,60.7,M,,0000*55
$GPGSA,A,3,21,05,13,30,07,03,19,16,06,,,,2.1,1.1,1.8*32
$GPGSV,3,1,12,16,73,184,20,06,64,217,21,03,48,237,24,21,47,083,22*73
$GPGSV,3,2,12,30,45,146,32,07,30,312,28,19,19,238,20,13,16,277,18*70
$GPGSV,3,3,12,05,11,004,29,18,09,108,20,08,01,335,20,29,00,070,*79
$GPRMC,141210.000,A,6415.2138,N,02206.6635,W,9.01,272.72,060912,,,A*73
$GPGGA,141211.000,6415.2138,N,02206.6695,W,1,09,1.1,-12.1,M,60.7,M,,0000*5B
$GPGSA,A,3,21,05,13,30,07,03,19,16,06,,,,2.1,1.1,1.8*32
$GPRMC,141211.000,A,6415.2138,N,02206.6695,W,9.27,270.29,060912,,,A*70
$GPGGA,141212.000,6415.2136,N,02206.6755,W,1,09,1.1,-12.7,M,60.7,M,,0000*5D
$GPGSA,A,3,21,05,13,30,07,03,19,16,06,,,,2.1,1.1,1.8*32
$GPRMC,141212.000,A,6415.2136,N,02206.6755,W,9.24,267.75,060912,,,A*7C
$GPGGA,141213.000,6415.2135,N,02206.6815,W,1,09,1.1,-13.1,M,60.7,M,,0000*53
$GPGSA,A,3,21,05,13,30,07,03,19,16,06,,,,2.1,1.1,1.8*32
$GPRMC,141213.000,A,6415.2135,N,02206.6815,W,9.29,269.26,060912,,,A*70
$GPGGA,141214.000,6415.2135,N,02206.6875,W,1,08,1.3,-13.3,M,60.7,M,,0000*53
$GPGSA,A,3,21,13,30,07,03,19,16,06,,,,,2.4,1.3,2.0*3B
$GPRMC,141214.000,A,6415.2135,N,02206.6875,W,9.39,270.32,060912,,,A*7D
$GPGGA,141215.000,6415.2135,N,02206.6932,W,1,09,1.1,-13.6,M,60.7,M,,0000*56
$GPGSA,A,3,21,05,13,30,07,03,19,16,06,,,,2.1,1.1,1.8*32
$GPGSV,3,1,12,16,72,180,20,06,65,216,21,03,50,237,24,21,46,081,22*7C
$GPGSV,3,2,12,30,43,146,32,07,31,311,28,19,20,238,20,13,15,276,18*7C
$GPGSV,3,3,12,05,10,003,32,18,10,107,21,08,02,335,21,26,00,025,*7E
$GPRMC,141215.000,A,6415.2135,N,02206.6932,W,8.95,269.78,060912,,,A*7F
$GPGGA,141216.000,6415.2134,N,02206.6987,W,1,09,1.1,-13.8,M,60.7,M,,0000*54
$GPGSA,A,3,21,05,13,30,07,03,19,16,06,,,,2.1,1.1,1.8*32
$GPRMC,141216.000,A,6415.2134,N,02206.6987,W,8.52,269.71,060912,,,A*71
$GPGGA,141217.000,6415.2135,N,02206.7041,W,1,09,1.1,-13.9,M,60.7,M,,0000*57
$GPGSA,A,3,21,05,13,30,07,03,19,16,06,,,,2.1,1.1,1.8*32
$GPRMC,141217.000,A,6415.2135,N,02206.7041,W,8.39,272.98,060912,,,A*73
$GPGGA,141218.000,6415.2136,N,02206.7098,W,1,09,1.1,-13.9,M,60.7,M,,0000*5F
$GPGSA,A,3,21,05,13,30,07,03,19,16,06,,,,2.1,1.1,1.8*32
$GPRMC,141218.000,A,6415.2136,N,02206.7098,W,8.99,272.18,060912,,,A*79
$GPGGA,141219.000,6415.2134,N,02206.7157,W,1,09,1.1,-13.9,M,60.7,M,,0000*5E
$GPGSA,A,3,21,05,13,30,07,03,19,16,06,,,,2.1,1.1,1.8*32
$GPRMC,141219.000,A,6415.2134,N,02206.7157,W,9.18,268.47,060912,,,A*71
$GPGGA,141220.000,6415.2134,N,02206.7216,W,1,08,1.3,-13.9,M,60.7,M,,0000*51
$GPGSA,A,3,21,13,30,07,03,19,16,06,,,,,2.4,1.3,2.0*3B
$GPGSV,3,1,12,16,72,180,20,06,65,216,21,03,50,237,23,21,46,081,23*7A
$GPGSV,3,2,12,30,43,146,32,07,31,311,28,19,20,238,20,13,15,276,18*7C
$GPGSV,3,3,12,05,10,003,,18,10,107,21,08,02,335,22,26,00,025,*7C
$GPRMC,141220.000,A,6415.2134,N,02206.7216,W,9.18,269.63,060912,,,A*7A
$GPGGA,141221.000,6415.2134,N,02206.7273,W,1,09,1.1,-13.8,M,60.7,M,,0000*51
$GPGSA,A,3,21,05,13,30,07,03,19,16,06,,,,2.1,1.1,1.8*32
$GPRMC,141221.000,A,6415.2134,N,02206.7273,W,8.82,271.02,060912,,,A*74
$GPGGA,141222.000,6415.2132,N,02206.7330,W,1,09,1.1,-13.6,M,60.7,M,,0000*5C
$GPGSA,A,3,21,05,13,30,07,03,19,16,06,,,,2.1,1.1,1.8*32
$GPRMC,141222.000,A,6415.2132,N,02206.7330,W,9.06,266.87,060912,,,A*71
$GPGGA,141223.000,6415.2131,N,02206.7386,W,1,09,1.1,-13.6,M,60.7,M,,0000*53
$GPGSA,A,3,21,05,13,30,07,03,19,16,06,,,,2.1,1.1,1.8*32
$GPRMC,141223.000,A,6415.2131,N,02206.7386,W,8.88,267.37,060912,,,A*73
$GPGGA,141224.000,6415.2132,N,02206.7440,W,1,09,1.1,-13.6,M,60.7,M,,0000*5A
$GPGSA,A,3,21,05,13,30,07,03,19,16,06,,,,2.1,1.1,1.8*32
$GPRMC,141224.000,A,6415.2132,N,02206.7440,W,8.66,270.94,060912,,,A*75
$GPGGA,141225.000,6415.2133,N,02206.7492,W,1,09,1.1,-13.6,M,60.7,M,,0000*55
$GPGSA,A,3,21,05,13,30,07,03,19,16,06,,,,2.1,1.1,1.8*32
$GPGSV,3,1,12,16,72,180,20,06,65,216,22,03,50,237,24,21,46,081,22*7F
$GPGSV,3,2,12,30,43,146,32,07,31,311,27,19,20,238,21,13,15,276,18*72
$GPGSV,3,3,12,05,10,003,29,18,10,107,24,08,02,335,19,26,00,025,*7A
$GPRMC,141225.000,A,6415.2133,N,02206.7492,W,8.30,272.19,060912,,,A*7E
$GPGGA,141226.000,6415.2136,N,02206.7549,W,1,09,1.1,-13.4,M,60.7,M,,0000*56
$GPGSA,A,3,21,05,13,30,07,03,19,16,06,,,,2.1,1.1,1.8*32
$GPRMC,141226.000,A,6415.2136,N,02206.7549,W,8.95,274.63,060912,,,A*7B
$GPGGA,141227.000,6415.2138,N,02206.7605,W,1,09,1.1,-13.2,M,60.7,M,,0000*54
$GPGSA,A,3,21,05,13,30,07,03,19,16,06,,,,2.1,1.1,1.8*32
$GPRMC,141227.000,A,6415.2138,N,02206.7605,W,8.89,273.27,060912,,,A*75
$GPGGA,141228.000,6415.2137,N,02206.7664,W,1,09,1.1,-13.2,M,60.7,M,,0000*53
$GPGSA,A,3,21,05,13,30,07,03,19,16,06,,,,2.1,1.1,1.8*32
$GPRMC,141228.000,A,6415.2137,N,02206.7664,W,9.44,268.76,060912,,,A*7C
$GPGGA,141229.000,6415.2136,N,02206.7725,W,1,09,1.1,-13.1,M,60.7,M,,0000*54
$GPGSA,A,3,21,05,13,30,07,03,19,16,06,,,,2.1,1.1,1.8*32
$GPRMC,141229.000,A,6415.2136,N,02206.7725,W,9.48,266.05,060912,,,A*7E
$GPGGA,141230.000,6415.2135,N,02206.7786,W,1,09,1.1,-12.5,M,60.7,M,,0000*53
$GPGSA,A,3,21,05,13,30,07,03,19,16,06,,,,2.1,1.1,1.8*32
$GPGSV,3,1,12,16,72,180,20,06,65,216,21,03,50,237,24,21,46,081,23*7D
$GPGSV,3,2,12,30,43,146,32,07,31,311,29,19,20,238,21,13,15,276,18*7C
$GPGSV,3,3,12,05,10,003,29,18,10,107,24,08,02,335,25,26,00,025,*75
$GPRMC,141230.000,A,6415.2135,N,02206.7786,W,9.38,268.15,060912,,,A*74
$GPGGA,141231.000,6415.2134,N,02206.7846,W,1,09,1.1,-12.0,M,60.7,M,,0000*55
$GPGSA,A,3,21,05,13,30,07,03,19,16,06,,,,2.1,1.1,1.8*32
$GPRMC,141231.000,A,6415.2134,N,02206.7846,W,9.14,268.04,060912,,,A*79
$GPGGA,141232.000,6415.2134,N,02206.7908,W,1,09,1.1,-11.5,M,60.7,M,,0000*5B
$GPGSA,A,3,21,05,13,30,07,03,19,16,06,,,,2.1,1.1,1.8*32
$GPRMC,141232.000,A,6415.2134,N,02206.7908,W,9.37,268.01,060912,,,A*75
$GPGGA,141233.000,6415.2133,N,02206.7972,W,1,09,1.1,-11.0,M,60.7,M,,0000*55
$GPGSA,A,3,21,05,13,30,07,03,19,16,06,,,,2.1,1.1,1.8*32
$GPRMC,141233.000,A,6415.2133,N,02206.7972,W,9.69,268.04,060912,,,A*70
$GPGGA,141234.000,6415.2131,N,02206.8036,W,1,09,1.1,-10.5,M,60.7,M,,0000*52
$GPGSA,A,3,21,05,13,30,07,03,19,16,06,,,,2.1,1.1,1.8*32
$GPRMC,141234.000,A,6415.2131,N,02206.8036,W,9.73,267.57,060912,,,A*71
$GPGGA,141235.000,6415.2131,N,02206.8100,W,1,09,1.1,-9.9,M,60.7,M,,0000*63
$GPGSA,A,3,21,05,13,30,07,03,19,16,06,,,,2.1,1.1,1.8*32
$GPGSV,3,1,12,16,72,180,20,06,65,216,21,03,50,237,24,21,46,081,23*7D
$GPGSV,3,2,12,30,43,146,31,07,31,311,29,19,20,238,21,13,15,276,18*7F
$GPGSV,3,3,12,05,10,003,29,18,10,107,28,08,02,335,26,26,00,025,*7A
$GPRMC,141235.000,A,6415.2131,N,02206.8100,W,9.59,269.53,060912,,,A*76
$GPGGA,141236.000,6415.2131,N,02206.8167,W,1,09,1.1,-9.4,M,60.7,M,,0000*6C
$GPGSA,A,3,21,05,13,30,07,03,19,16,06,,,,2.1,1.1,1.8*32
$GPRMC,141236.000,A,6415.2131,N,02206.8167,W,10.05,270.12,060912,,,A*48
$GPGGA,141237.000,6415.2129,N,02206.8235,W,1,08,1.3,-9.2,M,60.7,M,,0000*65
$GPGSA,A,3,21,13,30,07,03,19,16,06,,,,,2.4,1.3,2.0*3B
$GPRMC,141237.000,A,6415.2129,N,02206.8235,W,10.26,265.79,060912,,,A*4C
$GPGGA,141238.000,6415.2127,N,02206.8300,W,1,09,1.1,-9.1,M,60.7,M,,0000*63
$GPGSA,A,3,21,05,13,30,07,03,19,16,06,,,,2.1,1.1,1.8*32
$GPRMC,141238.000,A,6415.2127,N,02206.8300,W,9.75,268.03,060912,,,A*74
$GPGGA,141239.000,6415.2127,N,02206.8364,W,1,09,1.1,-9.1,M,60.7,M,,0000*60
$GPGSA,A,3,21,05,13,30,07,03,19,16,06,,,,2.1,1.1,1.8*32
$GPRMC,141239.000,A,6415.2127,N,02206.8364,W,9.68,270.09,060912,,,A*78
$GPGGA,141240.000,6415.2125,N,02206.8427,W,1,09,1.1,-9.0,M,60.7,M,,0000*6D
$GPGSA,A,3,21,05,13,30,07,03,19,16,06,,,,2.1,1.1,1.8*32
$GPGSV,3,1,12,16,72,180,20,06,65,216,20,03,50,237,24,21,46,081,23*7C
$GPGSV,3,2,12,30,43,146,31,07,31,311,29,19,20,238,21,13,15,276,18*7F
$GPGSV,3,3,12,05,10,003,30,18,10,107,21,08,02,335,19,26,00,025,*77
$GPRMC,141240.000,A,6415.2125,N,02206.8427,W,9.41,266.90,060912,,,A*78
$GPGGA,141241.000,6415.2123,N,02206.8487,W,1,09,1.1,-8.8,M,60.7,M,,0000*69
$GPGSA,A,3,21,05,13,30,07,03,19,16,06,,,,2.1,1.1,1.8*32
$GPRMC,141241.000,A,6415.2123,N,02206.8487,W,9.13,266.35,060912,,,A*7D
$GPGGA,141242.000,6415.2120,N,02206.8547,W,1,09,1.1,-8.6,M,60.7,M,,0000*6A
$GPGSA,A,3,21,05,13,30,07,03,19,16,06,,,,2.1,1.1,1.8*32
$GPRMC,141242.000,A,6415.2120,N,02206.8547,W,9.26,265.23,060912,,,A*72
$GPGGA,141243.000,6415.2118,N,02206.8609,W,1,09,1.1,-8.4,M,60.7,M,,0000*6B
$GPGSA,A,3,21,05,13,30,07,03,19,16,06,,,,2.1,1.1,1.8*32
$GPRMC,141243.000,A,6415.2118,N,02206.8609,W,9.44,265.82,060912,,,A*7E
$GPGGA,141244.000,6415.2116,N,02206.8670,W,1,09,1.1,-8.3,M,60.7,M,,0000*6B
$GPGSA,A,3,21,05,13,30,07,03,19,16,06,,,,2.1,1.1,1.8*32
$GPRMC,141244.000,A,6415.2116,N,02206.8670,W,9.26,266.35,060912,,,A*72
$GPGGA,141245.000,6415.2113,N,02206.8730,W,1,09,1.1,-8.2,M,60.7,M,,0000*6B
$GPGSA,A,3,21,05,13,30,07,03,19,16,06,,,,2.1,1.1,1.8*32
$GPGSV,3,1,12,16,72,180,20,06,65,216,21,03,50,237,24,21,46,081,23*7D
$GPGSV,3,2,12,30,43,146,32,07,31,311,28,19,20,238,21,13,15,276,18*7D
$GPGSV,3,3,12,05,10,003,27,18,10,107,24,08,02,335,25,26,00,025,*7B
$GPRMC,141245.000,A,6415.2113,N,02206.8730,W,9.44,264.40,060912,,,A*77
$GPGGA,141246.000,6415.2113,N,02206.8791,W,1,09,1.1,-8.1,M,60.7,M,,0000*60
$GPGSA,A,3,21,05,13,30,07,03,19,16,06,,,,2.1,1.1,1.8*32
$GPRMC,141246.000,A,6415.2113,N,02206.8791,W,9.24,271.13,060912,,,A*7B
$GPGGA,141247.000,6415.2115,N,02206.8852,W,1,09,1.1,-7.8,M,60.7,M,,0000*61
$GPGSA,A,3,21,05,13,30,07,03,19,16,06,,,,2.1,1.1,1.8*32
$GPRMC,141247.000,A,6415.2115,N,02206.8852,W,9.27,273.31,060912,,,A*7D
$GPGGA,141248.000,6415.2114,N,02206.8913,W,1,09,1.1,-7.5,M,60.7,M,,0000*66
$GPGSA,A,3,21,05,13,30,07,03,19,16,06,,,,2.1,1.1,1.8*32
$GPRMC,141248.000,A,6415.2114,N,02206.8913,W,9.17,269.27,060912,,,A*78
$GPGGA,141249.000,6415.2114,N,02206.8976,W,1,09,1.1,-7.1,M,60.7,M,,0000*60
$GPGSA,A,3,21,05,13,30,07,03,19,16,06,,,,2.1,1.1,1.8*32
$GPRMC,141249.000,A,6415.2114,N,02206.8976,W,9.37,269.37,060912,,,A*79
$GPGGA,141250.000,6415.2113,N,02206.9041,W,1,09,1.1,-6.8,M,60.7,M,,0000*6B
$GPGSA,A,3,21,05,13,30,07,03,19,16,06,,,,2.1,1.1,1.8*32
$GPGSV,3,1,12,16,72,180,20,06,65,216,20,03,50,237,24,21,46,081,24*7B
$GPGSV,3,2,12,30,43,146,32,07,31,311,27,19,20,238,21,13,15,276,18*72
$GPGSV,3,3,12,05,10,003,30,18,10,107,24,08,02,335,23,26,00,025,*7B
$GPRMC,141250.000,A,6415.2113,N,02206.9041,W,9.67,269.07,060912,,,A*7C
$GPGGA,141251.000,6415.2112,N,02206.9107,W,1,09,1.1,-6.7,M,60.7,M,,0000*67
$GPGSA,A,3,21,05,13,30,07,03,19,16,06,,,,2.1,1.1,1.8*32
$GPRMC,141251.000,A,6415.2112,N,02206.9107,W,9.92,268.13,060912,,,A*71
$GPGGA,141252.000,6415.2110,N,02206.9173,W,1,09,1.1,-6.6,M,60.7,M,,0000*64
$GPGSA,A,3,21,05,13,30,07,03,19,16,06,,,,2.1,1.1,1.8*32
$GPRMC,141252.000,A,6415.2110,N,02206.9173,W,9.87,266.83,060912,,,A*70
$GPGGA,141253.000,6415.2109,N,02206.9236,W,1,10,0.9,-6.5,M,60.7,M,,0000*6D
$GPGSA,A,3,21,05,13,30,07,18,03,19,16,06,,,1.5,0.9,1.2*3F
$GPRMC,141253.000,A,6415.2109,N,02206.9236,W,9.23,269.86,060912,,,A*7F
$GPGGA,141254.000,6415.2109,N,02206.9297,W,1,10,0.9,-6.5,M,60.7,M,,0000*61
$GPGSA,A,3,21,05,13,30,07,18,03,19,16,06,,,1.5,0.9,1.2*3F
$GPRMC,141254.000,A,6415.2109,N,02206.9297,W,9.12,269.60,060912,,,A*79
$GPGGA,141255.000,6415.2107,N,02206.9357,W,1,10,0.9,-6.6,M,60.7,M,,0000*60
$GPGSA,A,3,21,05,13,30,07,18,03,19,16,06,,,1.5,0.9,1.2*3F
$GPGSV,3,1,12,16,72,180,19,06,65,216,20,03,50,237,24,21,46,081,23*76
$GPGSV,3,2,12,30,43,146,31,07,31,311,29,19,20,238,21,13,15,276,18*7F
$GPGSV,3,3,12,05,10,003,31,18,10,107,27,08,02,335,25,26,00,025,*7F
$GPRMC,141255.000,A,6415.2107,N,02206.9357,W,8.97,267.53,060912,,,A*79
$GPGGA,141256.000,6415.2107,N,02206.9417,W,1,10,0.9,-6.6,M,60.7,M,,0000*60
$GPGSA,A,3,21,05,13,30,07,18,03,19,16,06,,,1.5,0.9,1.2*3F
$GPRMC,141256.000,A,6415.2107,N,02206.9417,W,8.97,270.05,060912,,,A*7C
$GPGGA,141257.000,6415.2106,N,02206.9478,W,1,10,0.9,-6.5,M,60.7,M,,0000*6A
$GPGSA,A,3,21,05,13,30,07,18,03,19,16,06,,,1.5,0.9,1.2*3F
$GPRMC,141257.000,A,6415.2106,N,02206.9478,W,9.38,270.25,060912,,,A*73
$GPGGA,141258.000,6415.2104,N,02206.9540,W,1,09,1.1,-6.4,M,60.7,M,,0000*6D
$GPGSA,A,3,21,05,13,30,07,03,19,16,06,,,,2.1,1.1,1.8*32
$GPRMC,141258.000,A,6415.2104,N,02206.9540,W,9.34,266.96,060912,,,A*77
$GPGGA,141259.000,6415.2102,N,02206.9599,W,1,09,1.1,-6.2,M,60.7,M,,0000*68
$GPGSA,A,3,21,05,13,30,07,03,19,16,06,,,,2.1,1.1,1.8*32
$GPRMC,141259.000,A,6415.2102,N,02206.9599,W,8.90,265.18,060912,,,A*7E
$GPGGA,141300.000,6415.2100,N,02206.9658,W,1,10,0.9,-6.0,M,60.7,M,,0000*6A
$GPGSA,A,3,21,05,13,30,07,18,03,19,16,06,,,1.5,0.9,1.2*3F
$GPGSV,3,1,12,16,72,180,20,06,65,216,20,03,50,237,24,21,46,081,23*7C
$GPGSV,3,2,12,30,43,146,31,07,31,311,28,19,20,238,20,13,15,276,17*70
$GPGSV,3,3,12,05,10,003,34,18,10,107,24,08,02,335,22,26,00,025,*7E
$GPRMC,141300.000,A,6415.2100,N,02206.9658,W,9.15,267.05,060912,,,A*7D
$GPGGA,141301.000,6415.2098,N,02206.9718,W,1,10,0.9,-6.0,M,60.7,M,,0000*6E
$GPGSA,A,3,21,05,13,30,07,18,03,19,16,06,,,1.5,0.9,1.2*3F
$GPRMC,141301.000,A,6415.2098,N,02206.9718,W,8.96,268.74,060912,,,A*7A
$GPGGA,141302.000,6415.2097,N,02206.9777,W,1,10,0.9,-6.1,M,60.7,M,,0000*6A
$GPGSA,A,3,21,05,13,30,07,18,03,19,16,06,,,1.5,0.9,1.2*3F
$GPRMC,141302.000,A,6415.2097,N,02206.9777,W,8.99,268.65,060912,,,A*70
$GPGGA,141303.000,6415.2096,N,02206.9835,W,1,10,0.9,-6.0,M,60.7,M,,0000*62
$GPGSA,A,3,21,05,13,30,07,18,03,19,16,06,,,1.5,0.9,1.2*3F
$GPRMC,141303.000,A,6415.2096,N,02206.9835,W,8.70,269.34,060912,,,A*7B
$GPGGA,141304.000,6415.2094,N,02206.9897,W,1,10,0.9,-5.9,M,60.7,M,,0000*65
$GPGSA,A,3,21,05,13,30,07,18,03,19,16,06,,,1.5,0.9,1.2*3F
$GPRMC,141304.000,A,6415.2094,N,02206.9897,W,9.51,268.04,060912,,,A*76
$GPGGA,141305.000,6415.2093,N,02206.9961,W,1,10,0.9,-5.6,M,60.7,M,,0000*64
$GPGSA,A,3,21,05,13,30,07,18,03,19,16,06,,,1.5,0.9,1.2*3F
$GPGSV,3,1,12,16,72,180,20,06,65,216,20,03,50,237,24,21,46,081,23*7C
$GPGSV,3,2,12,30,43,146,31,07,31,311,25,19,20,238,21,13,15,276,17*7C
$GPGSV,3,3,12,05,10,003,32,18,10,107,24,08,02,335,23,26,00,025,*79
$GPRMC,141305.000,A,6415.2093,N,02206.9961,W,9.82,267.29,060912,,,A*76
$GPGGA,141306.000,6415.2091,N,02207.0023,W,1,10,0.9,-5.2,M,60.7,M,,0000*66
$GPGSA,A,3,21,05,13,30,07,18,03,19,16,06,,,1.5,0.9,1.2*3F
$GPRMC,141306.000,A,6415.2091,N,02207.0023,W,9.72,266.36,060912,,,A*70
$GPGGA,141307.000,6415.2088,N,02207.0083,W,1,10,0.9,-4.7,M,60.7,M,,0000*61
$GPGSA,A,3,21,05,13,30,07,18,03,19,16,06,,,1.5,0.9,1.2*3F
$GPRMC,141307.000,A,6415.2088,N,02207.0083,W,9.35,264.12,060912,,,A*74
$GPGGA,141308.000,6415.2087,N,02207.0144,W,1,10,0.9,-4.1,M,60.7,M,,0000*6D
$GPGSA,A,3,21,05,13,30,07,18,03,19,16,06,,,1.5,0.9,1.2*3F
$GPRMC,141308.000,A,6415.2087,N,02207.0144,W,9.48,267.73,060912,,,A*70
$GPGGA,141309.000,6415.2087,N,02207.0202,W,1,09,1.0,-3.5,M,60.7,M,,0000*6E
$GPGSA,A,3,05,13,30,07,18,03,19,16,06,,,,1.6,1.0,1.3*36
$GPRMC,141309.000,A,6415.2087,N,02207.0202,W,9.22,270.37,060912,,,A*7A
$GPGGA,141310.000,6415.2088,N,02207.0260,W,1,10,0.9,-2.8,M,60.7,M,,0000*61
$GPGSA,A,3,21,05,13,30,07,18,03,19,16,06,,,1.5,0.9,1.2*3F
$GPGSV,3,1,12,16,72,180,20,06,65,216,21,03,50,237,24,21,46,081,16*7B
$GPGSV,3,2,12,30,43,146,32,07,31,311,28,19,20,238,21,13,15,276,17*72
$GPGSV,3,3,12,05,10,003,32,18,10,107,23,08,02,335,24,26,00,025,*79
$GPRMC,141310.000,A,6415.2088,N,02207.0260,W,8.96,272.18,060912,,,A*78
$GPGGA,141311.000,6415.2089,N,02207.0315,W,1,10,0.9,-1.9,M,60.7,M,,0000*60
$GPGSA,A,3,21,05,13,30,07,18,03,19,16,06,,,1.5,0.9,1.2*3F
$GPRMC,141311.000,A,6415.2089,N,02207.0315,W,8.87,271.52,060912,,,A*76
$GPGGA,141312.000,6415.2089,N,02207.0374,W,1,10,0.9,-1.0,M,60.7,M,,0000*6D
$GPGSA,A,3,21,05,13,30,07,18,03,19,16,06,,,1.5,0.9,1.2*3F
$GPRMC,141312.000,A,6415.2089,N,02207.0374,W,9.31,269.21,060912,,,A*73
$GPGGA,141313.000,6415.2087,N,02207.0437,W,1,10,0.9,-0.4,M,60.7,M,,0000*67
$GPGSA,A,3,21,05,13,30,07,18,03,19,16,06,,,1.5,0.9,1.2*3F
$GPRMC,141313.000,A,6415.2087,N,02207.0437,W,9.91,265.81,060912,,,A*70
$GPGGA,141314.000,6415.2085,N,02207.0496,W,1,10,0.9,0.2,M,60.7,M,,0000*42
$GPGSA,A,3,21,05,13,30,07,18,03,19,16,06,,,1.5,0.9,1.2*3F
$GPRMC,141314.000,A,6415.2085,N,02207.0496,W,9.38,264.71,060912,,,A*73
$GPGGA,141315.000,6415.2082,N,02207.0551,W,1,10,0.9,0.8,M,60.7,M,,0000*44
$GPGSA,A,3,21,05,13,30,07,18,03,19,16,06,,,1.5,0.9,1.2*3F
$GPGSV,3,1,12,16,72,180,20,06,65,216,24,03,50,237,24,21,46,081,24*7F
$GPGSV,3,2,12,30,43,146,31,07,31,311,22,19,20,238,21,13,15,276,17*7B
$GPGSV,3,3,12,05,10,003,23,18,10,107,26,08,02,335,17,26,00,025,*7C
$GPRMC,141315.000,A,6415.2082,N,02207.0551,W,8.97,262.20,060912,,,A*79
$GPGGA,141316.000,6415.2080,N,02207.0609,W,1,09,1.1,1.3,M,60.7,M,,0000*40
$GPGSA,A,3,21,13,30,07,18,03,19,16,06,,,,1.7,1.1,1.3*30
$GPRMC,141316.000,A,6415.2080,N,02207.0609,W,9.22,266.06,060912,,,A*79
$GPGGA,141317.000,6415.2081,N,02207.0662,W,1,09,1.1,1.9,M,60.7,M,,0000*47
$GPGSA,A,3,21,13,30,07,18,03,19,16,06,,,,1.7,1.1,1.3*30
$GPRMC,141317.000,A,6415.2081,N,02207.0662,W,8.67,271.97,060912,,,A*7A
$GPGGA,141318.000,6415.2082,N,02207.0719,W,1,10,0.9,2.4,M,60.7,M,,0000*49
$GPGSA,A,3,21,05,13,30,07,18,03,19,16,06,,,1.5,0.9,1.2*3F
$GPRMC,141318.000,A,6415.2082,N,02207.0719,W,9.11,271.63,060912,,,A*70
$GPGGA,141319.000,6415.2082,N,02207.0781,W,1,10,0.9,2.7,M,60.7,M,,0000*4A
$GPGSA,A,3,21,05,13,30,07,18,03,19,16,06,,,1.5,0.9,1.2*3F
$GPRMC,141319.000,A,6415.2082,N,02207.0781,W,9.77,270.45,060912,,,A*75
$GPGGA,141320.000,6415.2082,N,02207.0838,W,1,10,0.9,3.3,M,60.7,M,,0000*48
$GPGSA,A,3,21,05,13,30,07,18,03,19,16,06,,,1.5,0.9,1.2*3F
$GPGSV,3,1,12,16,72,180,20,06,65,216,21,03,50,237,24,21,46,081,23*7D
$GPGSV,3,2,12,30,43,146,32,07,31,311,27,19,20,238,21,13,15,276,17*7D
$GPGSV,3,3,12,05,10,003,30,18,10,107,24,08,02,335,21,26,00,025,*79
$GPRMC,141320.000,A,6415.2082,N,02207.0838,W,9.15,271.50,060912,,,A*73
$GPGGA,141321.000,6415.2082,N,02207.0897,W,1,10,0.9,4.0,M,60.7,M,,0000*48
$GPGSA,A,3,21,05,13,30,07,18,03,19,16,06,,,1.5,0.9,1.2*3F
$GPRMC,141321.000,A,6415.2082,N,02207.0897,W,9.36,269.07,060912,,,A*7D
$GPGGA,141322.000,6415.2081,N,02207.0954,W,1,10,0.9,4.7,M,60.7,M,,0000*41
$GPGSA,A,3,21,05,13,30,07,18,03,19,16,06,,,1.5,0.9,1.3*3E
$GPRMC,141322.000,A,6415.2081,N,02207.0954,W,9.22,267.41,060912,,,A*7A
$GPGGA,141323.000,6415.2081,N,02207.1012,W,1,10,0.9,5.5,M,60.7,M,,0000*49
$GPGSA,A,3,21,05,13,30,07,18,03,19,16,06,,,1.5,0.9,1.3*3E
$GPRMC,141323.000,A,6415.2081,N,02207.1012,W,9.16,268.05,060912,,,A*79
$GPGGA,141324.000,6415.2081,N,02207.1069,W,1,10,0.9,6.4,M,60.7,M,,0000*40
$GPGSA,A,3,21,05,13,30,07,18,03,19,16,06,,,1.5,0.9,1.3*3E
$GPRMC,141324.000,A,6415.2081,N,02207.1069,W,9.12,270.25,060912,,,A*7D
$GPGGA,141325.000,6415.2083,N,02207.1124,W,1,10,0.9,7.0,M,60.7,M,,0000*4E
$GPGSA,A,3,21,05,13,30,07,18,03,19,16,06,,,1.5,0.9,1.3*3E
$GPGSV,3,1,12,16,72,178,20,06,66,215,21,03,50,237,24,21,46,081,21*78
$GPGSV,3,2,12,30,43,146,31,07,31,311,28,19,21,238,21,13,14,276,16*70
$GPGSV,3,3,12,18,10,107,26,05,10,002,27,08,03,335,08,26,00,025,*76
$GPRMC,141325.000,A,6415.2083,N,02207.1124,W,8.64,273.69,060912,,,A*7D
$GPGGA,141326.000,6415.2084,N,02207.1179,W,1,10,0.9,7.6,M,60.7,M,,0000*44
$GPGSA,A,3,21,05,13,30,07,18,03,19,16,06,,,1.5,0.9,1.3*3E
$GPRMC,141326.000,A,6415.2084,N,02207.1179,W,8.70,273.02,060912,,,A*79
$GPGGA,141327.000,6415.2085,N,02207.1235,W,1,10,0.9,8.2,M,60.7,M,,0000*44
$GPGSA,A,3,21,05,13,30,07,18,03,19,16,06,,,1.5,0.9,1.3*3E
$GPRMC,141327.000,A,6415.2085,N,02207.1235,W,8.80,273.77,060912,,,A*7F
$GPGGA,141328.000,6415.2086,N,02207.1291,W,1,10,0.9,8.7,M,60.7,M,,0000*43
$GPGSA,A,3,21,05,13,30,07,18,03,19,16,06,,,1.5,0.9,1.3*3E
$GPRMC,141328.000,A,6415.2086,N,02207.1291,W,8.90,270.63,060912,,,A*7A
$GPGGA,141329.000,6415.2086,N,02207.1348,W,1,10,0.9,9.1,M,60.7,M,,0000*40
$GPGSA,A,3,21,05,13,30,07,18,03,19,16,06,,,1.5,0.9,1.3*3E
$GPRMC,141329.000,A,6415.2086,N,02207.1348,W,8.90,272.06,060912,,,A*7F
$GPGGA,141330.000,6415.2086,N,02207.1407,W,1,10,0.9,9.4,M,60.7,M,,0000*41
$GPGSA,A,3,21,05,13,30,07,18,03,19,16,06,,,1.5,0.9,1.3*3E
$GPGSV,3,1,12,16,72,178,20,06,66,215,20,03,50,237,25,21,46,081,22*7B
$GPGSV,3,2,12,30,43,146,31,07,31,311,28,19,21,238,22,13,14,276,17*72
$GPGSV,3,3,12,18,10,107,25,05,10,002,25,08,03,335,17,26,00,025,*79
$GPRMC,141330.000,A,6415.2086,N,02207.1407,W,9.26,270.33,060912,,,A*73
$GPGGA,141331.000,6415.2085,N,02207.1466,W,1,10,0.9,9.6,M,60.7,M,,0000*46
$GPGSA,A,3,21,05,13,30,07,18,03,19,16,06,,,1.5,0.9,1.3*3E
$GPRMC,141331.000,A,6415.2085,N,02207.1466,W,9.36,268.78,060912,,,A*71
$GPGGA,141332.000,6415.2084,N,02207.1525,W,1,10,0.9,9.7,M,60.7,M,,0000*43
$GPGSA,A,3,21,05,13,30,07,18,03,19,16,06,,,1.5,0.9,1.3*3E
$GPRMC,141332.000,A,6415.2084,N,02207.1525,W,9.19,268.83,060912,,,A*7C
$GPGGA,141333.000,6415.2084,N,02207.1584,W,1,10,0.9,9.8,M,60.7,M,,0000*46
$GPGSA,A,3,21,05,13,30,07,18,03,19,16,06,,,1.5,0.9,1.3*3E
$GPRMC,141333.000,A,6415.2084,N,02207.1584,W,9.28,269.28,060912,,,A*74
$GPGGA,141334.000,6415.2082,N,02207.1644,W,1,10,0.9,9.8,M,60.7,M,,0000*48
$GPGSA,A,3,21,05,13,30,07,18,03,19,16,06,,,1.5,0.9,1.3*3E
$GPRMC,141334.000,A,6415.2082,N,02207.1644,W,9.32,267.69,060912,,,A*7A
$GPGGA,141335.000,6415.2081,N,02207.1702,W,1,10,0.9,9.7,M,60.7,M,,0000*46
$GPGSA,A,3,21,05,13,30,07,18,03,19,16,06,,,1.5,0.9,1.3*3E
$GPGSV,3,1,12,16,72,178,19,06,66,215,20,03,50,237,25,21,46,081,22*71
$GPGSV,3,2,12,30,43,146,31,07,31,311,26,19,21,238,21,13,14,276,18*70
$GPGSV,3,3,12,18,10,107,22,05,10,002,33,08,03,335,24,26,00,025,*79
$GPRMC,141335.000,A,6415.2081,N,02207.1702,W,8.83,270.24,060912,,,A*7F
$GPGGA,141336.000,6415.2080,N,02207.1763,W,1,10,0.9,9.5,M,60.7,M,,0000*41
$GPGSA,A,3,21,05,13,30,07,18,03,19,16,06,,,1.5,0.9,1.3*3E
$GPRMC,141336.000,A,6415.2080,N,02207.1763,W,9.48,269.77,060912,,,A*72
$GPGGA,141337.000,6415.2077,N,02207.1825,W,1,10,0.9,9.2,M,60.7,M,,0000*42
$GPGSA,A,3,21,05,13,30,07,18,03,19,16,06,,,1.5,0.9,1.3*3E
$GPRMC,141337.000,A,6415.2077,N,02207.1825,W,9.55,267.20,060912,,,A*76
$GPGGA,141338.000,6415.2076,N,02207.1886,W,1,10,0.9,8.9,M,60.7,M,,0000*4F
$GPGSA,A,3,21,05,13,30,07,18,03,19,16,06,,,1.5,0.9,1.3*3E
$GPRMC,141338.000,A,6415.2076,N,02207.1886,W,9.59,268.08,060912,,,A*78
$GPGGA,141339.000,6415.2074,N,02207.1947,W,1,10,0.9,8.7,M,60.7,M,,0000*4E
$GPGSA,A,3,21,05,13,30,07,18,03,19,16,06,,,1.5,0.9,1.3*3E
$GPRMC,141339.000,A,6415.2074,N,02207.1947,W,9.39,268.28,060912,,,A*73
$GPGGA,141340.000,6415.2073,N,02207.2007,W,1,10,0.9,8.7,M,60.7,M,,0000*49
$GPGSA,A,3,21,05,13,30,07,18,03,19,16,06,,,1.5,0.9,1.3*3E
$GPGSV,3,1,12,16,72,178,19,06,66,215,20,03,50,237,25,21,46,080,23*71
$GPGSV,3,2,12,30,43,146,32,07,31,311,28,19,21,238,22,13,14,276,18*7E
$GPGSV,3,3,12,18,10,107,24,05,10,002,33,08,03,335,24,26,00,025,*7F
$GPRMC,141340.000,A,6415.2073,N,02207.2007,W,9.34,269.43,060912,,,A*75
$GPGGA,141341.000,6415.2071,N,02207.2066,W,1,08,1.3,8.7,M,60.7,M,,0000*4F
$GPGSA,A,3,21,05,13,30,03,19,16,06,,,,,2.4,1.3,1.9*33
$GPRMC,141341.000,A,6415.2071,N,02207.2066,W,9.35,268.76,060912,,,A*77
$GPGGA,141342.000,6415.2070,N,02207.2128,W,1,10,0.9,8.6,M,60.7,M,,0000*45
$GPGSA,A,3,21,05,13,30,07,18,03,19,16,06,,,1.5,0.9,1.3*3E
$GPRMC,141342.000,A,6415.2070,N,02207.2128,W,9.58,267.89,060912,,,A*7A
$GPGGA,141343.000,6415.2067,N,02207.2190,W,1,10,0.9,8.3,M,60.7,M,,0000*44
$GPGSA,A,3,21,05,13,30,07,18,03,19,16,06,,,1.5,0.9,1.3*3E
$GPRMC,141343.000,A,6415.2067,N,02207.2190,W,9.62,266.56,060912,,,A*74
$GPGGA,141344.000,6415.2065,N,02207.2249,W,1,10,0.9,7.7,M,60.7,M,,0000*4D
$GPGSA,A,3,21,05,13,30,07,18,03,19,16,06,,,1.5,0.9,1.3*3E
$GPRMC,141344.000,A,6415.2065,N,02207.2249,W,9.08,267.16,060912,,,A*7F
$GPGGA,141345.000,6415.2062,N,02207.2309,W,1,10,0.9,7.3,M,60.7,M,,0000*4A
$GPGSA,A,3,21,05,13,30,07,18,03,19,16,06,,,1.5,0.9,1.3*3E
$GPGSV,3,1,12,16,72,178,19,06,66,215,20,03,50,237,25,21,46,080,23*71
$GPGSV,3,2,12,30,43,146,31,07,31,311,28,19,21,238,21,13,14,276,19*7F
$GPGSV,3,3,12,18,10,107,22,05,10,002,32,08,03,335,10,26,00,025,*7F
$GPRMC,141345.000,A,6415.2062,N,02207.2309,W,9.17,267.46,060912,,,A*77
$GPGGA,141346.000,6415.2060,N,02207.2369,W,1,10,0.9,7.0,M,60.7,M,,0000*4E
$GPGSA,A,3,21,05,13,30,07,18,03,19,16,06,,,1.5,0.9,1.3*3E
$GPRMC,141346.000,A,6415.2060,N,02207.2369,W,9.26,267.89,060912,,,A*71
$GPGGA,141347.000,6415.2059,N,02207.2431,W,1,10,0.9,6.7,M,60.7,M,,0000*49
$GPGSA,A,3,21,05,13,30,07,18,03,19,16,06,,,1.5,0.9,1.3*3E
$GPRMC,141347.000,A,6415.2059,N,02207.2431,W,9.51,270.79,060912,,,A*79
$GPGGA,141348.000,6415.2060,N,02207.2497,W,1,10,0.9,6.5,M,60.7,M,,0000*42
$GPGSA,A,3,21,05,13,30,07,18,03,19,16,06,,,1.5,0.9,1.3*3E
$GPRMC,141348.000,A,6415.2060,N,02207.2497,W,10.11,272.90,060912,,,A*49
$GPGGA,141349.000,6415.2059,N,02207.2564,W,1,10,0.9,6.2,M,60.7,M,,0000*43
$GPGSA,A,3,21,05,13,30,07,18,03,19,16,06,,,1.5,0.9,1.3*3E
$GPRMC,141349.000,A,6415.2059,N,02207.2564,W,10.22,270.73,060912,,,A*40
$GPGGA,141350.000,6415.2055,N,02207.2629,W,1,10,0.9,5.6,M,60.7,M,,0000*4A
$GPGSA,A,3,21,05,13,30,07,18,03,19,16,06,,,1.5,0.9,1.3*3E
$GPGSV,3,1,12,16,72,178,19,06,66,215,21,03,50,237,25,21,46,080,23*70
$GPGSV,3,2,12,30,43,146,31,07,31,311,28,19,21,238,22,13,14,276,19*7C
$GPGSV,3,3,12,18,10,107,26,05,10,002,29,08,03,335,22,26,00,025,*70
$GPRMC,141350.000,A,6415.2055,N,02207.2629,W,9.96,264.84,060912,,,A*74
$GPGGA,141351.000,6415.2052,N,02207.2691,W,1,10,0.9,5.3,M,60.7,M,,0000*4A
$GPGSA,A,3,21,05,13,30,07,18,03,19,16,06,,,1.5,0.9,1.3*3E
$GPRMC,141351.000,A,6415.2052,N,02207.2691,W,9.43,266.51,060912,,,A*73
$GPGGA,141352.000,6415.2052,N,02207.2756,W,1,09,1.1,5.0,M,60.7,M,,0000*41
$GPGSA,A,3,21,05,13,30,07,03,19,16,06,,,,2.1,1.1,1.8*32
$GPRMC,141352.000,A,6415.2052,N,02207.2756,W,10.01,271.34,060912,,,A*41
$GPGGA,141353.000,6415.2051,N,02207.2812,W,1,09,1.1,4.5,M,60.7,M,,0000*48
$GPGSA,A,3,21,05,13,30,07,03,19,16,06,,,,2.1,1.1,1.8*32
$GPRMC,141353.000,A,6415.2051,N,02207.2812,W,8.54,270.05,060912,,,A*76
$GPGGA,141354.000,6415.2049,N,02207.2865,W,1,09,1.1,4.0,M,60.7,M,,0000*43
$GPGSA,A,3,21,05,13,30,07,03,19,16,06,,,,2.1,1.1,1.8*32
$GPRMC,141354.000,A,6415.2049,N,02207.2865,W,8.15,271.30,060912,,,A*7A
$GPGGA,141355.000,6415.2048,N,02207.2921,W,1,10,0.9,3.4,M,60.7,M,,0000*40
$GPGSA,A,3,21,05,13,30,07,18,03,19,16,06,,,1.5,0.9,1.3*3E
$GPGSV,3,1,12,16,72,178,19,06,66,215,21,03,50,237,25,21,46,080,23*70
$GPGSV,3,2,12,30,43,146,31,07,31,311,27,19,21,238,22,13,14,276,18*72
$GPGSV,3,3,12,18,10,107,22,05,10,002,31,08,03,335,18,26,00,025,*74
$GPRMC,141355.000,A,6415.2048,N,02207.2921,W,8.62,270.83,060912,,,A*72
$GPGGA,141356.000,6415.2047,N,02207.2980,W,1,10,0.9,2.7,M,60.7,M,,0000*45
$GPGSA,A,3,21,05,13,30,07,18,03,19,16,06,,,1.5,0.9,1.3*3E
$GPRMC,141356.000,A,6415.2047,N,02207.2980,W,9.27,271.19,060912,,,A*77
$GPGGA,141357.000,6415.2045,N,02207.3039,W,1,10,0.9,2.0,M,60.7,M,,0000*4B
$GPGSA,A,3,21,05,13,30,07,18,03,19,16,06,,,1.5,0.9,1.3*3E
$GPRMC,141357.000,A,6415.2045,N,02207.3039,W,9.38,268.94,060912,,,A*7D
$GPGGA,141358.000,6415.2042,N,02207.3100,W,1,10,0.9,1.3,M,60.7,M,,0000*48
$GPGSA,A,3,21,05,13,30,07,18,03,19,16,06,,,1.5,0.9,1.3*3E
$GPRMC,141358.000,A,6415.2042,N,02207.3100,W,9.54,267.64,060912,,,A*74
$GPGGA,141359.000,6415.2038,N,02207.3159,W,1,10,0.9,0.7,M,60.7,M,,0000*4D
$GPGSA,A,3,21,05,13,30,07,18,03,19,16,06,,,1.5,0.9,1.3*3E
$GPRMC,141359.000,A,6415.2038,N,02207.3159,W,9.18,265.60,060912,,,A*7A
$GPGGA,141400.000,6415.2034,N,02207.3217,W,1,10,0.9,0.2,M,60.7,M,,0000*46
$GPGSA,A,3,21,05,13,30,07,18,03,19,16,06,,,1.5,0.9,1.3*3E
$GPGSV,3,1,12,16,72,178,19,06,66,215,21,03,50,237,25,21,46,080,23*70
$GPGSV,3,2,12,30,43,146,31,07,31,311,27,19,21,238,22,13,14,276,18*72
$GPGSV,3,3,12,18,10,107,23,05,10,002,31,08,03,335,18,26,00,025,*75
$GPRMC,141400.000,A,6415.2034,N,02207.3217,W,8.98,265.70,060912,,,A*7C
$GPGGA,141401.000,6415.2033,N,02207.3276,W,1,10,0.9,-0.2,M,60.7,M,,0000*6A
$GPGSA,A,3,21,05,13,30,07,18,03,19,16,06,,,1.5,0.9,1.3*3E
$GPRMC,141401.000,A,6415.2033,N,02207.3276,W,8.79,270.64,060912,,,A*73
$GPGGA,141402.000,6415.2032,N,02207.3332,W,1,10,0.9,-0.7,M,60.7,M,,0000*6C
$GPGSA,A,3,21,05,13,30,07,18,03,19,16,06,,,1.5,0.9,1.3*3E
$GPRMC,141402.000,A,6415.2032,N,02207.3332,W,8.45,272.97,060912,,,A*71
$GPGGA,141403.000,6415.2032,N,02207.3387,W,1,10,0.9,-1.2,M,60.7,M,,0000*67
$GPGSA,A,3,21,05,13,30,07,18,03,19,16,06,,,1.5,0.9,1.3*3E
$GPRMC,141403.000,A,6415.2032,N,02207.3387,W,8.37,272.08,060912,,,A*7D
$GPGGA,141404.000,6415.2031,N,02207.3443,W,1,10,0.9,-1.6,M,60.7,M,,0000*68
$GPGSA,A,3,21,05,13,30,07,18,03,19,16,06,,,1.5,0.9,1.3*3E
$GPRMC,141404.000,A,6415.2031,N,02207.3443,W,8.69,269.57,060912,,,A*7D
$GPGGA,141405.000,6415.2029,N,02207.3500,W,1,10,0.9,-2.2,M,60.7,M,,0000*61
$GPGSA,A,3,21,05,13,30,07,18,03,19,16,06,,,1.5,0.9,1.3*3E
$GPGSV,3,1,12,16,72,178,19,06,66,215,21,03,50,237,25,21,46,080,22*71
$GPGSV,3,2,12,30,43,146,31,07,31,311,27,19,21,238,22,13,14,276,18*72
$GPGSV,3,3,12,18,10,107,21,05,10,002,32,08,03,335,26,26,00,025,*79
$GPRMC,141405.000,A,6415.2029,N,02207.3500,W,8.64,267.69,060912,,,A*7D
$GPGGA,141406.000,6415.2026,N,02207.3553,W,1,10,0.9,-2.8,M,60.7,M,,0000*61
$GPGSA,A,3,21,05,13,30,07,18,03,19,16,06,,,1.5,0.9,1.3*3E
$GPRMC,141406.000,A,6415.2026,N,02207.3553,W,8.20,265.44,060912,,,A*7A
$GPGGA,141407.000,6415.2025,N,02207.3607,W,1,10,0.9,-3.4,M,60.7,M,,0000*6C
$GPGSA,A,3,21,05,13,30,07,18,03,19,16,06,,,1.5,0.9,1.3*3E
$GPRMC,141407.000,A,6415.2025,N,02207.3607,W,8.16,269.43,060912,,,A*74
$GPGGA,141408.000,6415.2023,N,02207.3666,W,1,10,0.9,-4.0,M,60.7,M,,0000*61
$GPGSA,A,3,21,05,13,30,07,18,03,19,16,06,,,1.5,0.9,1.3*3E
$GPRMC,141408.000,A,6415.2023,N,02207.3666,W,9.01,267.51,060912,,,A*70
$GPGGA,141409.000,6415.2021,N,02207.3721,W,1,10,0.9,-4.7,M,60.7,M,,0000*67
$GPGSA,A,3,21,05,13,30,07,18,03,19,16,06,,,1.5,0.9,1.3*3E
$GPRMC,141409.000,A,6415.2021,N,02207.3721,W,8.35,267.31,060912,,,A*71
$GPGGA,141410.000,6415.2019,N,02207.3778,W,1,10,0.9,-5.3,M,60.7,M,,0000*6D
$GPGSA,A,3,21,05,13,30,07,18,03,19,16,06,,,1.5,0.9,1.3*3E
$GPGSV,3,1,12,16,72,178,19,06,66,215,21,03,50,237,25,21,46,080,23*70
$GPGSV,3,2,12,30,43,146,31,07,31,311,27,19,21,238,21,13,14,276,17*7E
$GPGSV,3,3,12,18,10,107,24,05,10,002,32,08,03,335,23,26,00,025,*79
$GPRMC,141410.000,A,6415.2019,N,02207.3778,W,8.78,266.12,060912,,,A*77
$GPGGA,141411.000,6415.2017,N,02207.3835,W,1,10,0.9,-5.7,M,60.7,M,,0000*60
$GPGSA,A,3,21,05,13,30,07,18,03,19,16,06,,,1.5,0.9,1.3*3E
$GPRMC,141411.000,A,6415.2017,N,02207.3835,W,8.56,267.24,060912,,,A*76
$GPGGA,141412.000,6415.2017,N,02207.3891,W,1,10,0.9,-6.2,M,60.7,M,,0000*6B
$GPGSA,A,3,21,05,13,30,07,18,03,19,16,06,,,1.5,0.9,1.3*3E
$GPRMC,141412.000,A,6415.2017,N,02207.3891,W,8.34,270.98,060912,,,A*7E
$GPGGA,141413.000,6415.2016,N,02207.3952,W,1,10,0.9,-6.8,M,60.7,M,,0000*6F
$GPGSA,A,3,21,05,13,30,07,18,03,19,16,06,,,1.5,0.9,1.3*3E
$GPRMC,141413.000,A,6415.2016,N,02207.3952,W,9.10,271.27,060912,,,A*72
$GPGGA,141414.000,6415.2014,N,02207.4016,W,1,10,0.9,-7.5,M,60.7,M,,0000*68
$GPGSA,A,3,21,05,13,30,07,18,03,19,16,06,,,1.5,0.9,1.3*3E
$GPRMC,141414.000,A,6415.2014,N,02207.4016,W,9.72,266.01,060912,,,A*7F
$GPGGA,141415.000,6415.2011,N,02207.4081,W,1,10,0.9,-8.1,M,60.7,M,,0000*69
$GPGSA,A,3,21,05,13,30,07,18,03,19,16,06,,,1.5,0.9,1.3*3E
$GPGSV,3,1,12,16,72,178,20,06,66,215,21,03,50,237,25,21,46,080,22*7B
$GPGSV,3,2,12,30,43,146,31,07,31,311,27,19,21,238,22,13,14,276,18*72
$GPGSV,3,3,12,18,10,107,26,05,10,002,24,08,03,335,23,26,00,025,*7C
$GPRMC,141415.000,A,6415.2011,N,02207.4081,W,9.78,266.36,060912,,,A*7B
$GPGGA,141416.000,6415.2008,N,02207.4141,W,1,10,0.9,-8.4,M,60.7,M,,0000*6A
$GPGSA,A,3,21,05,13,30,07,18,03,19,16,06,,,1.5,0.9,1.3*3E
$GPRMC,141416.000,A,6415.2008,N,02207.4141,W,9.34,263.98,060912,,,A*74
$GPGGA,141417.000,6415.2004,N,02207.4197,W,1,10,0.9,-8.8,M,60.7,M,,0000*60
$GPGSA,A,3,21,05,13,30,07,18,03,19,16,06,,,1.5,0.9,1.3*3E
$GPRMC,141417.000,A,6415.2004,N,02207.4197,W,8.59,262.08,060912,,,A*70
$GPGGA,141418.000,6415.2002,N,02207.4254,W,1,10,0.9,-9.1,M,60.7,M,,0000*6D
$GPGSA,A,3,21,05,13,30,07,18,03,19,16,06,,,1.5,0.9,1.3*3E
$GPRMC,141418.000,A,6415.2002,N,02207.4254,W,8.86,266.53,060912,,,A*7D
$GPGGA,141419.000,6415.2001,N,02207.4311,W,1,10,0.9,-9.4,M,60.7,M,,0000*6A
$GPGSA,A,3,21,05,13,30,07,18,03,19,16,06,,,1.5,0.9,1.3*3E
$GPRMC,141419.000,A,6415.2001,N,02207.4311,W,8.74,268.91,060912,,,A*72
$GPGGA,141420.000,6415.2002,N,02207.4364,W,1,10,0.9,-9.7,M,60.7,M,,0000*62
$GPGSA,A,3,21,05,13,30,07,18,03,19,16,06,,,1.5,0.9,1.3*3E
$GPGSV,3,1,12,16,72,178,19,06,66,215,21,03,50,237,24,21,46,080,23*71
$GPGSV,3,2,12,30,43,146,31,07,31,311,27,19,21,238,21,13,14,276,18*71
$GPGSV,3,3,12,18,10,107,26,05,10,002,33,08,03,335,27,26,00,025,*7E
$GPRMC,141420.000,A,6415.2002,N,02207.4364,W,8.19,271.38,060912,,,A*79
$GPGGA,141421.000,6415.2001,N,02207.4422,W,1,10,0.9,-10.1,M,60.7,M,,0000*5B
$GPGSA,A,3,21,05,13,30,07,18,03,19,16,06,,,1.5,0.9,1.3*3E
$GPRMC,141421.000,A,6415.2001,N,02207.4422,W,9.11,268.36,060912,,,A*71
$GPGGA,141422.000,6415.1998,N,02207.4484,W,1,10,0.9,-10.6,M,60.7,M,,0000*59
$GPGSA,A,3,21,05,13,30,07,18,03,19,16,06,,,1.5,0.9,1.3*3E
$GPRMC,141422.000,A,6415.1998,N,02207.4484,W,9.75,265.30,060912,,,A*7D
$GPGGA,141423.000,6415.1994,N,02207.4545,W,1,10,0.9,-11.1,M,60.7,M,,0000*5E
$GPGSA,A,3,21,05,13,30,07,18,03,19,16,06,,,1.5,0.9,1.3*3E
$GPRMC,141423.000,A,6415.1994,N,02207.4545,W,9.56,261.14,060912,,,A*7F
$GPGGA,141424.000,6415.1991,N,02207.4604,W,1,10,0.9,-11.6,M,60.7,M,,0000*5D
$GPGSA,A,3,21,05,13,30,07,18,03,19,16,06,,,1.5,0.9,1.3*3E
$GPRMC,141424.000,A,6415.1991,N,02207.4604,W,9.12,263.24,060912,,,A*7A
$GPGGA,141425.000,6415.1988,N,02207.4661,W,1,10,0.9,-11.8,M,60.7,M,,0000*59
$GPGSA,A,3,21,05,13,30,07,18,03,19,16,06,,,1.5,0.9,1.3*3E
$GPGSV,3,1,12,16,72,178,19,06,66,215,20,03,50,237,24,21,46,080,23*70
$GPGSV,3,2,12,30,43,146,30,07,31,311,28,19,21,238,21,13,14,276,18*7F
$GPGSV,3,3,12,18,10,107,27,05,10,002,30,08,03,335,26,26,00,025,*7D
$GPRMC,141425.000,A,6415.1988,N,02207.4661,W,8.95,263.45,060912,,,A*79
$GPGGA,141426.000,6415.1986,N,02207.4716,W,1,10,0.9,-11.9,M,60.7,M,,0000*54
$GPGSA,A,3,21,05,13,30,07,18,03,19,16,06,,,1.5,0.9,1.3*3E
$GPRMC,141426.000,A,6415.1986,N,02207.4716,W,8.65,265.98,060912,,,A*7C
$GPGGA,141427.000,6415.1985,N,02207.4773,W,1,10,0.9,-12.0,M,60.7,M,,0000*5F
$GPGSA,A,3,21,05,13,30,07,18,03,19,16,06,,,1.5,0.9,1.3*3E
$GPRMC,141427.000,A,6415.1985,N,02207.4773,W,8.82,267.48,060912,,,A*7B
$GPGGA,141428.000,6415.1985,N,02207.4825,W,1,10,0.9,-12.1,M,60.7,M,,0000*5D
$GPGSA,A,3,21,05,13,30,07,18,03,19,16,06,,,1.5,0.9,1.3*3E
$GPRMC,141428.000,A,6415.1985,N,02207.4825,W,8.08,269.76,060912,,,A*79
$GPGGA,141429.000,6415.1985,N,02207.4878,W,1,10,0.9,-12.0,M,60.7,M,,0000*55
$GPGSA,A,3,21,05,13,30,07,18,03,19,16,06,,,1.5,0.9,1.3*3E
$GPRMC,141429.000,A,6415.1985,N,02207.4878,W,8.16,270.31,060912,,,A*74
$GPGGA,141430.000,6415.1985,N,02207.4935,W,1,10,0.9,-11.6,M,60.7,M,,0000*50
$GPGSA,A,3,21,05,13,30,07,18,03,19,16,06,,,1.5,0.9,1.3*3E
$GPGSV,3,1,12,16,72,178,19,06,66,215,20,03,50,237,25,21,46,080,22*70
$GPGSV,3,2,12,30,43,146,31,07,31,311,28,19,21,238,21,13,14,276,18*7E
$GPGSV,3,3,12,18,10,107,24,05,10,002,28,08,03,335,23,26,00,025,*72
$GPRMC,141430.000,A,6415.1985,N,02207.4935,W,8.83,268.84,060912,,,A*7F
$GPGGA,141431.000,6415.1984,N,02207.4993,W,1,10,0.9,-11.3,M,60.7,M,,0000*59
$GPGSA,A,3,21,05,13,30,07,18,03,19,16,06,,,1.5,0.9,1.3*3E
$GPRMC,141431.000,A,6415.1984,N,02207.4993,W,8.98,266.64,060912,,,A*79
$GPGGA,141432.000,6415.1984,N,02207.5050,W,1,10,0.9,-11.0,M,60.7,M,,0000*5E
$GPGSA,A,3,21,05,13,30,07,18,03,19,16,06,,,1.5,0.9,1.3*3E
$GPRMC,141432.000,A,6415.1984,N,02207.5050,W,9.02,270.92,060912,,,A*71
$GPGGA,141433.000,6415.1986,N,02207.5107,W,1,10,0.9,-10.6,M,60.7,M,,0000*59
$GPGSA,A,3,21,05,13,30,07,18,03,19,16,06,,,1.5,0.9,1.3*3E
$GPRMC,141433.000,A,6415.1986,N,02207.5107,W,8.94,271.17,060912,,,A*73
$GPGGA,141434.000,6415.1986,N,02207.5162,W,1,10,0.9,-10.1,M,60.7,M,,0000*5A
$GPGSA,A,3,21,05,13,30,07,18,03,19,16,06,,,1.5,0.9,1.3*3E
$GPRMC,141434.000,A,6415.1986,N,02207.5162,W,8.78,269.40,060912,,,A*7E
$GPGGA,141435.000,6415.1987,N,02207.5211,W,1,10,0.9,-9.5,M,60.7,M,,0000*61
$GPGSA,A,3,21,05,13,30,07,18,03,19,16,06,,,1.5,0.9,1.3*3E
$GPGSV,3,1,12,16,72,177,19,06,66,215,20,03,51,237,25,21,46,080,22*7E
$GPGSV,3,2,12,30,42,146,32,07,31,310,28,19,21,238,21,13,14,276,18*7D
$GPGSV,3,3,12,18,10,106,23,05,09,002,25,08,03,335,23,26,00,025,*71
$GPRMC,141435.000,A,6415.1987,N,02207.5211,W,7.81,269.61,060912,,,A*73
$GPGGA,141436.000,6415.1987,N,02207.5265,W,1,10,0.9,-8.8,M,60.7,M,,0000*6D
$GPGSA,A,3,21,05,13,30,07,18,03,19,16,06,,,1.5,0.9,1.3*3E
$GPRMC,141436.000,A,6415.1987,N,02207.5265,W,8.58,270.06,060912,,,A*71
$GPGGA,141437.000,6415.1989,N,02207.5320,W,1,10,0.9,-8.1,M,60.7,M,,0000*6B
$GPGSA,A,3,21,05,13,30,07,18,03,19,16,06,,,1.6,0.9,1.3*3D
$GPRMC,141437.000,A,6415.1989,N,02207.5320,W,8.73,270.78,060912,,,A*7E
$GPGGA,141438.000,6415.1988,N,02207.5374,W,1,10,0.9,-7.5,M,60.7,M,,0000*6F
$GPGSA,A,3,21,05,13,30,07,18,03,19,16,06,,,1.6,0.9,1.3*3D
$GPRMC,141438.000,A,6415.1988,N,02207.5374,W,8.71,268.29,060912,,,A*7E
$GPGGA,141439.000,6415.1988,N,02207.5429,W,1,10,0.9,-6.9,M,60.7,M,,0000*6C
$GPGSA,A,3,21,05,13,30,07,18,03,19,16,06,,,1.6,0.9,1.3*3D
$GPRMC,141439.000,A,6415.1988,N,02207.5429,W,8.83,267.77,060912,,,A*79
$GPGGA,141440.000,6415.1988,N,02207.5483,W,1,10,0.9,-6.2,M,60.7,M,,0000*69
$GPGSA,A,3,21,05,13,30,07,18,03,19,16,06,,,1.6,0.9,1.3*3D
$GPGSV,3,1,12,16,72,177,19,06,66,215,20,03,51,237,25,21,46,080,26*7A
$GPGSV,3,2,12,30,42,146,32,07,31,310,25,19,21,238,21,13,14,276,19*71
$GPGSV,3,3,12,18,10,106,29,05,09,002,29,08,03,335,25,26,00,025,*71
$GPRMC,141440.000,A,6415.1988,N,02207.5483,W,8.38,268.52,060912,,,A*7F
$GPGGA,141441.000,6415.1988,N,02207.5538,W,1,10,0.9,-5.6,M,60.7,M,,0000*6E
$GPGSA,A,3,21,05,13,30,07,18,03,19,16,06,,,1.6,0.9,1.3*3D
$GPRMC,141441.000,A,6415.1988,N,02207.5538,W,8.59,266.97,060912,,,A*7F
$GPGGA,141442.000,6415.1987,N,02207.5594,W,1,10,0.9,-5.0,M,60.7,M,,0000*62
$GPGSA,A,3,21,05,13,30,07,18,03,19,16,06,,,1.6,0.9,1.3*3D
$GPRMC,141442.000,A,6415.1987,N,02207.5594,W,8.82,267.30,060912,,,A*7F
$GPGGA,141443.000,6415.1987,N,02207.5649,W,1,10,0.9,-4.4,M,60.7,M,,0000*65
$GPGSA,A,3,21,05,13,30,07,18,03,19,16,06,,,1.6,0.9,1.3*3D
$GPRMC,141443.000,A,6415.1987,N,02207.5649,W,8.50,269.00,060912,,,A*7F
$GPGGA,141444.000,6415.1987,N,02207.5704,W,1,10,0.9,-3.9,M,60.7,M,,0000*60
$GPGSA,A,3,21,05,13,30,07,18,03,19,16,06,,,1.6,0.9,1.3*3D
$GPRMC,141444.000,A,6415.1987,N,02207.5704,W,8.39,269.88,060912,,,A*7F
$GPGGA,141445.000,6415.1987,N,02207.5759,W,1,09,1.1,-3.5,M,60.7,M,,0000*64
$GPGSA,A,3,21,13,30,07,18,03,19,16,06,,,,1.7,1.1,1.3*30
$GPGSV,3,1,12,16,72,177,19,06,66,215,20,03,51,237,25,21,46,080,24*78
$GPGSV,3,2,12,30,42,146,31,07,31,310,26,19,21,238,21,13,14,276,18*70
$GPGSV,3,3,12,18,10,106,27,05,09,002,31,08,03,335,21,26,00,025,*72
$GPRMC,141445.000,A,6415.1987,N,02207.5759,W,8.35,271.17,060912,,,A*75
$GPGGA,141446.000,6415.1986,N,02207.5818,W,1,09,1.1,-3.3,M,60.7,M,,0000*6A
$GPGSA,A,3,21,13,30,07,18,03,19,16,06,,,,1.7,1.1,1.3*30
$GPRMC,141446.000,A,6415.1986,N,02207.5818,W,9.16,267.67,060912,,,A*7D
$GPGGA,141447.000,6415.1985,N,02207.5879,W,1,09,1.1,-3.1,M,60.7,M,,0000*6D
$GPGSA,A,3,21,13,30,07,18,03,19,16,06,,,,1.7,1.1,1.3*30
$GPRMC,141447.000,A,6415.1985,N,02207.5879,W,9.40,266.61,060912,,,A*7C
$GPGGA,141448.000,6415.1984,N,02207.5940,W,1,09,1.1,-3.0,M,60.7,M,,0000*69
$GPGSA,A,3,21,13,30,07,18,03,19,16,06,,,,1.7,1.1,1.3*30
$GPRMC,141448.000,A,6415.1984,N,02207.5940,W,9.45,268.13,060912,,,A*77
$GPGGA,141449.000,6415.1981,N,02207.6000,W,1,08,1.3,-3.2,M,60.7,M,,0000*62
$GPGSA,A,3,21,13,30,07,03,19,16,06,,,,,2.4,1.3,2.0*3B
$GPRMC,141449.000,A,6415.1981,N,02207.6000,W,9.26,264.25,060912,,,A*71
$GPGGA,141450.000,6415.1978,N,02207.6060,W,1,08,1.3,-3.5,M,60.7,M,,0000*6D
$GPGSA,A,3,21,13,30,07,03,19,16,06,,,,,2.4,1.3,2.0*3B
$GPGSV,3,1,12,16,72,177,19,06,66,215,20,03,51,237,24,21,46,080,23*7E
$GPGSV,3,2,12,30,42,146,31,07,31,310,28,19,21,238,19,13,14,276,17*7A
$GPGSV,3,3,12,18,10,106,,05,09,002,30,08,03,335,22,26,00,025,*75
$GPRMC,141450.000,A,6415.1978,N,02207.6060,W,9.23,261.86,060912,,,A*70
$GPGGA,141451.000,6415.1978,N,02207.6115,W,1,09,1.1,-3.8,M,60.7,M,,0000*61
$GPGSA,A,3,21,13,30,07,18,03,19,16,06,,,,1.7,1.1,1.3*30
$GPRMC,141451.000,A,6415.1978,N,02207.6115,W,8.35,269.29,060912,,,A*79
$GPGGA,141452.000,6415.1977,N,02207.6174,W,1,09,1.1,-4.1,M,60.7,M,,0000*64
$GPGSA,A,3,21,13,30,07,18,03,19,16,06,,,,1.7,1.1,1.3*30
$GPRMC,141452.000,A,6415.1977,N,02207.6174,W,9.00,268.91,060912,,,A*77
$GPGGA,141453.000,6415.1977,N,02207.6229,W,1,09,1.1,-4.3,M,60.7,M,,0000*6C
$GPGSA,A,3,21,13,30,07,18,03,19,16,06,,,,1.7,1.1,1.3*30
$GPRMC,141453.000,A,6415.1977,N,02207.6229,W,8.53,268.31,060912,,,A*70
$GPGGA,141454.000,6415.1974,N,02207.6287,W,1,09,1.1,-4.6,M,60.7,M,,0000*69
$GPGSA,A,3,21,13,30,07,18,03,19,16,06,,,,1.7,1.1,1.3*30
$GPRMC,141454.000,A,6415.1974,N,02207.6287,W,8.97,264.16,060912,,,A*71
$GPGGA,141455.000,6415.1972,N,02207.6344,W,1,09,1.1,-4.7,M,60.7,M,,0000*61
$GPGSA,A,3,21,13,30,07,18,03,19,16,06,,,,1.7,1.1,1.3*30
$GPGSV,3,1,12,16,72,177,20,06,66,215,20,03,51,237,24,21,46,080,23*74
$GPGSV,3,2,12,30,42,146,31,07,31,310,26,19,21,238,20,13,14,276,17*7E
$GPGSV,3,3,12,18,10,106,25,05,09,002,29,08,03,335,26,26,00,025,*7E
$GPRMC,141455.000,A,6415.1972,N,02207.6344,W,8.88,262.98,060912,,,A*76
$GPGGA,141456.000,6415.1971,N,02207.6398,W,1,09,1.1,-4.6,M,60.7,M,,0000*61
$GPGSA,A,3,21,13,30,07,18,03,19,16,06,,,,1.7,1.1,1.3*30
$GPRMC,141456.000,A,6415.1971,N,02207.6398,W,8.33,267.49,060912,,,A*7E
$GPGGA,141457.000,6415.1970,N,02207.6453,W,1,09,1.1,-4.7,M,60.7,M,,0000*60
$GPGSA,A,3,21,13,30,07,18,03,19,16,06,,,,1.7,1.1,1.3*30
$GPRMC,141457.000,A,6415.1970,N,02207.6453,W,8.36,267.26,060912,,,A*72
$GPGGA,141458.000,6415.1969,N,02207.6509,W,1,09,1.1,-4.8,M,60.7,M,,0000*66
$GPGSA,A,3,21,13,30,07,18,03,19,16,06,,,,1.7,1.1,1.3*30
$GPRMC,141458.000,A,6415.1969,N,02207.6509,W,8.42,268.19,060912,,,A*7B
$GPGGA,141459.000,6415.1966,N,02207.6567,W,1,09,1.1,-5.0,M,60.7,M,,0000*69
$GPGSA,A,3,21,13,30,07,18,03,19,16,06,,,,1.7,1.1,1.3*30
$GPRMC,141459.000,A,6415.1966,N,02207.6567,W,8.76,263.86,060912,,,A*77
$GPGGA,141500.000,6415.1960,N,02207.6630,W,1,09,1.1,-5.2,M,60.7,M,,0000*61
$GPGSA,A,3,21,13,30,07,18,03,19,16,06,,,,1.7,1.1,1.3*30
$GPGSV,3,1,12,16,72,177,20,06,66,215,20,03,51,237,24,21,46,080,24*73
$GPGSV,3,2,12,30,42,146,31,07,31,310,26,19,21,238,20,13,14,276,17*7E
$GPGSV,3,3,12,18,10,106,29,05,09,002,31,08,03,335,26,26,00,025,*7B
$GPRMC,141500.000,A,6415.1960,N,02207.6630,W,9.59,258.09,060912,,,A*7E
$GPGGA,141501.000,6415.1958,N,02207.6692,W,1,09,1.1,-5.4,M,60.7,M,,0000*65
$GPGSA,A,3,21,13,30,07,18,03,19,16,06,,,,1.7,1.1,1.3*30
$GPRMC,141501.000,A,6415.1958,N,02207.6692,W,9.33,266.49,060912,,,A*79
$GPGGA,141502.000,6415.1954,N,02207.6756,W,1,09,1.1,-5.8,M,60.7,M,,0000*6F
$GPGSA,A,3,21,13,30,07,18,03,19,16,06,,,,1.7,1.1,1.3*30
$GPRMC,141502.000,A,6415.1954,N,02207.6756,W,9.52,264.93,060912,,,A*7D
$GPGGA,141503.000,6415.1950,N,02207.6820,W,1,09,1.1,-6.2,M,60.7,M,,0000*6D
$GPGSA,A,3,21,13,30,07,18,03,19,16,06,,,,1.7,1.1,1.3*30
$GPRMC,141503.000,A,6415.1950,N,02207.6820,W,9.47,264.00,060912,,,A*78
$GPGGA,141504.000,6415.1949,N,02207.6879,W,1,09,1.1,-6.6,M,60.7,M,,0000*6A
$GPGSA,A,3,21,13,30,07,18,03,19,16,06,,,,1.7,1.1,1.3*30
$GPRMC,141504.000,A,6415.1949,N,02207.6879,W,8.74,268.32,060912,,,A*77
$GPGGA,141505.000,6415.1948,N,02207.6935,W,1,09,1.1,-6.8,M,60.7,M,,0000*6D
$GPGSA,A,3,21,13,30,07,18,03,19,16,06,,,,1.7,1.1,1.3*30
$GPGSV,3,1,12,16,72,177,21,06,66,215,19,03,51,237,26,21,46,080,22*7C
$GPGSV,3,2,12,30,42,146,30,07,31,310,27,19,21,238,20,13,14,276,17*7E
$GPGSV,3,3,12,18,10,106,29,05,09,002,31,08,03,335,23,26,00,025,*7E
$GPRMC,141505.000,A,6415.1948,N,02207.6935,W,8.39,268.41,060912,,,A*73
$GPGGA,141506.000,6415.1948,N,02207.6990,W,1,09,1.1,-7.1,M,60.7,M,,0000*69
$GPGSA,A,3,21,13,30,07,18,03,19,16,06,,,,1.7,1.1,1.3*30
$GPRMC,141506.000,A,6415.1948,N,02207.6990,W,8.27,272.64,060912,,,A*7C
$GPGGA,141507.000,6415.1945,N,02207.7047,W,1,09,1.1,-7.5,M,60.7,M,,0000*63
$GPGSA,A,3,21,13,30,07,18,03,19,16,06,,,,1.7,1.1,1.3*30
$GPRMC,141507.000,A,6415.1945,N,02207.7047,W,8.62,266.16,060912,,,A*73
$GPGGA,141508.000,6415.1940,N,02207.7109,W,1,09,1.1,-7.8,M,60.7,M,,0000*6F
$GPGSA,A,3,21,13,30,07,18,03,19,16,06,,,,1.7,1.1,1.3*30
$GPRMC,141508.000,A,6415.1940,N,02207.7109,W,9.44,259.59,060912,,,A*70
$GPGGA,141509.000,6415.1936,N,02207.7170,W,1,09,1.1,-7.9,M,60.7,M,,0000*60
$GPGSA,A,3,21,13,30,07,18,03,19,16,06,,,,1.7,1.1,1.3*30
$GPRMC,141509.000,A,6415.1936,N,02207.7170,W,9.42,264.06,060912,,,A*7C
$GPGGA,141510.000,6415.1934,N,02207.7228,W,1,09,1.1,-8.0,M,60.7,M,,0000*62
$GPGSA,A,3,21,13,30,07,18,03,19,16,06,,,,1.7,1.1,1.3*30
$GPGSV,3,1,12,16,72,177,21,06,66,215,22,03,51,237,25,21,46,080,22*77
$GPGSV,3,2,12,30,42,146,30,07,31,310,26,19,21,238,20,13,14,276,17*7F
$GPGSV,3,3,12,18,10,106,29,05,09,002,31,08,03,335,23,26,00,025,*7E
$GPRMC,141510.000,A,6415.1934,N,02207.7228,W,8.87,267.59,060912,,,A*79
$GPGGA,141511.000,6415.1933,N,02207.7284,W,1,09,1.1,-8.1,M,60.7,M,,0000*63
$GPGSA,A,3,21,13,30,07,18,03,19,16,06,,,,1.7,1.1,1.3*30
$GPRMC,141511.000,A,6415.1933,N,02207.7284,W,8.52,267.80,060912,,,A*75
$GPGGA,141512.000,6415.1929,N,02207.7341,W,1,09,1.1,-8.0,M,60.7,M,,0000*62
$GPGSA,A,3,21,13,30,07,18,03,19,16,06,,,,1.7,1.1,1.3*30
$GPRMC,141512.000,A,6415.1929,N,02207.7341,W,8.78,263.68,060912,,,A*7F
$GPGGA,141513.000,6415.1926,N,02207.7396,W,1,09,1.1,-7.8,M,60.7,M,,0000*61
$GPGSA,A,3,21,13,30,07,18,03,19,16,06,,,,1.7,1.1,1.3*30
$GPRMC,141513.000,A,6415.1926,N,02207.7396,W,8.51,264.91,060912,,,A*71
$GPGGA,141514.000,6415.1923,N,02207.7450,W,1,09,1.1,-7.5,M,60.7,M,,0000*63
$GPGSA,A,3,21,13,30,07,18,03,19,16,06,,,,1.7,1.1,1.3*30
$GPRMC,141514.000,A,6415.1923,N,02207.7450,W,8.32,265.18,060912,,,A*7B
$GPGGA,141515.000,6415.1919,N,02207.7506,W,1,09,1.1,-7.2,M,60.7,M,,0000*6E
$GPGSA,A,3,21,13,30,07,18,03,19,16,06,,,,1.7,1.1,1.3*30
$GPGSV,3,1,12,16,72,177,20,06,66,215,20,03,51,237,25,21,46,080,23*75
$GPGSV,3,2,12,30,42,146,31,07,31,310,25,19,21,238,20,13,14,276,17*7D
$GPGSV,3,3,12,18,10,106,32,05,09,002,28,08,03,335,23,26,00,025,*7C
$GPRMC,141515.000,A,6415.1919,N,02207.7506,W,8.74,264.09,060912,,,A*72
$GPGGA,141516.000,6415.1916,N,02207.7567,W,1,09,1.1,-7.0,M,60.7,M,,0000*67
$GPGSA,A,3,21,13,30,07,18,03,19,16,06,,,,1.7,1.1,1.3*30
$GPRMC,141516.000,A,6415.1916,N,02207.7567,W,9.29,263.69,060912,,,A*71
$GPGGA,141517.000,6415.1912,N,02207.7628,W,1,09,1.1,-6.7,M,60.7,M,,0000*6C
$GPGSA,A,3,21,13,30,07,18,03,19,16,06,,,,1.7,1.1,1.3*30
$GPRMC,141517.000,A,6415.1912,N,02207.7628,W,9.51,261.87,060912,,,A*71
$GPGGA,141518.000,6415.1907,N,02207.7689,W,1,09,1.2,-6.5,M,60.7,M,,0000*6D
$GPGSA,A,3,21,13,30,07,18,03,19,16,06,,,,1.7,1.2,1.3*33
$GPRMC,141518.000,A,6415.1907,N,02207.7689,W,9.62,260.15,060912,,,A*7B
$GPGGA,141519.000,6415.1905,N,02207.7746,W,1,09,1.2,-6.3,M,60.7,M,,0000*6A
$GPGSA,A,3,21,13,30,07,18,03,19,16,06,,,,1.7,1.2,1.3*33
$GPRMC,141519.000,A,6415.1905,N,02207.7746,W,8.84,263.69,060912,,,A*7B
$GPGGA,141520.000,6415.1905,N,02207.7800,W,1,09,1.2,-6.0,M,60.7,M,,0000*6E
$GPGSA,A,3,21,13,30,07,18,03,19,16,06,,,,1.7,1.2,1.3*33
$GPGSV,3,1,12,16,72,177,20,06,66,215,20,03,51,237,24,21,46,080,22*75
$GPGSV,3,2,12,30,42,146,31,07,31,310,26,19,21,238,21,13,14,276,16*7E
$GPGSV,3,3,12,18,10,106,32,05,09,002,34,08,03,335,23,26,00,025,20*73
$GPRMC,141520.000,A,6415.1905,N,02207.7800,W,8.41,270.01,060912,,,A*79
$GPGGA,141521.000,6415.1906,N,02207.7852,W,1,09,1.2,-5.7,M,60.7,M,,0000*6F
$GPGSA,A,3,21,13,30,07,18,03,19,16,06,,,,1.7,1.2,1.3*33
$GPRMC,141521.000,A,6415.1906,N,02207.7852,W,7.96,270.52,060912,,,A*7F
$GPGGA,141522.000,6415.1906,N,02207.7903,W,1,09,1.2,-5.4,M,60.7,M,,0000*6A
$GPGSA,A,3,21,13,30,07,18,03,19,16,06,,,,1.7,1.2,1.3*33
$GPRMC,141522.000,A,6415.1906,N,02207.7903,W,7.86,267.97,060912,,,A*77
$GPGGA,141523.000,6415.1904,N,02207.7955,W,1,09,1.2,-5.0,M,60.7,M,,0000*6E
$GPGSA,A,3,21,13,30,07,18,03,19,16,06,,,,1.7,1.2,1.3*33
$GPRMC,141523.000,A,6415.1904,N,02207.7955,W,8.22,263.88,060912,,,A*7C
$GPGGA,141524.000,6415.1902,N,02207.8012,W,1,09,1.2,-4.6,M,60.7,M,,0000*6D
$GPGSA,A,3,21,13,30,07,18,03,19,16,06,,,,1.7,1.2,1.3*33
$GPRMC,141524.000,A,6415.1902,N,02207.8012,W,8.86,264.95,060912,,,A*7D
$GPGGA,141525.000,6415.1902,N,02207.8072,W,1,09,1.2,-4.3,M,60.7,M,,0000*6F
$GPGSA,A,3,21,13,30,07,18,03,19,16,06,,,,1.7,1.2,1.3*33
$GPGSV,3,1,12,16,72,177,20,06,66,215,19,03,51,237,25,21,46,080,23*7F
$GPGSV,3,2,12,30,42,146,32,07,31,310,26,19,21,238,21,13,14,276,15*7E
$GPGSV,3,3,12,18,10,106,27,05,09,002,32,08,03,335,22,26,00,025,21*71
$GPRMC,141525.000,A,6415.1902,N,02207.8072,W,9.27,268.32,060912,,,A*71
$GPGGA,141526.000,6415.1900,N,02207.8132,W,1,08,1.3,-4.0,M,60.7,M,,0000*68
$GPGSA,A,3,21,13,30,07,03,19,16,06,,,,,2.4,1.3,2.0*3B
$GPRMC,141526.000,A,6415.1900,N,02207.8132,W,9.46,265.46,060912,,,A*7C
$GPGGA,141527.000,6415.1896,N,02207.8195,W,1,09,1.2,-3.8,M,60.7,M,,0000*65
$GPGSA,A,3,21,13,30,07,18,03,19,16,06,,,,1.7,1.2,1.3*33
$GPRMC,141527.000,A,6415.1896,N,02207.8195,W,9.83,261.96,060912,,,A*7E
$GPGGA,141528.000,6415.1895,N,02207.8252,W,1,09,1.2,-3.6,M,60.7,M,,0000*6F
$GPGSA,A,3,21,13,30,07,18,03,19,16,06,,,,1.7,1.2,1.3*33
$GPRMC,141528.000,A,6415.1895,N,02207.8252,W,8.95,266.20,060912,,,A*76
$GPGGA,141529.000,6415.1896,N,02207.8303,W,1,09,1.2,-3.3,M,60.7,M,,0000*6D
$GPGSA,A,3,21,13,30,07,18,03,19,16,06,,,,1.7,1.2,1.3*33
$GPRMC,141529.000,A,6415.1896,N,02207.8303,W,8.20,272.09,060912,,,A*71
$GPGGA,141530.000,6415.1897,N,02207.8357,W,1,09,1.2,-3.0,M,60.7,M,,0000*66
$GPGSA,A,3,21,13,30,07,18,03,19,16,06,,,,1.7,1.2,1.3*33
$GPGSV,3,1,12,16,72,177,20,06,66,215,20,03,51,237,23,21,46,080,22*72
$GPGSV,3,2,12,30,42,146,32,07,31,310,28,19,21,238,21,13,14,276,17*72
$GPGSV,3,3,12,18,10,106,25,05,09,002,33,08,03,335,29,26,00,025,16*7D
$GPRMC,141530.000,A,6415.1897,N,02207.8357,W,8.51,271.58,060912,,,A*78
$GPGGA,141531.000,6415.1895,N,02207.8412,W,1,09,1.2,-2.6,M,60.7,M,,0000*64
$GPGSA,A,3,21,13,30,07,18,03,19,16,06,,,,1.7,1.2,1.3*33
$GPRMC,141531.000,A,6415.1895,N,02207.8412,W,8.71,266.68,060912,,,A*7A
$GPGGA,141532.000,6415.1894,N,02207.8469,W,1,09,1.2,-2.2,M,60.7,M,,0000*6E
$GPGSA,A,3,21,13,30,07,18,03,19,16,06,,,,1.7,1.2,1.3*33
$GPRMC,141532.000,A,6415.1894,N,02207.8469,W,8.94,266.23,060912,,,A*70
$GPGGA,141533.000,6415.1892,N,02207.8530,W,1,09,1.2,-1.9,M,60.7,M,,0000*6C
$GPGSA,A,3,21,13,30,07,18,03,19,16,06,,,,1.7,1.2,1.3*33
$GPRMC,141533.000,A,6415.1892,N,02207.8530,W,9.41,266.91,060912,,,A*7A
$GPGGA,141534.000,6415.1890,N,02207.8589,W,1,09,1.2,-1.8,M,60.7,M,,0000*6A
$GPGSA,A,3,21,13,30,07,18,03,19,16,06,,,,1.7,1.2,1.3*33
$GPRMC,141534.000,A,6415.1890,N,02207.8589,W,9.15,267.43,060912,,,A*72
$GPGGA,141535.000,6415.1890,N,02207.8648,W,1,09,1.2,-1.7,M,60.7,M,,0000*6A
$GPGSA,A,3,21,13,30,07,18,03,19,16,06,,,,1.7,1.2,1.3*33
$GPGSV,3,1,12,16,72,177,20,06,66,215,20,03,51,237,24,21,46,080,22*75
$GPGSV,3,2,12,30,42,146,32,07,31,310,28,19,21,238,21,13,14,276,16*73
$GPGSV,3,3,12,18,10,106,26,05,09,002,33,08,03,335,24,26,00,025,21*77
$GPRMC,141535.000,A,6415.1890,N,02207.8648,W,9.12,270.07,060912,,,A*7C
$GPGGA,141536.000,6415.1889,N,02207.8710,W,1,09,1.2,-1.7,M,60.7,M,,0000*6D
$GPGSA,A,3,21,13,30,07,18,03,19,16,06,,,,1.7,1.2,1.3*33
$GPRMC,141536.000,A,6415.1889,N,02207.8710,W,9.65,269.22,060912,,,A*74
$GPGGA,141537.000,6415.1889,N,02207.8770,W,1,09,1.2,-1.7,M,60.7,M,,0000*6A
$GPGSA,A,3,21,13,30,07,18,03,19,16,06,,,,1.7,1.2,1.3*33
$GPRMC,141537.000,A,6415.1889,N,02207.8770,W,9.22,269.03,060912,,,A*73
$GPGGA,141538.000,6415.1888,N,02207.8827,W,1,09,1.2,-1.8,M,60.7,M,,0000*66
$GPGSA,A,3,21,13,30,07,18,03,19,16,06,,,,1.7,1.2,1.3*33
$GPRMC,141538.000,A,6415.1888,N,02207.8827,W,8.62,268.95,060912,,,A*7B
$GPGGA,141539.000,6415.1886,N,02207.8884,W,1,09,1.2,-1.8,M,60.7,M,,0000*60
$GPGSA,A,3,21,13,30,07,18,03,19,16,06,,,,1.7,1.2,1.3*33
$GPRMC,141539.000,A,6415.1886,N,02207.8884,W,8.78,265.63,060912,,,A*72
$GPGGA,141540.000,6415.1882,N,02207.8942,W,1,09,1.2,-1.6,M,60.7,M,,0000*6F
$GPGSA,A,3,21,13,30,07,18,03,19,16,06,,,,1.7,1.2,1.3*33
$GPGSV,3,1,12,16,72,177,20,06,66,215,20,03,51,237,24,21,46,080,25*72
$GPGSV,3,2,12,30,42,146,32,07,31,310,27,19,21,238,21,13,14,276,16*7C
$GPGSV,3,3,12,18,10,106,26,05,09,002,33,08,03,335,24,26,00,025,21*77
$GPRMC,141540.000,A,6415.1882,N,02207.8942,W,8.87,263.83,060912,,,A*7B
$GPGGA,141541.000,6415.1879,N,02207.9003,W,1,09,1.2,-1.4,M,60.7,M,,0000*65
$GPGSA,A,3,21,13,30,07,18,03,19,16,06,,,,1.7,1.2,1.3*33
$GPRMC,141541.000,A,6415.1879,N,02207.9003,W,9.38,263.79,060912,,,A*73
$GPGGA,141542.000,6415.1877,N,02207.9062,W,1,09,1.2,-1.1,M,60.7,M,,0000*6A
$GPGSA,A,3,21,13,30,07,18,03,19,16,06,,,,1.7,1.2,1.3*33
$GPRMC,141542.000,A,6415.1877,N,02207.9062,W,9.27,265.87,060912,,,A*70
$GPGGA,141543.000,6415.1875,N,02207.9121,W,1,09,1.2,-0.8,M,60.7,M,,0000*67
$GPGSA,A,3,21,13,30,07,18,03,19,16,06,,,,1.7,1.2,1.3*33
$GPRMC,141543.000,A,6415.1875,N,02207.9121,W,9.07,266.52,060912,,,A*7C
$GPGGA,141544.000,6415.1874,N,02207.9179,W,1,09,1.2,-0.4,M,60.7,M,,0000*60
$GPGSA,A,3,21,13,30,07,18,03,19,16,06,,,,1.7,1.2,1.3*33
$GPRMC,141544.000,A,6415.1874,N,02207.9179,W,9.11,267.88,060912,,,A*76
$GPGGA,141545.000,6415.1872,N,02207.9239,W,1,09,1.2,-0.1,M,60.7,M,,0000*65
$GPGSA,A,3,21,13,30,07,18,03,19,16,06,,,,1.7,1.2,1.3*33
$GPGSV,3,1,12,16,72,177,20,06,66,215,19,03,51,237,25,21,46,080,22*7E
$GPGSV,3,2,12,30,42,146,32,07,31,310,28,19,21,238,19,13,14,276,18*76
$GPGSV,3,3,12,18,10,106,25,05,09,002,25,08,03,335,25,26,00,025,22*71
$GPRMC,141545.000,A,6415.1872,N,02207.9239,W,9.24,267.31,060912,,,A*72
$GPGGA,141546.000,6415.1870,N,02207.9300,W,1,09,1.2,0.3,M,60.7,M,,0000*40
$GPGSA,A,3,21,13,30,07,18,03,19,16,06,,,,1.7,1.2,1.3*33
$GPRMC,141546.000,A,6415.1870,N,02207.9300,W,9.39,266.02,060912,,,A*75
$GPGGA,141547.000,6415.1868,N,02207.9360,W,1,08,1.3,0.8,M,60.7,M,,0000*45
$GPGSA,A,3,21,13,30,07,03,19,16,06,,,,,2.4,1.3,2.0*3B
$GPRMC,141547.000,A,6415.1868,N,02207.9360,W,9.29,266.97,060912,,,A*76
$GPGGA,141548.000,6415.1867,N,02207.9421,W,1,09,1.2,1.3,M,60.7,M,,0000*4D
$GPGSA,A,3,21,13,30,07,18,03,19,16,06,,,,1.7,1.2,1.3*33
$GPRMC,141548.000,A,6415.1867,N,02207.9421,W,9.54,268.81,060912,,,A*77
$GPGGA,141549.000,6415.1866,N,02207.9482,W,1,09,1.2,1.9,M,60.7,M,,0000*4E
$GPGSA,A,3,21,13,30,07,18,03,19,16,06,,,,1.7,1.2,1.3*33
$GPRMC,141549.000,A,6415.1866,N,02207.9482,W,9.62,267.41,060912,,,A*78
$GPGGA,141550.000,6415.1865,N,02207.9540,W,1,09,1.2,2.4,M,60.7,M,,0000*44
$GPGSA,A,3,21,13,30,07,18,03,19,16,06,,,,1.7,1.2,1.3*33
$GPGSV,3,1,12,16,72,177,20,06,66,215,19,03,51,237,25,21,46,080,22*7E
$GPGSV,3,2,12,30,42,146,32,07,31,310,28,19,21,238,23,13,14,276,18*7F
$GPGSV,3,3,12,18,10,106,23,05,09,002,29,08,03,335,23,26,00,025,23*7C
$GPRMC,141550.000,A,6415.1865,N,02207.9540,W,9.22,268.70,060912,,,A*75
$GPGGA,141551.000,6415.1863,N,02207.9596,W,1,09,1.2,2.9,M,60.7,M,,0000*45
$GPGSA,A,3,21,13,30,07,18,03,19,16,06,,,,1.7,1.2,1.3*33
$GPRMC,141551.000,A,6415.1863,N,02207.9596,W,9.04,267.03,060912,,,A*76
$GPGGA,141552.000,6415.1862,N,02207.9652,W,1,09,1.2,3.3,M,60.7,M,,0000*47
$GPGSA,A,3,21,13,30,07,18,03,19,16,06,,,,1.7,1.2,1.3*33
$GPRMC,141552.000,A,6415.1862,N,02207.9652,W,8.88,268.73,060912,,,A*72
$GPGGA,141553.000,6415.1860,N,02207.9707,W,1,09,1.2,3.7,M,60.7,M,,0000*41
$GPGSA,A,3,21,13,30,07,18,03,19,16,06,,,,1.7,1.2,1.3*33
$GPRMC,141553.000,A,6415.1860,N,02207.9707,W,8.97,266.12,060912,,,A*77
$GPGGA,141554.000,6415.1858,N,02207.9763,W,1,09,1.2,4.2,M,60.7,M,,0000*4D
$GPGSA,A,3,21,13,30,07,18,03,19,16,06,,,,1.7,1.2,1.3*33
$GPRMC,141554.000,A,6415.1858,N,02207.9763,W,9.13,266.14,060912,,,A*72
$GPGGA,141555.000,6415.1856,N,02207.9821,W,1,09,1.2,4.9,M,60.7,M,,0000*40
$GPGSA,A,3,21,13,30,07,18,03,19,16,06,,,,1.7,1.2,1.3*33
$GPGSV,3,1,12,16,72,177,20,06,66,215,19,03,51,237,25,21,46,080,22*7E
$GPGSV,3,2,12,30,42,146,32,07,31,310,27,19,21,238,23,13,14,276,18*70
$GPGSV,3,3,12,18,10,106,17,05,09,002,32,08,03,335,19,26,00,025,32*78
$GPRMC,141555.000,A,6415.1856,N,02207.9821,W,9.31,268.22,060912,,,A*7F
$GPGGA,141556.000,6415.1856,N,02207.9878,W,1,09,1.2,5.4,M,60.7,M,,0000*43
$GPGSA,A,3,21,13,30,07,18,03,19,16,06,,,,1.7,1.2,1.3*33
$GPRMC,141556.000,A,6415.1856,N,02207.9878,W,9.28,271.94,060912,,,A*7D
$GPGGA,141557.000,6415.1856,N,02207.9937,W,1,09,1.2,6.1,M,60.7,M,,0000*4E
$GPGSA,A,3,21,13,30,07,18,03,19,16,06,,,,1.7,1.2,1.3*33
$GPRMC,141557.000,A,6415.1856,N,02207.9937,W,9.38,269.82,060912,,,A*79
$GPGGA,141558.000,6415.1855,N,02207.9995,W,1,09,1.2,6.5,M,60.7,M,,0000*4E
$GPGSA,A,3,21,13,30,07,18,03,19,16,06,,,,1.7,1.2,1.3*33
$GPRMC,141558.000,A,6415.1855,N,02207.9995,W,9.13,269.48,060912,,,A*72
$GPGGA,141559.000,6415.1854,N,02208.0052,W,1,09,1.2,7.0,M,60.7,M,,0000*4E
$GPGSA,A,3,21,13,30,07,18,03,19,16,06,,,,1.7,1.2,1.3*33
$GPRMC,141559.000,A,6415.1854,N,02208.0052,W,9.17,269.37,060912,,,A*7A
$GPGGA,141600.000,6415.1853,N,02208.0109,W,1,09,1.2,7.4,M,60.7,M,,0000*4D
$GPGSA,A,3,21,13,30,07,18,03,19,16,06,,,,1.7,1.2,1.3*33
$GPGSV,3,1,12,16,72,177,20,06,66,215,20,03,51,237,25,21,46,080,23*75
