$GPGGA,175321.000,6352.8286,N,01640.4956,W,1,12,0.7,59.7,M,59.6,M,,0000*73
$GPGSA,A,3,22,03,28,01,11,06,32,18,08,19,27,14,1.4,0.7,1.2*35
$GPRMC,175321.000,A,6352.8286,N,01640.4956,W,34.69,106.17,010912,,,A*46
$GPGGA,175322.000,6352.8259,N,01640.4748,W,1,12,0.7,60.0,M,59.6,M,,0000*7E
$GPGSA,A,3,22,03,28,01,11,06,32,18,08,19,27,14,1.4,0.7,1.2*35
$GPRMC,175322.000,A,6352.8259,N,01640.4748,W,34.61,106.62,010912,,,A*4C
$GPGGA,175323.000,6352.8231,N,01640.4541,W,1,12,0.7,60.4,M,59.6,M,,0000*7E
$GPGSA,A,3,22,03,28,01,11,06,32,18,08,19,27,14,1.4,0.7,1.2*35
$GPRMC,175323.000,A,6352.8231,N,01640.4541,W,34.78,107.79,010912,,,A*4B
$GPGGA,175324.000,6352.8201,N,01640.4333,W,1,12,0.7,60.6,M,59.6,M,,0000*7B
$GPGSA,A,3,22,03,28,01,11,06,32,18,08,19,27,14,1.4,0.7,1.2*35
$GPRMC,175324.000,A,6352.8201,N,01640.4333,W,34.96,108.86,010912,,,A*43
$GPGGA,175325.000,6352.8170,N,01640.4126,W,1,12,0.7,60.9,M,59.6,M,,0000*76
$GPGSA,A,3,22,03,28,01,11,06,32,18,08,19,27,14,1.4,0.7,1.2*35
$GPGSV,3,1,12,11,60,225,40,19,58,138,43,01,43,232,39,22,41,072,33*78
$GPGSV,3,2,12,28,35,305,25,03,26,135,25,08,16,268,26,06,15,126,30*72
$GPGSV,3,3,12,18,14,039,23,32,11,178,29,27,11,007,35,14,10,094,32*75
$GPRMC,175325.000,A,6352.8170,N,01640.4126,W,35.06,109.30,010912,,,A*45
$GPGGA,175326.000,6352.8138,N,01640.3918,W,1,12,0.7,61.2,M,59.6,M,,0000*71
$GPGSA,A,3,22,03,28,01,11,06,32,18,08,19,27,14,1.4,0.7,1.2*35
$GPRMC,175326.000,A,6352.8138,N,01640.3918,W,35.19,109.68,010912,,,A*4B
$GPGGA,175327.000,6352.8105,N,01640.3711,W,1,12,0.7,61.5,M,59.6,M,,0000*7E
$GPGSA,A,3,22,03,28,01,11,06,32,18,08,19,27,14,1.4,0.7,1.2*35
$GPRMC,175327.000,A,6352.8105,N,01640.3711,W,35.28,110.17,010912,,,A*41
$GPGGA,175328.000,6352.8072,N,01640.3503,W,1,12,0.7,61.7,M,59.6,M,,0000*73
$GPGSA,A,3,22,03,28,01,11,06,32,18,08,19,27,14,1.4,0.7,1.2*35
$GPRMC,175328.000,A,6352.8072,N,01640.3503,W,35.48,110.25,010912,,,A*49
$GPGGA,175329.000,6352.8037,N,01640.3294,W,1,12,0.7,62.0,M,59.6,M,,0000*7E
$GPGSA,A,3,22,03,28,01,11,06,32,18,08,19,27,14,1.4,0.7,1.2*35
$GPRMC,175329.000,A,6352.8037,N,01640.3294,W,35.75,111.18,010912,,,A*41
$GPGGA,175330.000,6352.8000,N,01640.3084,W,1,12,0.7,62.3,M,59.6,M,,0000*72
$GPGSA,A,3,22,03,28,01,11,06,32,18,08,19,27,14,1.4,0.7,1.2*35
$GPGSV,3,1,12,11,60,225,40,19,58,138,43,01,43,232,40,22,41,072,34*71
$GPGSV,3,2,12,28,35,305,31,03,26,135,26,08,16,268,19,06,15,126,31*79
$GPGSV,3,3,12,18,14,039,31,32,11,178,28,27,11,007,28,14,10,094,32*7B
$GPRMC,175330.000,A,6352.8000,N,01640.3084,W,36.03,112.14,010912,,,A*43
$GPGGA,175331.000,6352.7962,N,01640.2875,W,1,12,0.7,62.5,M,59.6,M,,0000*70
$GPGSA,A,3,22,03,28,01,11,06,32,18,08,19,27,14,1.4,0.7,1.2*35
$GPRMC,175331.000,A,6352.7962,N,01640.2875,W,36.10,112.73,010912,,,A*44
$GPGGA,175332.000,6352.7922,N,01640.2666,W,1,12,0.7,62.8,M,59.6,M,,0000*76
$GPGSA,A,3,22,03,28,01,11,06,32,18,08,19,27,14,1.4,0.7,1.2*35
$GPRMC,175332.000,A,6352.7922,N,01640.2666,W,36.33,113.66,010912,,,A*4B
$GPGGA,175333.000,6352.7881,N,01640.2458,W,1,11,0.8,63.0,M,59.6,M,,0000*75
$GPGSA,A,3,22,03,28,01,11,06,32,18,08,19,14,,1.5,0.8,1.2*3E
$GPRMC,175333.000,A,6352.7881,N,01640.2458,W,36.39,114.01,010912,,,A*41
$GPGGA,175334.000,6352.7840,N,01640.2249,W,1,11,0.8,63.3,M,59.6,M,,0000*7A
$GPGSA,A,3,22,03,28,01,11,06,32,18,08,19,14,,1.5,0.8,1.2*3E
$GPRMC,175334.000,A,6352.7840,N,01640.2249,W,36.43,114.34,010912,,,A*46
$GPGGA,175335.000,6352.7798,N,01640.2041,W,1,12,0.7,63.6,M,59.6,M,,0000*72
$GPGSA,A,3,22,03,28,01,11,06,32,18,08,19,27,14,1.4,0.7,1.2*35
$GPGSV,3,1,12,11,60,225,40,19,58,138,43,01,43,232,41,22,41,072,34*70
$GPGSV,3,2,12,28,35,305,31,03,26,135,26,08,16,268,31,06,15,126,32*70
$GPGSV,3,3,12,18,14,039,26,32,11,178,22,27,11,007,23,14,10,094,32*7C
$GPRMC,175335.000,A,6352.7798,N,01640.2041,W,36.58,114.63,010912,,,A*4F
$GPGGA,175336.000,6352.7756,N,01640.1832,W,1,12,0.7,63.8,M,59.6,M,,0000*72
$GPGSA,A,3,22,03,28,01,11,06,32,18,08,19,27,14,1.4,0.7,1.2*35
$GPRMC,175336.000,A,6352.7756,N,01640.1832,W,36.64,114.87,010912,,,A*44
$GPGGA,175337.000,6352.7713,N,01640.1624,W,1,11,0.8,64.0,M,59.6,M,,0000*78
$GPGSA,A,3,22,03,28,01,11,06,32,18,08,19,14,,1.5,0.8,1.2*3E
$GPRMC,175337.000,A,6352.7713,N,01640.1624,W,36.59,115.15,010912,,,A*49
$GPGGA,175338.000,6352.7670,N,01640.1418,W,1,11,0.8,64.2,M,59.6,M,,0000*7C
$GPGSA,A,3,22,03,28,01,11,06,32,18,08,19,14,,1.5,0.8,1.2*3E
$GPRMC,175338.000,A,6352.7670,N,01640.1418,W,36.35,115.15,010912,,,A*45
$GPGGA,175339.000,6352.7628,N,01640.1214,W,1,11,0.8,64.4,M,59.6,M,,0000*7C
$GPGSA,A,3,22,03,28,01,11,06,32,18,08,19,14,,1.5,0.8,1.2*3E
$GPRMC,175339.000,A,6352.7628,N,01640.1214,W,35.98,115.52,010912,,,A*44
$GPGGA,175340.000,6352.7586,N,01640.1010,W,1,11,0.8,64.5,M,59.6,M,,0000*72
$GPGSA,A,3,22,03,28,01,11,06,32,18,08,19,14,,1.5,0.8,1.2*3E
$GPGSV,3,1,12,11,60,225,40,19,58,138,42,01,43,232,42,22,41,072,34*72
$GPGSV,3,2,12,28,35,305,31,03,26,135,19,08,16,268,33,06,15,126,32*7E
$GPGSV,3,3,12,18,14,039,27,32,11,178,23,27,11,007,,14,10,094,32*7D
$GPRMC,175340.000,A,6352.7586,N,01640.1010,W,35.74,114.87,010912,,,A*40
$GPGGA,175341.000,6352.7546,N,01640.0806,W,1,11,0.8,64.7,M,59.6,M,,0000*73
$GPGSA,A,3,22,03,28,01,11,06,32,18,08,19,14,,1.5,0.8,1.2*3E
$GPRMC,175341.000,A,6352.7546,N,01640.0806,W,35.68,113.95,010912,,,A*4A
$GPGGA,175342.000,6352.7508,N,01640.0599,W,1,11,0.8,64.8,M,59.6,M,,0000*7E
$GPGSA,A,3,22,03,28,01,11,06,32,18,08,19,14,,1.5,0.8,1.2*3E
$GPRMC,175342.000,A,6352.7508,N,01640.0599,W,35.69,112.82,010912,,,A*4E
$GPGGA,175343.000,6352.7471,N,01640.0391,W,1,11,0.8,64.9,M,59.6,M,,0000*7F
$GPGSA,A,3,22,03,28,01,11,06,32,18,08,19,14,,1.5,0.8,1.2*3E
$GPRMC,175343.000,A,6352.7471,N,01640.0391,W,35.65,111.42,010912,,,A*4D
$GPGGA,175344.000,6352.7438,N,01640.0181,W,1,12,0.7,65.0,M,59.6,M,,0000*72
$GPGSA,A,3,22,03,28,01,11,06,32,18,08,19,27,14,1.4,0.7,1.2*35
$GPRMC,175344.000,A,6352.7438,N,01640.0181,W,35.47,109.31,010912,,,A*49
$GPGGA,175345.000,6352.7409,N,01639.9971,W,1,12,0.7,65.1,M,59.6,M,,0000*70
$GPGSA,A,3,22,03,28,01,11,06,32,18,08,19,27,14,1.4,0.7,1.2*35
$GPGSV,3,1,12,11,61,225,41,19,58,138,42,01,43,232,42,22,41,072,34*72
$GPGSV,3,2,12,28,36,304,31,03,25,135,30,08,15,267,21,06,14,127,27*7F
$GPGSV,3,3,12,18,14,038,22,32,11,177,27,27,11,007,30,14,10,093,25*70
$GPRMC,175345.000,A,6352.7409,N,01639.9971,W,34.96,107.29,010912,,,A*40
$GPGGA,175346.000,6352.7384,N,01639.9763,W,1,12,0.7,65.1,M,59.6,M,,0000*7C
$GPGSA,A,3,22,03,28,01,11,06,32,18,08,19,27,14,1.4,0.7,1.2*35
$GPRMC,175346.000,A,6352.7384,N,01639.9763,W,34.29,104.98,010912,,,A*41
$GPGGA,175347.000,6352.7363,N,01639.9557,W,1,12,0.7,65.1,M,59.6,M,,0000*71
$GPGSA,A,3,22,03,28,01,11,06,32,18,08,19,27,14,1.4,0.7,1.2*35
$GPRMC,175347.000,A,6352.7363,N,01639.9557,W,33.68,102.58,010912,,,A*44
$GPGGA,175348.000,6352.7346,N,01639.9352,W,1,12,0.7,65.1,M,59.6,M,,0000*7A
$GPGSA,A,3,22,03,28,01,11,06,32,18,08,19,27,14,1.4,0.7,1.2*35
$GPRMC,175348.000,A,6352.7346,N,01639.9352,W,33.18,100.66,010912,,,A*47
$GPGGA,175349.000,6352.7331,N,01639.9149,W,1,12,0.7,65.1,M,59.6,M,,0000*73
$GPGSA,A,3,22,03,28,01,11,06,32,18,08,19,27,14,1.4,0.7,1.2*35
$GPRMC,175349.000,A,6352.7331,N,01639.9149,W,32.68,99.14,010912,,,A*7C
$GPGGA,175350.000,6352.7318,N,01639.8949,W,1,12,0.7,65.1,M,59.6,M,,0000*79
$GPGSA,A,3,22,03,28,01,11,06,32,18,08,19,27,14,1.4,0.7,1.2*35
$GPGSV,3,1,12,11,61,225,41,19,58,138,35,01,43,232,41,22,41,072,34*71
$GPGSV,3,2,12,28,36,304,27,03,25,135,31,08,15,267,26,06,14,127,33*7B
$GPGSV,3,3,12,18,14,038,24,32,11,177,28,27,11,007,26,14,10,093,27*7C
$GPRMC,175350.000,A,6352.7318,N,01639.8949,W,32.18,97.65,010912,,,A*79
$GPGGA,175351.000,6352.7309,N,01639.8750,W,1,11,0.8,64.9,M,59.6,M,,0000*7B
$GPGSA,A,3,22,03,28,01,11,06,32,08,19,27,14,,1.4,0.8,1.2*33
$GPRMC,175351.000,A,6352.7309,N,01639.8750,W,31.77,95.61,010912,,,A*72
$GPGGA,175352.000,6352.7303,N,01639.8553,W,1,11,0.8,64.6,M,59.6,M,,0000*7C
$GPGSA,A,3,22,03,28,01,11,06,32,08,19,27,14,,1.4,0.8,1.2*33
$GPRMC,175352.000,A,6352.7303,N,01639.8553,W,31.46,93.48,010912,,,A*75
$GPGGA,175353.000,6352.7301,N,01639.8357,W,1,12,0.7,64.3,M,59.6,M,,0000*74
$GPGSA,A,3,22,03,28,01,11,06,32,18,08,19,27,14,1.4,0.7,1.2*35
$GPRMC,175353.000,A,6352.7301,N,01639.8357,W,31.18,91.58,010912,,,A*7C
$GPGGA,175354.000,6352.7301,N,01639.8163,W,1,12,0.7,63.9,M,59.6,M,,0000*7B
$GPGSA,A,3,22,03,28,01,11,06,32,18,08,19,27,14,1.4,0.7,1.2*35
$GPRMC,175354.000,A,6352.7301,N,01639.8163,W,30.98,89.27,010912,,,A*76
$GPGGA,175355.000,6352.7304,N,01639.7969,W,1,12,0.7,63.4,M,59.6,M,,0000*7F
$GPGSA,A,3,22,03,28,01,11,06,32,18,08,19,27,14,1.4,0.7,1.2*35
$GPGSV,3,1,12,11,61,224,40,19,58,138,38,01,43,232,37,22,41,072,31*78
$GPGSV,3,2,12,28,36,304,35,03,25,135,24,08,15,267,25,06,14,127,25*78
$GPGSV,3,3,12,18,14,038,28,32,11,177,34,27,11,007,33,14,10,093,25*7B
$GPRMC,175355.000,A,6352.7304,N,01639.7969,W,30.87,87.40,010912,,,A*7E
$GPGGA,175356.000,6352.7309,N,01639.7776,W,1,12,0.7,62.9,M,59.6,M,,0000*7D
$GPGSA,A,3,22,03,28,01,11,06,32,18,08,19,27,14,1.4,0.7,1.2*35
$GPRMC,175356.000,A,6352.7309,N,01639.7776,W,30.80,86.02,010912,,,A*70
$GPGGA,175357.000,6352.7316,N,01639.7584,W,1,12,0.7,62.4,M,59.6,M,,0000*70
$GPGSA,A,3,22,03,28,01,11,06,32,18,08,19,27,14,1.4,0.7,1.2*35
$GPRMC,175357.000,A,6352.7316,N,01639.7584,W,30.71,85.16,010912,,,A*78
$GPGGA,175358.000,6352.7325,N,01639.7393,W,1,11,0.7,61.8,M,59.6,M,,0000*73
$GPGSA,A,3,22,03,28,01,11,32,18,08,19,27,14,,1.4,0.7,1.2*33
$GPRMC,175358.000,A,6352.7325,N,01639.7393,W,30.50,83.43,010912,,,A*72
$GPGGA,175359.000,6352.7336,N,01639.7205,W,1,11,0.7,61.3,M,59.6,M,,0000*75
$GPGSA,A,3,22,03,28,01,11,32,18,08,19,27,14,,1.4,0.7,1.2*33
$GPRMC,175359.000,A,6352.7336,N,01639.7205,W,30.23,81.74,010912,,,A*7D
$GPGGA,175400.000,6352.7350,N,01639.7021,W,1,12,0.7,60.7,M,59.6,M,,0000*7C
$GPGSA,A,3,22,03,28,01,11,06,32,18,08,19,27,14,1.4,0.7,1.2*35
$GPGSV,3,1,12,11,61,224,40,19,58,138,41,01,43,232,28,22,41,072,32*7B
$GPGSV,3,2,12,28,36,304,31,03,25,135,33,08,15,267,21,06,14,127,29*72
$GPGSV,3,3,12,18,14,038,28,32,11,177,20,27,11,007,20,14,10,093,23*7A
$GPRMC,175400.000,A,6352.7350,N,01639.7021,W,29.80,80.10,010912,,,A*70
$GPGGA,175401.000,6352.7365,N,01639.6839,W,1,12,0.7,60.1,M,59.6,M,,0000*7D
$GPGSA,A,3,22,03,28,01,11,06,32,18,08,19,27,14,1.4,0.7,1.2*35
$GPRMC,175401.000,A,6352.7365,N,01639.6839,W,29.43,78.65,010912,,,A*7D
$GPGGA,175402.000,6352.7383,N,01639.6661,W,1,12,0.7,59.5,M,59.6,M,,0000*7B
$GPGSA,A,3,22,03,28,01,11,06,32,18,08,19,27,14,1.4,0.7,1.2*35
$GPRMC,175402.000,A,6352.7383,N,01639.6661,W,29.08,76.91,010912,,,A*7F
$GPGGA,175403.000,6352.7403,N,01639.6486,W,1,12,0.7,59.0,M,59.6,M,,0000*7B
$GPGSA,A,3,22,03,28,01,11,06,32,18,08,19,27,14,1.4,0.7,1.2*35
$GPRMC,175403.000,A,6352.7403,N,01639.6486,W,28.68,75.17,010912,,,A*70
$GPGGA,175404.000,6352.7425,N,01639.6314,W,1,10,0.9,58.6,M,59.6,M,,0000*7F
$GPGSA,A,3,22,03,28,01,11,06,32,19,27,14,,,1.6,0.9,1.4*3E
$GPRMC,175404.000,A,6352.7425,N,01639.6314,W,28.51,73.65,010912,,,A*76
$GPGGA,175405.000,6352.7448,N,01639.6146,W,1,12,0.7,58.2,M,59.6,M,,0000*78
$GPGSA,A,3,22,03,28,01,11,06,32,18,08,19,27,14,1.4,0.7,1.2*35
$GPGSV,3,1,12,11,61,224,40,19,58,138,37,01,43,232,31,22,41,072,39*79
$GPGSV,3,2,12,28,36,304,31,03,25,135,32,08,15,267,17,06,14,127,31*7F
$GPGSV,3,3,12,18,14,038,16,32,11,177,30,27,11,007,27,14,10,093,28*7A
$GPRMC,175405.000,A,6352.7448,N,01639.6146,W,28.06,72.63,010912,,,A*7C
$GPGGA,175406.000,6352.7471,N,01639.5980,W,1,12,0.7,57.8,M,59.6,M,,0000*75
$GPGSA,A,3,22,03,28,01,11,06,32,18,08,19,27,14,1.4,0.7,1.2*35
$GPRMC,175406.000,A,6352.7471,N,01639.5980,W,27.66,72.30,010912,,,A*7B
$GPGGA,175407.000,6352.7494,N,01639.5818,W,1,12,0.7,57.5,M,59.6,M,,0000*72
$GPGSA,A,3,22,03,28,01,11,06,32,18,08,19,27,14,1.4,0.7,1.2*35
$GPRMC,175407.000,A,6352.7494,N,01639.5818,W,27.12,71.60,010912,,,A*74
$GPGGA,175408.000,6352.7518,N,01639.5663,W,1,12,0.7,57.3,M,59.6,M,,0000*7C
$GPGSA,A,3,22,03,28,01,11,06,32,18,08,19,27,14,1.4,0.7,1.2*35
$GPRMC,175408.000,A,6352.7518,N,01639.5663,W,26.00,71.03,010912,,,A*7B
$GPGGA,175409.000,6352.7540,N,01639.5514,W,1,11,0.8,57.1,M,59.6,M,,0000*7D
$GPGSA,A,3,22,03,28,01,11,06,18,08,19,27,14,,1.6,0.8,1.4*3F
$GPRMC,175409.000,A,6352.7540,N,01639.5514,W,25.09,70.84,010912,,,A*70
$GPGGA,175410.000,6352.7562,N,01639.5370,W,1,12,0.7,56.9,M,59.6,M,,0000*74
$GPGSA,A,3,22,03,28,01,11,06,32,18,08,19,27,14,1.4,0.7,1.2*35
$GPGSV,3,1,12,11,61,224,41,19,57,138,37,01,43,232,31,22,41,071,39*74
$GPGSV,3,2,12,28,36,304,28,03,25,135,34,08,15,267,22,06,14,127,24*73
$GPGSV,3,3,12,18,14,038,27,32,12,177,33,27,11,007,29,14,10,093,27*79
$GPRMC,175410.000,A,6352.7562,N,01639.5370,W,24.11,71.58,010912,,,A*74
$GPGGA,175411.000,6352.7581,N,01639.5228,W,1,12,0.7,56.7,M,59.6,M,,0000*7A
$GPGSA,A,3,22,03,28,01,11,06,32,18,08,19,27,14,1.4,0.7,1.2*35
$GPRMC,175411.000,A,6352.7581,N,01639.5228,W,23.59,72.83,010912,,,A*7A
$GPGGA,175412.000,6352.7600,N,01639.5089,W,1,12,0.7,56.6,M,59.6,M,,0000*7B
$GPGSA,A,3,22,03,28,01,11,06,32,18,08,19,27,14,1.4,0.7,1.2*35
$GPRMC,175412.000,A,6352.7600,N,01639.5089,W,23.08,73.32,010912,,,A*75
$GPGGA,175413.000,6352.7616,N,01639.4954,W,1,12,0.7,56.5,M,59.6,M,,0000*76
$GPGSA,A,3,22,03,28,01,11,06,32,18,08,19,27,14,1.4,0.7,1.2*35
$GPRMC,175413.000,A,6352.7616,N,01639.4954,W,22.29,75.04,010912,,,A*7A
$GPGGA,175414.000,6352.7631,N,01639.4822,W,1,12,0.7,56.4,M,59.6,M,,0000*75
$GPGSA,A,3,22,03,28,01,11,06,32,18,08,19,27,14,1.4,0.7,1.2*35
$GPRMC,175414.000,A,6352.7631,N,01639.4822,W,21.70,76.16,010912,,,A*77
$GPGGA,175415.000,6352.7645,N,01639.4690,W,1,12,0.7,56.3,M,59.6,M,,0000*77
$GPGSA,A,3,22,03,28,01,11,06,32,18,08,19,27,14,1.4,0.7,1.2*35
$GPGSV,3,1,12,11,61,224,41,19,57,138,37,01,43,232,31,22,41,071,38*75
$GPGSV,3,2,12,28,36,304,28,03,25,135,33,08,15,267,24,06,14,127,33*74
$GPGSV,3,3,12,18,14,038,22,32,12,177,29,27,11,007,24,14,10,093,22*7F
$GPRMC,175415.000,A,6352.7645,N,01639.4690,W,21.63,76.97,010912,,,A*79
$GPGGA,175416.000,6352.7659,N,01639.4558,W,1,12,0.7,56.3,M,59.6,M,,0000*7E
$GPGSA,A,3,22,03,28,01,11,06,32,18,08,19,27,14,1.4,0.7,1.2*35
$GPRMC,175416.000,A,6352.7659,N,01639.4558,W,21.70,76.73,010912,,,A*78
$GPGGA,175417.000,6352.7674,N,01639.4425,W,1,12,0.7,56.2,M,59.6,M,,0000*7A
$GPGSA,A,3,22,03,28,01,11,06,32,18,08,19,27,14,1.4,0.7,1.2*35
$GPRMC,175417.000,A,6352.7674,N,01639.4425,W,21.86,76.11,010912,,,A*70
$GPGGA,175418.000,6352.7690,N,01639.4290,W,1,12,0.7,56.2,M,59.6,M,,0000*77
$GPGSA,A,3,22,03,28,01,11,06,32,18,08,19,27,14,1.4,0.7,1.2*35
$GPRMC,175418.000,A,6352.7690,N,01639.4290,W,22.25,75.32,010912,,,A*75
$GPGGA,175419.000,6352.7708,N,01639.4153,W,1,12,0.7,56.1,M,59.6,M,,0000*79
$GPGSA,A,3,22,03,28,01,11,06,32,18,08,19,27,14,1.4,0.7,1.2*35
$GPRMC,175419.000,A,6352.7708,N,01639.4153,W,22.83,74.05,010912,,,A*71
$GPGGA,175420.000,6352.7726,N,01639.4013,W,1,12,0.7,56.1,M,59.6,M,,0000*7A
$GPGSA,A,3,22,03,28,01,11,06,32,18,08,19,27,14,1.4,0.7,1.2*35
$GPGSV,3,1,12,11,61,224,41,19,57,138,37,01,43,232,31,22,41,071,38*75
$GPGSV,3,2,12,28,36,304,25,03,25,135,34,08,15,267,27,06,14,127,33*7D
$GPGSV,3,3,12,18,14,038,23,32,12,177,31,27,11,007,25,14,10,093,24*70
$GPRMC,175420.000,A,6352.7726,N,01639.4013,W,23.48,73.97,010912,,,A*78
$GPGGA,175421.000,6352.7746,N,01639.3869,W,1,12,0.7,56.0,M,59.6,M,,0000*7E
$GPGSA,A,3,22,03,28,01,11,06,32,18,08,19,27,14,1.4,0.7,1.2*35
$GPRMC,175421.000,A,6352.7746,N,01639.3869,W,24.10,73.32,010912,,,A*78
$GPGGA,175422.000,6352.7766,N,01639.3720,W,1,12,0.7,56.0,M,59.6,M,,0000*7D
$GPGSA,A,3,22,03,28,01,11,06,32,18,08,19,27,14,1.4,0.7,1.2*35
$GPRMC,175422.000,A,6352.7766,N,01639.3720,W,24.97,73.04,010912,,,A*71
$GPGGA,175423.000,6352.7788,N,01639.3567,W,1,12,0.7,56.0,M,59.6,M,,0000*7D
$GPGSA,A,3,22,03,28,01,11,06,32,18,08,19,27,14,1.4,0.7,1.2*35
$GPRMC,175423.000,A,6352.7788,N,01639.3567,W,25.74,72.73,010912,,,A*7C
$GPGGA,175424.000,6352.7809,N,01639.3411,W,1,12,0.7,55.9,M,59.6,M,,0000*76
$GPGSA,A,3,22,03,28,01,11,06,32,18,08,19,27,14,1.4,0.7,1.2*35
$GPRMC,175424.000,A,6352.7809,N,01639.3411,W,26.41,72.91,010912,,,A*74
$GPGGA,175425.000,6352.7831,N,01639.3250,W,1,12,0.7,55.9,M,59.6,M,,0000*7F
$GPGSA,A,3,22,03,28,01,11,06,32,18,08,19,27,14,1.4,0.7,1.2*35
$GPGSV,3,1,12,11,61,224,41,19,57,138,37,01,43,232,31,22,41,071,39*74
$GPGSV,3,2,12,28,36,304,25,03,25,135,33,08,15,267,27,06,14,127,32*7B
$GPGSV,3,3,12,18,14,038,18,32,12,177,29,27,11,007,26,14,10,093,25*73
$GPRMC,175425.000,A,6352.7831,N,01639.3250,W,26.99,73.37,010912,,,A*75
$GPGGA,175426.000,6352.7853,N,01639.3085,W,1,12,0.7,55.8,M,59.6,M,,0000*73
$GPGSA,A,3,22,03,28,01,11,06,32,18,08,19,27,14,1.4,0.7,1.2*35
$GPRMC,175426.000,A,6352.7853,N,01639.3085,W,27.57,73.62,010912,,,A*7B
$GPGGA,175427.000,6352.7875,N,01639.2916,W,1,12,0.7,55.6,M,59.6,M,,0000*7A
$GPGSA,A,3,22,03,28,01,11,06,32,18,08,19,27,14,1.4,0.7,1.2*35
$GPRMC,175427.000,A,6352.7875,N,01639.2916,W,28.31,74.19,010912,,,A*78
$GPGGA,175428.000,6352.7897,N,01639.2743,W,1,12,0.7,55.5,M,59.6,M,,0000*74
$GPGSA,A,3,22,03,28,01,11,06,32,18,08,19,27,14,1.4,0.7,1.2*35
$GPRMC,175428.000,A,6352.7897,N,01639.2743,W,28.99,74.22,010912,,,A*7F
$GPGGA,175429.000,6352.7920,N,01639.2566,W,1,12,0.7,55.3,M,59.6,M,,0000*7B
$GPGSA,A,3,22,03,28,01,11,06,32,18,08,19,27,14,1.4,0.7,1.2*35
$GPRMC,175429.000,A,6352.7920,N,01639.2566,W,29.69,73.64,010912,,,A*7D
$GPGGA,175430.000,6352.7945,N,01639.2385,W,1,12,0.7,55.1,M,59.6,M,,0000*79
$GPGSA,A,3,22,03,28,01,11,06,32,18,08,19,27,14,1.4,0.7,1.2*35
$GPGSV,3,1,12,11,61,224,41,19,57,138,39,01,43,232,31,22,41,071,38*7B
$GPGSV,3,2,12,28,36,304,20,03,25,135,33,08,15,267,25,06,14,127,33*7D
$GPGSV,3,3,12,18,14,038,29,32,12,177,25,27,11,007,25,14,10,093,22*79
$GPRMC,175430.000,A,6352.7945,N,01639.2385,W,30.26,73.35,010912,,,A*7A
$GPGGA,175431.000,6352.7969,N,01639.2201,W,1,12,0.7,54.9,M,59.6,M,,0000*72
$GPGSA,A,3,22,03,28,01,11,06,32,18,08,19,27,14,1.4,0.7,1.2*35
$GPRMC,175431.000,A,6352.7969,N,01639.2201,W,30.78,73.85,010912,,,A*78
$GPGGA,175432.000,6352.7993,N,01639.2015,W,1,12,0.7,54.7,M,59.6,M,,0000*7D
$GPGSA,A,3,22,03,28,01,11,06,32,18,08,19,27,14,1.4,0.7,1.2*35
$GPRMC,175432.000,A,6352.7993,N,01639.2015,W,31.22,73.60,010912,,,A*7C
$GPGGA,175433.000,6352.8018,N,01639.1825,W,1,12,0.7,54.6,M,59.6,M,,0000*70
$GPGSA,A,3,22,03,28,01,11,06,32,18,08,19,27,14,1.4,0.7,1.2*35
$GPRMC,175433.000,A,6352.8018,N,01639.1825,W,31.65,73.92,010912,,,A*7E
$GPGGA,175434.000,6352.8043,N,01639.1634,W,1,12,0.7,54.5,M,59.6,M,,0000*74
$GPGSA,A,3,22,03,28,01,11,06,32,18,08,19,27,14,1.4,0.7,1.2*35
$GPRMC,175434.000,A,6352.8043,N,01639.1634,W,32.00,73.53,010912,,,A*74
$GPGGA,175435.000,6352.8069,N,01639.1442,W,1,12,0.7,54.5,M,59.6,M,,0000*7E
$GPGSA,A,3,22,03,28,01,11,06,32,18,08,19,27,14,1.4,0.7,1.2*35
$GPGSV,3,1,12,11,61,224,37,19,57,138,40,01,43,232,31,22,41,071,37*7B
$GPGSV,3,2,12,28,36,304,24,03,25,135,33,08,15,267,24,06,14,127,33*78
$GPGSV,3,3,12,18,14,038,30,32,12,177,28,27,11,007,26,14,10,093,22*7F
$GPRMC,175435.000,A,6352.8069,N,01639.1442,W,32.21,73.57,010912,,,A*79
$GPGGA,175436.000,6352.8095,N,01639.1247,W,1,12,0.7,54.5,M,59.6,M,,0000*7D
$GPGSA,A,3,22,03,28,01,11,06,32,18,08,19,27,14,1.4,0.7,1.2*35
$GPRMC,175436.000,A,6352.8095,N,01639.1247,W,32.52,73.18,010912,,,A*75
$GPGGA,175437.000,6352.8122,N,01639.1051,W,1,12,0.7,54.5,M,59.6,M,,0000*74
$GPGSA,A,3,22,03,28,01,11,06,32,18,08,19,27,14,1.4,0.7,1.2*35
$GPRMC,175437.000,A,6352.8122,N,01639.1051,W,32.82,72.82,010912,,,A*73
$GPGGA,175438.000,6352.8149,N,01639.0857,W,1,12,0.7,54.6,M,59.6,M,,0000*7A
$GPGSA,A,3,22,03,28,01,11,06,32,18,08,19,27,14,1.4,0.7,1.2*35
$GPRMC,175438.000,A,6352.8149,N,01639.0857,W,32.52,72.80,010912,,,A*71
$GPGGA,175439.000,6352.8175,N,01639.0663,W,1,12,0.7,54.7,M,59.6,M,,0000*7C
$GPGSA,A,3,22,03,28,01,11,06,32,18,08,19,27,14,1.4,0.7,1.2*35
$GPRMC,175439.000,A,6352.8175,N,01639.0663,W,32.32,73.19,010912,,,A*71
$GPGGA,175440.000,6352.8201,N,01639.0467,W,1,12,0.7,54.7,M,59.6,M,,0000*74
$GPGSA,A,3,22,03,28,01,11,06,32,18,08,19,27,14,1.4,0.7,1.2*35
$GPGSV,3,1,12,11,61,224,38,19,57,138,40,01,43,232,30,22,41,071,30*72
$GPGSV,3,2,12,28,36,304,21,03,25,135,34,08,15,267,23,06,14,127,33*7D
$GPGSV,3,3,12,18,14,038,30,32,12,177,23,27,11,007,23,14,10,093,23*70
$GPRMC,175440.000,A,6352.8201,N,01639.0467,W,32.80,73.55,010912,,,A*78
$GPGGA,175441.000,6352.8228,N,01639.0266,W,1,12,0.7,54.8,M,59.6,M,,0000*76
$GPGSA,A,3,22,03,28,01,11,06,32,18,08,19,27,14,1.4,0.7,1.2*35
$GPRMC,175441.000,A,6352.8228,N,01639.0266,W,33.35,73.80,010912,,,A*72
$GPGGA,175442.000,6352.8254,N,01639.0065,W,1,12,0.7,54.8,M,59.6,M,,0000*7F
$GPGSA,A,3,22,03,28,01,11,06,32,18,08,19,27,14,1.4,0.7,1.2*35
$GPRMC,175442.000,A,6352.8254,N,01639.0065,W,33.55,73.76,010912,,,A*74
$GPGGA,175443.000,6352.8281,N,01638.9862,W,1,12,0.7,54.9,M,59.6,M,,0000*70
$GPGSA,A,3,22,03,28,01,11,06,32,18,08,19,27,14,1.4,0.7,1.2*35
$GPRMC,175443.000,A,6352.8281,N,01638.9862,W,33.78,73.67,010912,,,A*75
$GPGGA,175444.000,6352.8308,N,01638.9658,W,1,12,0.7,54.9,M,59.6,M,,0000*70
$GPGSA,A,3,22,03,28,01,11,06,32,18,08,19,27,14,1.4,0.7,1.2*35
$GPRMC,175444.000,A,6352.8308,N,01638.9658,W,33.85,73.17,010912,,,A*70
$GPGGA,175445.000,6352.8336,N,01638.9454,W,1,12,0.7,55.0,M,59.6,M,,0000*7A
$GPGSA,A,3,22,03,28,01,11,06,32,18,08,19,27,14,1.4,0.7,1.2*35
$GPGSV,3,1,12,11,61,224,38,19,57,138,40,01,43,232,26,22,41,071,33*76
$GPGSV,3,2,12,28,36,304,23,03,25,135,34,08,15,267,23,06,14,127,33*7F
$GPGSV,3,3,12,18,14,038,31,32,12,177,24,27,11,007,24,14,10,093,24*76
$GPRMC,175445.000,A,6352.8336,N,01638.9454,W,34.18,72.93,010912,,,A*7C
$GPGGA,175446.000,6352.8365,N,01638.9246,W,1,12,0.7,55.0,M,59.6,M,,0000*7A
$GPGSA,A,3,22,03,28,01,11,06,32,18,08,19,27,14,1.4,0.7,1.2*35
$GPRMC,175446.000,A,6352.8365,N,01638.9246,W,34.71,72.82,010912,,,A*73
$GPGGA,175447.000,6352.8394,N,01638.9036,W,1,12,0.7,55.1,M,59.6,M,,0000*71
$GPGSA,A,3,22,03,28,01,11,06,32,18,08,19,27,14,1.4,0.7,1.2*35
$GPRMC,175447.000,A,6352.8394,N,01638.9036,W,34.98,73.01,010912,,,A*74
$GPGGA,175448.000,6352.8422,N,01638.8825,W,1,12,0.7,55.2,M,59.6,M,,0000*7C
$GPGSA,A,3,22,03,28,01,11,06,32,18,08,19,27,14,1.4,0.7,1.2*35
$GPRMC,175448.000,A,6352.8422,N,01638.8825,W,35.06,73.30,010912,,,A*7E
$GPGGA,175449.000,6352.8451,N,01638.8613,W,1,12,0.7,55.4,M,59.6,M,,0000*74
$GPGSA,A,3,22,03,28,01,11,06,32,18,08,19,27,14,1.4,0.7,1.2*35
$GPRMC,175449.000,A,6352.8451,N,01638.8613,W,35.29,73.22,010912,,,A*7E
$GPGGA,175450.000,6352.8479,N,01638.8401,W,1,12,0.7,55.5,M,59.6,M,,0000*76
$GPGSA,A,3,22,03,28,01,11,06,32,18,08,19,27,14,1.4,0.7,1.2*35
$GPGSV,3,1,12,11,61,224,38,19,57,138,41,01,43,232,26,22,41,071,33*77
$GPGSV,3,2,12,28,36,304,24,03,25,135,34,08,15,267,23,06,14,127,33*78
$GPGSV,3,3,12,18,14,038,30,32,12,177,22,27,11,007,23,14,10,093,25*77
$GPRMC,175450.000,A,6352.8479,N,01638.8401,W,35.29,73.24,010912,,,A*7B
$GPGGA,175451.000,6352.8507,N,01638.8188,W,1,12,0.7,55.6,M,59.6,M,,0000*78
$GPGSA,A,3,22,03,28,01,11,06,32,18,08,19,27,14,1.4,0.7,1.2*35
$GPRMC,175451.000,A,6352.8507,N,01638.8188,W,35.20,73.71,010912,,,A*7F
$GPGGA,175452.000,6352.8533,N,01638.7974,W,1,12,0.7,55.8,M,59.6,M,,0000*76
$GPGSA,A,3,22,03,28,01,11,06,32,18,08,19,27,14,1.4,0.7,1.2*35
$GPRMC,175452.000,A,6352.8533,N,01638.7974,W,35.30,74.62,010912,,,A*7B
$GPGGA,175453.000,6352.8557,N,01638.7760,W,1,12,0.7,55.9,M,59.6,M,,0000*7F
$GPGSA,A,3,22,03,28,01,11,06,32,18,08,19,27,14,1.4,0.7,1.2*35
$GPRMC,175453.000,A,6352.8557,N,01638.7760,W,34.93,75.87,010912,,,A*71
$GPGGA,175454.000,6352.8577,N,01638.7546,W,1,12,0.7,56.0,M,59.6,M,,0000*76
$GPGSA,A,3,22,03,28,01,11,06,32,18,08,19,27,14,1.4,0.7,1.2*35
$GPRMC,175454.000,A,6352.8577,N,01638.7546,W,34.71,77.57,010912,,,A*71
$GPGGA,175455.000,6352.8594,N,01638.7329,W,1,12,0.7,56.2,M,59.6,M,,0000*77
$GPGSA,A,3,22,03,28,01,11,06,32,18,08,19,27,14,1.4,0.7,1.2*35
$GPGSV,3,1,12,11,61,224,38,19,57,138,40,01,43,232,28,22,41,071,29*73
$GPGSV,3,2,12,28,36,304,30,03,25,135,30,08,15,267,27,06,14,127,22*7D
$GPGSV,3,3,12,18,14,038,30,32,12,177,31,27,11,007,22,14,10,093,24*75
$GPRMC,175455.000,A,6352.8594,N,01638.7329,W,34.85,80.07,010912,,,A*74
$GPGGA,175456.000,6352.8605,N,01638.7108,W,1,12,0.7,56.4,M,59.6,M,,0000*78
$GPGSA,A,3,22,03,28,01,11,06,32,18,08,19,27,14,1.4,0.7,1.2*35
$GPRMC,175456.000,A,6352.8605,N,01638.7108,W,35.03,83.32,010912,,,A*77
$GPGGA,175457.000,6352.8611,N,01638.6887,W,1,12,0.7,56.5,M,59.6,M,,0000*72
$GPGSA,A,3,22,03,28,01,11,06,32,18,08,19,27,14,1.4,0.7,1.2*35
$GPRMC,175457.000,A,6352.8611,N,01638.6887,W,35.17,86.63,010912,,,A*78
$GPGGA,175458.000,6352.8611,N,01638.6664,W,1,12,0.7,56.6,M,59.6,M,,0000*7D
$GPGSA,A,3,22,03,28,01,11,06,32,18,08,19,27,14,1.4,0.7,1.2*35
$GPRMC,175458.000,A,6352.8611,N,01638.6664,W,35.27,90.10,010912,,,A*74
$GPGGA,175459.000,6352.8606,N,01638.6441,W,1,12,0.7,56.6,M,59.6,M,,0000*7F
$GPGSA,A,3,22,03,28,01,11,06,32,18,08,19,27,14,1.4,0.7,1.2*35
$GPRMC,175459.000,A,6352.8606,N,01638.6441,W,35.36,93.40,010912,,,A*70
$GPGGA,175500.000,6352.8595,N,01638.6221,W,1,11,0.8,56.5,M,59.6,M,,0000*74
$GPGSA,A,3,22,03,28,01,11,06,18,08,19,27,14,,1.6,0.8,1.4*3F
$GPGSV,3,1,12,11,61,224,39,19,57,138,38,01,43,232,38,22,41,071,36*72
$GPGSV,3,2,12,28,36,304,28,03,25,135,34,08,15,267,30,06,14,127,30*75
$GPGSV,3,3,12,18,14,038,28,32,12,177,27,27,11,007,29,14,10,093,27*73
$GPRMC,175500.000,A,6352.8595,N,01638.6221,W,35.07,96.30,010912,,,A*74
$GPGGA,175501.000,6352.8581,N,01638.6005,W,1,12,0.7,56.3,M,59.6,M,,0000*7E
$GPGSA,A,3,22,03,28,01,11,06,32,18,08,19,27,14,1.4,0.7,1.2*35
$GPRMC,175501.000,A,6352.8581,N,01638.6005,W,34.76,99.10,010912,,,A*7E
$GPGGA,175502.000,6352.8562,N,01638.5790,W,1,12,0.7,56.0,M,59.6,M,,0000*7B
$GPGSA,A,3,22,03,28,01,11,06,32,18,08,19,27,14,1.4,0.7,1.2*35
$GPRMC,175502.000,A,6352.8562,N,01638.5790,W,34.70,101.40,010912,,,A*4B
$GPGGA,175503.000,6352.8540,N,01638.5577,W,1,12,0.7,55.7,M,59.6,M,,0000*75
$GPGSA,A,3,22,03,28,01,11,06,32,18,08,19,27,14,1.4,0.7,1.2*35
$GPRMC,175503.000,A,6352.8540,N,01638.5577,W,34.90,103.51,010912,,,A*4D
$GPGGA,175504.000,6352.8515,N,01638.5363,W,1,12,0.7,55.3,M,59.6,M,,0000*75
$GPGSA,A,3,22,03,28,01,11,06,32,18,08,19,27,14,1.4,0.7,1.2*35
$GPRMC,175504.000,A,6352.8515,N,01638.5363,W,35.16,105.51,010912,,,A*40
$GPGGA,175505.000,6352.8488,N,01638.5149,W,1,12,0.7,54.9,M,59.6,M,,0000*70
$GPGSA,A,3,22,03,28,01,11,06,32,18,08,19,27,14,1.4,0.7,1.2*35
$GPGSV,3,1,12,11,61,224,40,19,57,138,43,01,43,232,38,22,41,071,36*70
$GPGSV,3,2,12,28,36,304,30,03,25,135,35,08,15,267,26,06,14,127,31*7B
$GPGSV,3,3,12,18,14,038,25,32,12,177,33,27,11,007,37,14,10,093,27*74
$GPRMC,175505.000,A,6352.8488,N,01638.5149,W,35.46,106.12,010912,,,A*4F
$GPGGA,175506.000,6352.8462,N,01638.4932,W,1,12,0.7,54.4,M,59.6,M,,0000*7F
$GPGSA,A,3,22,03,28,01,11,06,32,18,08,19,27,14,1.4,0.7,1.2*35
$GPRMC,175506.000,A,6352.8462,N,01638.4932,W,35.85,105.29,010912,,,A*49
$GPGGA,175507.000,6352.8442,N,01638.4709,W,1,12,0.7,53.9,M,59.6,M,,0000*70
$GPGSA,A,3,22,03,28,01,11,06,32,18,08,19,27,14,1.4,0.7,1.2*35
$GPRMC,175507.000,A,6352.8442,N,01638.4709,W,36.31,102.01,010912,,,A*4D
$GPGGA,175508.000,6352.8428,N,01638.4482,W,1,12,0.7,53.4,M,59.6,M,,0000*7E
$GPGSA,A,3,22,03,28,01,11,06,32,18,08,19,27,14,1.4,0.7,1.2*35
$GPRMC,175508.000,A,6352.8428,N,01638.4482,W,36.65,97.98,010912,,,A*72
$GPGGA,175509.000,6352.8421,N,01638.4251,W,1,12,0.7,53.0,M,59.6,M,,0000*7A
$GPGSA,A,3,22,03,28,01,11,06,32,18,08,19,27,14,1.4,0.7,1.2*35
$GPRMC,175509.000,A,6352.8421,N,01638.4251,W,36.90,93.40,010912,,,A*79
$GPGGA,175510.000,6352.8421,N,01638.4018,W,1,11,0.8,52.5,M,59.6,M,,0000*75
$GPGSA,A,3,22,03,28,01,11,06,18,08,19,27,14,,1.6,0.8,1.4*3F
$GPGSV,3,1,12,11,61,224,40,19,57,138,37,01,43,232,38,22,41,071,36*73
$GPGSV,3,2,12,28,36,304,30,03,25,135,30,08,15,267,30,06,14,127,35*7D
$GPGSV,3,3,12,18,14,038,26,32,12,177,,27,11,007,28,14,10,093,29*77
$GPRMC,175510.000,A,6352.8421,N,01638.4018,W,37.20,89.99,010912,,,A*7B
$GPGGA,175511.000,6352.8426,N,01638.3783,W,1,11,0.8,52.2,M,59.6,M,,0000*76
$GPGSA,A,3,22,03,28,01,11,06,32,18,08,19,14,,1.5,0.8,1.2*3E
$GPRMC,175511.000,A,6352.8426,N,01638.3783,W,37.41,86.51,010912,,,A*73
$GPGGA,175512.000,6352.8438,N,01638.3550,W,1,11,0.8,51.9,M,59.6,M,,0000*7E
$GPGSA,A,3,22,03,28,01,11,06,32,18,08,19,14,,1.5,0.8,1.2*3E
$GPRMC,175512.000,A,6352.8438,N,01638.3550,W,37.29,83.07,010912,,,A*7B
$GPGGA,175513.000,6352.8455,N,01638.3322,W,1,10,0.8,51.8,M,59.6,M,,0000*77
$GPGSA,A,3,03,28,01,11,06,32,18,08,19,14,,,1.6,0.8,1.3*3C
$GPRMC,175513.000,A,6352.8455,N,01638.3322,W,37.00,79.46,010912,,,A*79
$GPGGA,175514.000,6352.8478,N,01638.3099,W,1,12,0.7,51.8,M,59.6,M,,0000*71
$GPGSA,A,3,22,03,28,01,11,06,32,18,08,19,27,14,1.4,0.7,1.2*35
$GPRMC,175514.000,A,6352.8478,N,01638.3099,W,36.39,76.00,010912,,,A*74
$GPGGA,175515.000,6352.8508,N,01638.2882,W,1,12,0.7,52.0,M,59.6,M,,0000*7E
$GPGSA,A,3,22,03,28,01,11,06,32,18,08,19,27,14,1.4,0.7,1.2*35
$GPGSV,3,1,12,11,61,224,40,19,57,138,38,01,43,232,29,22,41,071,36*7C
$GPGSV,3,2,12,28,36,304,30,03,25,135,30,08,15,267,26,06,14,127,29*77
$GPGSV,3,3,12,18,14,038,25,32,12,177,31,27,11,007,32,14,10,093,28*7C
$GPRMC,175515.000,A,6352.8508,N,01638.2882,W,36.30,71.67,010912,,,A*7F
$GPGGA,175516.000,6352.8544,N,01638.2671,W,1,12,0.7,52.3,M,59.6,M,,0000*74
$GPGSA,A,3,22,03,28,01,11,06,32,18,08,19,27,14,1.4,0.7,1.2*35
$GPRMC,175516.000,A,6352.8544,N,01638.2671,W,35.97,68.14,010912,,,A*74
$GPGGA,175517.000,6352.8585,N,01638.2466,W,1,12,0.7,52.7,M,59.6,M,,0000*78
$GPGSA,A,3,22,03,28,01,11,06,32,18,08,19,27,14,1.4,0.7,1.2*35
$GPRMC,175517.000,A,6352.8585,N,01638.2466,W,35.69,65.16,010912,,,A*72
$GPGGA,175518.000,6352.8629,N,01638.2265,W,1,12,0.7,53.3,M,59.6,M,,0000*72
$GPGSA,A,3,22,03,28,01,11,06,32,18,08,19,27,14,1.4,0.7,1.2*35
$GPRMC,175518.000,A,6352.8629,N,01638.2265,W,35.63,62.93,010912,,,A*7D
$GPGGA,175519.000,6352.8675,N,01638.2068,W,1,12,0.7,53.8,M,59.6,M,,0000*7E
$GPGSA,A,3,22,03,28,01,11,06,32,18,08,19,27,14,1.4,0.7,1.2*35
$GPRMC,175519.000,A,6352.8675,N,01638.2068,W,35.42,60.95,010912,,,A*7D
$GPGGA,175520.000,6352.8723,N,01638.1874,W,1,12,0.7,54.4,M,59.6,M,,0000*7B
$GPGSA,A,3,22,03,28,01,11,06,32,18,08,19,27,14,1.4,0.7,1.2*35
$GPGSV,3,1,12,11,61,224,35,19,57,138,38,01,43,232,31,22,41,071,34*75
$GPGSV,3,2,12,28,36,304,35,03,25,135,21,08,15,267,31,06,14,127,20*7D
$GPGSV,3,3,12,18,14,038,31,32,12,177,22,27,11,007,27,14,10,093,29*7E
$GPRMC,175520.000,A,6352.8723,N,01638.1874,W,35.17,60.37,010912,,,A*7B
$GPGGA,175521.000,6352.8769,N,01638.1681,W,1,12,0.7,54.9,M,59.6,M,,0000*7D
$GPGSA,A,3,22,03,28,01,11,06,32,18,08,19,27,14,1.4,0.7,1.2*35
$GPRMC,175521.000,A,6352.8769,N,01638.1681,W,35.03,60.76,010912,,,A*70
$GPGGA,175522.000,6352.8815,N,01638.1486,W,1,12,0.7,55.4,M,59.6,M,,0000*73
$GPGSA,A,3,22,03,28,01,11,06,32,18,08,19,27,14,1.4,0.7,1.2*35
$GPRMC,175522.000,A,6352.8815,N,01638.1486,W,34.93,61.35,010912,,,A*7C
$GPGGA,175523.000,6352.8862,N,01638.1294,W,1,12,0.7,56.0,M,59.6,M,,0000*70
$GPGSA,A,3,22,03,28,01,11,06,32,18,08,19,27,14,1.4,0.7,1.2*35
$GPRMC,175523.000,A,6352.8862,N,01638.1294,W,34.91,60.54,010912,,,A*7C
$GPGGA,175524.000,6352.8909,N,01638.1102,W,1,12,0.7,56.6,M,59.6,M,,0000*71
$GPGSA,A,3,22,03,28,01,11,06,32,18,08,19,27,14,1.4,0.7,1.2*35
$GPRMC,175524.000,A,6352.8909,N,01638.1102,W,34.80,60.51,010912,,,A*7E
$GPGGA,175525.000,6352.8955,N,01638.0910,W,1,12,0.7,57.2,M,59.6,M,,0000*76
$GPGSA,A,3,22,03,28,01,11,06,32,18,08,19,27,14,1.4,0.7,1.2*35
$GPGSV,3,1,12,11,61,224,35,19,57,138,38,01,43,232,31,22,41,071,36*77
$GPGSV,3,2,12,28,36,304,35,03,25,135,21,08,15,267,31,06,14,127,20*7D
$GPGSV,3,3,12,18,14,038,32,32,12,177,26,27,11,007,27,14,10,093,31*70
$GPRMC,175525.000,A,6352.8955,N,01638.0910,W,34.74,60.66,010912,,,A*73
$GPGGA,175526.000,6352.9002,N,01638.0719,W,1,12,0.7,57.8,M,59.6,M,,0000*72
$GPGSA,A,3,22,03,28,01,11,06,32,18,08,19,27,14,1.4,0.7,1.2*35
$GPRMC,175526.000,A,6352.9002,N,01638.0719,W,34.78,60.43,010912,,,A*76
$GPGGA,175527.000,6352.9049,N,01638.0526,W,1,12,0.7,58.4,M,59.6,M,,0000*71
$GPGSA,A,3,22,03,28,01,11,06,32,18,08,19,27,14,1.4,0.7,1.2*35
$GPRMC,175527.000,A,6352.9049,N,01638.0526,W,34.92,60.82,010912,,,A*7F
$GPGGA,175528.000,6352.9096,N,01638.0332,W,1,12,0.7,58.9,M,59.6,M,,0000*72
$GPGSA,A,3,22,03,28,01,11,06,32,18,08,19,27,14,1.4,0.7,1.2*35
$GPRMC,175528.000,A,6352.9096,N,01638.0332,W,34.91,61.18,010912,,,A*70
$GPGGA,175529.000,6352.9143,N,01638.0140,W,1,12,0.7,59.3,M,59.6,M,,0000*76
$GPGSA,A,3,22,03,28,01,11,06,32,18,08,19,27,14,1.4,0.7,1.2*35
$GPRMC,175529.000,A,6352.9143,N,01638.0140,W,34.92,60.56,010912,,,A*77
$GPGGA,175530.000,6352.9190,N,01637.9947,W,1,12,0.7,59.7,M,59.6,M,,0000*7D
$GPGSA,A,3,22,03,28,01,11,06,32,18,08,19,27,14,1.4,0.7,1.2*35
$GPGSV,3,1,12,11,61,224,35,19,57,138,38,01,43,232,24,22,41,071,36*73
$GPGSV,3,2,12,28,36,304,36,03,25,135,20,08,15,267,31,06,14,127,21*7E
$GPGSV,3,3,12,18,14,038,32,32,12,177,22,27,11,007,26,14,10,093,32*76
$GPRMC,175530.000,A,6352.9190,N,01637.9947,W,35.03,60.42,010912,,,A*74
$GPGGA,175531.000,6352.9239,N,01637.9754,W,1,12,0.7,60.1,M,59.6,M,,0000*7C
$GPGSA,A,3,22,03,28,01,11,06,32,18,08,19,27,14,1.4,0.7,1.2*35
$GPRMC,175531.000,A,6352.9239,N,01637.9754,W,35.25,59.78,010912,,,A*7E
$GPGGA,175532.000,6352.9289,N,01637.9562,W,1,12,0.7,60.5,M,59.6,M,,0000*77
$GPGSA,A,3,22,03,28,01,11,06,32,18,08,19,27,14,1.4,0.7,1.2*35
$GPRMC,175532.000,A,6352.9289,N,01637.9562,W,35.36,59.53,010912,,,A*7A
$GPGGA,175533.000,6352.9339,N,01637.9371,W,1,12,0.7,60.8,M,59.6,M,,0000*75
$GPGSA,A,3,22,03,28,01,11,06,32,18,08,19,27,14,1.4,0.7,1.2*35
$GPRMC,175533.000,A,6352.9339,N,01637.9371,W,35.28,59.01,010912,,,A*7D
$GPGGA,175534.000,6352.9391,N,01637.9183,W,1,12,0.7,61.3,M,59.6,M,,0000*75
$GPGSA,A,3,22,03,28,01,11,06,32,18,08,19,27,14,1.4,0.7,1.2*35
$GPRMC,175534.000,A,6352.9391,N,01637.9183,W,35.25,57.49,010912,,,A*78
$GPGGA,175535.000,6352.9445,N,01637.8998,W,1,12,0.7,61.7,M,59.6,M,,0000*7D
$GPGSA,A,3,22,03,28,01,11,06,32,18,08,19,27,14,1.4,0.7,1.2*35
$GPGSV,3,1,12,11,61,224,35,19,57,138,39,01,43,232,24,22,41,071,36*72
$GPGSV,3,2,12,28,36,304,31,03,25,135,30,08,15,267,30,06,14,127,30*79
$GPGSV,3,3,12,18,14,038,32,32,12,177,31,27,11,007,27,14,10,093,33*74
$GPRMC,175535.000,A,6352.9445,N,01637.8998,W,35.22,56.26,010912,,,A*7B
$GPGGA,175536.000,6352.9502,N,01637.8816,W,1,12,0.7,62.2,M,59.6,M,,0000*7D
$GPGSA,A,3,22,03,28,01,11,06,32,18,08,19,27,14,1.4,0.7,1.2*35
$GPRMC,175536.000,A,6352.9502,N,01637.8816,W,35.24,54.81,010912,,,A*74
$GPGGA,175537.000,6352.9559,N,01637.8636,W,1,12,0.7,62.6,M,59.6,M,,0000*7A
$GPGSA,A,3,22,03,28,01,11,06,32,18,08,19,27,14,1.4,0.7,1.2*35
$GPRMC,175537.000,A,6352.9559,N,01637.8636,W,35.28,53.79,010912,,,A*7B
$GPGGA,175538.000,6352.9619,N,01637.8459,W,1,12,0.7,63.1,M,59.6,M,,0000*7F
$GPGSA,A,3,22,03,28,01,11,06,32,18,08,19,27,14,1.4,0.7,1.2*35
$GPRMC,175538.000,A,6352.9619,N,01637.8459,W,35.27,52.52,010912,,,A*7F
$GPGGA,175539.000,6352.9680,N,01637.8286,W,1,11,0.7,63.6,M,59.6,M,,0000*7E
$GPGSA,A,3,22,03,28,01,11,32,18,08,19,27,14,,1.4,0.7,1.2*33
$GPRMC,175539.000,A,6352.9680,N,01637.8286,W,35.34,51.09,010912,,,A*75
$GPGGA,175540.000,6352.9743,N,01637.8116,W,1,11,0.7,64.2,M,59.6,M,,0000*77
$GPGSA,A,3,22,03,28,01,11,32,18,08,19,27,14,,1.4,0.7,1.2*33
$GPGSV,3,1,12,11,61,224,35,19,57,138,40,01,43,232,29,22,41,071,21*77
$GPGSV,3,2,12,28,36,304,33,03,25,135,34,08,15,267,21,06,14,127,*7C
$GPGSV,3,3,12,18,14,038,24,32,12,177,30,27,11,007,23,14,10,093,20*74
$GPRMC,175540.000,A,6352.9743,N,01637.8116,W,35.08,49.98,010912,,,A*71
$GPGGA,175541.000,6352.9807,N,01637.7949,W,1,11,0.7,64.8,M,59.6,M,,0000*7E
$GPGSA,A,3,22,03,28,01,11,32,18,08,19,27,14,,1.4,0.7,1.2*33
$GPRMC,175541.000,A,6352.9807,N,01637.7949,W,35.22,48.69,010912,,,A*75
$GPGGA,175542.000,6352.9873,N,01637.7787,W,1,12,0.7,65.4,M,59.6,M,,0000*7C
$GPGSA,A,3,22,03,28,01,11,06,32,18,08,19,27,14,1.4,0.7,1.2*35
$GPRMC,175542.000,A,6352.9873,N,01637.7787,W,35.12,47.04,010912,,,A*7E
$GPGGA,175543.000,6352.9942,N,01637.7629,W,1,12,0.7,66.0,M,59.6,M,,0000*7C
$GPGSA,A,3,22,03,28,01,11,06,32,18,08,19,27,14,1.4,0.7,1.2*35
$GPRMC,175543.000,A,6352.9942,N,01637.7629,W,35.27,45.29,010912,,,A*72
$GPGGA,175544.000,6353.0013,N,01637.7473,W,1,12,0.7,66.6,M,59.6,M,,0000*75
$GPGSA,A,3,22,03,28,01,11,06,32,18,08,19,27,14,1.4,0.7,1.2*35
$GPRMC,175544.000,A,6353.0013,N,01637.7473,W,35.56,44.18,010912,,,A*78
$GPGGA,175545.000,6353.0085,N,01637.7323,W,1,12,0.7,67.3,M,59.6,M,,0000*7D
$GPGSA,A,3,22,03,28,01,11,06,32,18,08,19,27,14,1.4,0.7,1.2*35
$GPGSV,3,1,12,11,61,224,24,19,57,138,42,01,43,232,17,22,41,071,33*7B
$GPGSV,3,2,12,28,36,304,33,03,25,135,35,08,15,267,30,06,14,127,26*79
$GPGSV,3,3,12,18,14,038,31,32,12,177,31,27,11,007,26,14,10,093,31*74
$GPRMC,175545.000,A,6353.0085,N,01637.7323,W,35.13,42.30,010912,,,A*79
$GPGGA,175546.000,6353.0158,N,01637.7179,W,1,12,0.7,67.9,M,59.6,M,,0000*78
$GPGSA,A,3,22,03,28,01,11,06,32,18,08,19,27,14,1.4,0.7,1.2*35
$GPRMC,175546.000,A,6353.0158,N,01637.7179,W,34.98,40.87,010912,,,A*7A
$GPGGA,175547.000,6353.0233,N,01637.7038,W,1,12,0.7,68.5,M,59.6,M,,0000*70
$GPGSA,A,3,22,03,28,01,11,06,32,18,08,19,27,14,1.4,0.7,1.2*35
$GPRMC,175547.000,A,6353.0233,N,01637.7038,W,34.94,39.76,010912,,,A*7D
$GPGGA,175548.000,6353.0309,N,01637.6901,W,1,12,0.7,69.0,M,59.6,M,,0000*71
$GPGSA,A,3,22,03,28,01,11,06,32,18,08,19,27,14,1.4,0.7,1.2*35
$GPRMC,175548.000,A,6353.0309,N,01637.6901,W,34.92,38.42,010912,,,A*78
$GPGGA,175549.000,6353.0387,N,01637.6769,W,1,12,0.7,69.5,M,59.6,M,,0000*73
$GPGSA,A,3,22,03,28,01,11,06,32,18,08,19,27,14,1.4,0.7,1.2*35
$GPRMC,175549.000,A,6353.0387,N,01637.6769,W,34.81,36.63,010912,,,A*70
$GPGGA,175550.000,6353.0466,N,01637.6643,W,1,12,0.7,69.9,M,59.6,M,,0000*76
$GPGSA,A,3,22,03,28,01,11,06,32,18,08,19,27,14,1.4,0.7,1.2*35
$GPGSV,3,1,12,11,61,224,27,19,57,138,42,01,43,232,27,22,41,071,35*7D
$GPGSV,3,2,12,28,36,304,39,03,25,135,35,08,15,267,28,06,14,127,25*79
$GPGSV,3,3,12,18,14,038,32,32,12,177,27,27,11,007,27,14,10,093,18*7A
$GPRMC,175550.000,A,6353.0466,N,01637.6643,W,34.84,35.17,010912,,,A*7C
$GPGGA,175551.000,6353.0546,N,01637.6520,W,1,11,0.7,70.4,M,59.6,M,,0000*74
$GPGSA,A,3,22,03,28,01,11,32,18,08,19,27,14,,1.4,0.7,1.2*33
$GPRMC,175551.000,A,6353.0546,N,01637.6520,W,34.92,33.60,010912,,,A*79
$GPGGA,175552.000,6353.0628,N,01637.6402,W,1,12,0.7,70.8,M,59.6,M,,0000*72
$GPGSA,A,3,22,03,28,01,11,06,32,18,08,19,27,14,1.4,0.7,1.2*35
$GPRMC,175552.000,A,6353.0628,N,01637.6402,W,34.75,32.65,010912,,,A*7D
$GPGGA,175553.000,6353.0710,N,01637.6289,W,1,12,0.7,71.2,M,59.6,M,,0000*77
$GPGSA,A,3,22,03,28,01,11,06,32,18,08,19,27,14,1.4,0.7,1.2*35
$GPRMC,175553.000,A,6353.0710,N,01637.6289,W,34.47,31.13,010912,,,A*70
$GPGGA,175554.000,6353.0793,N,01637.6182,W,1,12,0.7,71.6,M,59.6,M,,0000*77
$GPGSA,A,3,22,03,28,01,11,06,32,18,08,19,27,14,1.4,0.7,1.2*35
$GPRMC,175554.000,A,6353.0793,N,01637.6182,W,34.49,29.57,010912,,,A*73
$GPGGA,175555.000,6353.0877,N,01637.6080,W,1,12,0.7,71.9,M,59.6,M,,0000*7F
$GPGSA,A,3,22,03,28,01,11,06,32,18,08,19,27,14,1.4,0.7,1.2*35
$GPGSV,3,1,12,11,61,224,21,19,57,138,42,01,43,232,27,22,41,071,34*7A
$GPGSV,3,2,12,28,36,304,31,03,25,135,40,08,15,267,31,06,14,127,29*77
$GPGSV,3,3,12,18,14,038,31,32,12,177,30,27,11,007,30,14,10,093,26*74
$GPRMC,175555.000,A,6353.0877,N,01637.6080,W,34.38,28.08,010912,,,A*79
$GPGGA,175556.000,6353.0962,N,01637.5981,W,1,12,0.7,72.2,M,59.6,M,,0000*7A
$GPGSA,A,3,22,03,28,01,11,06,32,18,08,19,27,14,1.4,0.7,1.2*35
$GPRMC,175556.000,A,6353.0962,N,01637.5981,W,34.31,27.16,010912,,,A*7D
$GPGGA,175557.000,6353.1048,N,01637.5887,W,1,12,0.7,72.5,M,59.6,M,,0000*7B
$GPGSA,A,3,22,03,28,01,11,06,32,18,08,19,27,14,1.4,0.7,1.2*35
$GPRMC,175557.000,A,6353.1048,N,01637.5887,W,34.31,25.60,010912,,,A*78
$GPGGA,175558.000,6353.1135,N,01637.5798,W,1,12,0.7,72.7,M,59.6,M,,0000*7C
$GPGSA,A,3,22,03,28,01,11,06,32,18,08,19,27,14,1.4,0.7,1.2*35
$GPRMC,175558.000,A,6353.1135,N,01637.5798,W,34.60,24.19,010912,,,A*76
$GPGGA,175559.000,6353.1224,N,01637.5712,W,1,12,0.7,72.9,M,59.6,M,,0000*72
$GPGSA,A,3,22,03,28,01,11,06,32,18,08,19,27,14,1.4,0.7,1.2*35
$GPRMC,175559.000,A,6353.1224,N,01637.5712,W,34.82,22.99,010912,,,A*74
$GPGGA,175600.000,6353.1314,N,01637.5630,W,1,12,0.7,73.1,M,59.6,M,,0000*77
$GPGSA,A,3,22,03,28,01,11,06,32,18,08,19,27,14,1.4,0.7,1.2*35
$GPGSV,3,1,12,11,61,224,32,19,57,138,43,01,43,232,27,22,41,071,34*79
$GPGSV,3,2,12,28,36,304,31,03,25,135,41,08,15,267,32,06,14,127,25*79
$GPGSV,3,3,12,18,14,038,23,32,12,177,29,27,11,007,28,14,10,093,23*73
$GPRMC,175600.000,A,6353.1314,N,01637.5630,W,34.77,22.06,010912,,,A*74
$GPGGA,175601.000,6353.1404,N,01637.5552,W,1,11,0.8,73.3,M,59.6,M,,0000*79
$GPGSA,A,3,22,03,28,01,11,06,32,18,08,19,14,,1.5,0.8,1.2*3E
$GPRMC,175601.000,A,6353.1404,N,01637.5552,W,34.76,21.06,010912,,,A*76
$GPGGA,175602.000,6353.1495,N,01637.5478,W,1,12,0.7,73.4,M,59.6,M,,0000*70
$GPGSA,A,3,22,03,28,01,11,06,32,18,08,19,27,14,1.4,0.7,1.2*35
$GPRMC,175602.000,A,6353.1495,N,01637.5478,W,34.93,19.62,010912,,,A*76
$GPGGA,175603.000,6353.1586,N,01637.5408,W,1,12,0.7,73.6,M,59.6,M,,0000*77
$GPGSA,A,3,22,03,28,01,11,06,32,18,08,19,27,14,1.4,0.7,1.2*35
$GPRMC,175603.000,A,6353.1586,N,01637.5408,W,34.80,18.74,010912,,,A*77
$GPGGA,175604.000,6353.1677,N,01637.5342,W,1,11,0.7,73.7,M,59.6,M,,0000*76
$GPGSA,A,3,22,03,28,01,11,06,32,18,08,19,27,,1.4,0.7,1.2*30
$GPRMC,175604.000,A,6353.1677,N,01637.5342,W,34.61,17.90,010912,,,A*7E
$GPGGA,175605.000,6353.1769,N,01637.5279,W,1,12,0.7,74.0,M,59.6,M,,0000*73
$GPGSA,A,3,22,03,28,01,11,06,32,18,08,19,27,14,1.4,0.7,1.2*35
$GPGSV,3,1,12,11,62,224,33,19,57,138,43,01,44,232,28,22,41,071,35*72
$GPGSV,3,2,12,28,36,304,31,03,24,135,40,08,14,267,27,06,13,127,26*78
$GPGSV,3,3,12,18,13,038,24,32,12,177,24,27,11,006,27,14,11,093,10*71
$GPRMC,175605.000,A,6353.1769,N,01637.5279,W,34.68,16.89,010912,,,A*78
$GPGGA,175606.000,6353.1861,N,01637.5218,W,1,12,0.7,74.2,M,59.6,M,,0000*72
$GPGSA,A,3,22,03,28,01,11,06,32,18,08,19,27,14,1.4,0.7,1.2*35
$GPRMC,175606.000,A,6353.1861,N,01637.5218,W,34.55,16.39,010912,,,A*7E
$GPGGA,175607.000,6353.1953,N,01637.5159,W,1,12,0.7,74.4,M,59.6,M,,0000*73
$GPGSA,A,3,22,03,28,01,11,06,32,18,08,19,27,14,1.4,0.7,1.2*35
$GPRMC,175607.000,A,6353.1953,N,01637.5159,W,34.46,16.08,010912,,,A*79
$GPGGA,175608.000,6353.2045,N,01637.5100,W,1,12,0.7,74.7,M,59.6,M,,0000*7E
$GPGSA,A,3,22,03,28,01,11,06,32,18,08,19,27,14,1.4,0.7,1.2*35
$GPRMC,175608.000,A,6353.2045,N,01637.5100,W,34.48,15.86,010912,,,A*7C
$GPGGA,175609.000,6353.2137,N,01637.5042,W,1,12,0.7,75.0,M,59.6,M,,0000*7A
$GPGSA,A,3,22,03,28,01,11,06,32,18,08,19,27,14,1.4,0.7,1.2*35
$GPRMC,175609.000,A,6353.2137,N,01637.5042,W,34.61,15.88,010912,,,A*7B
$GPGGA,175610.000,6353.2229,N,01637.4985,W,1,12,0.7,75.2,M,59.6,M,,0000*7F
$GPGSA,A,3,22,03,28,01,11,06,32,18,08,19,27,14,1.4,0.7,1.2*35
$GPGSV,3,1,12,11,62,224,33,19,57,138,42,01,44,232,31,22,41,071,35*7B
$GPGSV,3,2,12,28,36,304,32,03,24,135,39,08,14,267,30,06,13,127,27*72
$GPGSV,3,3,12,18,13,038,26,32,12,177,18,27,11,006,23,14,11,093,19*71
$GPRMC,175610.000,A,6353.2229,N,01637.4985,W,34.53,15.39,010912,,,A*77
$GPGGA,175611.000,6353.2321,N,01637.4931,W,1,12,0.7,75.5,M,59.6,M,,0000*7F
$GPGSA,A,3,22,03,28,01,11,06,32,18,08,19,27,14,1.4,0.7,1.2*35
$GPRMC,175611.000,A,6353.2321,N,01637.4931,W,34.35,14.83,010912,,,A*70
$GPGGA,175612.000,6353.2414,N,01637.4879,W,1,12,0.7,75.7,M,59.6,M,,0000*72
$GPGSA,A,3,22,03,28,01,11,06,32,18,08,19,27,14,1.4,0.7,1.2*35
$GPRMC,175612.000,A,6353.2414,N,01637.4879,W,34.44,14.08,010912,,,A*7A
$GPGGA,175613.000,6353.2506,N,01637.4828,W,1,12,0.7,76.0,M,59.6,M,,0000*71
$GPGSA,A,3,22,03,28,01,11,06,32,18,08,19,27,14,1.4,0.7,1.2*35
$GPRMC,175613.000,A,6353.2506,N,01637.4828,W,34.30,13.87,010912,,,A*7E
$GPGGA,175614.000,6353.2598,N,01637.4776,W,1,12,0.7,76.2,M,59.6,M,,0000*77
$GPGSA,A,3,22,03,28,01,11,06,32,18,08,19,27,14,1.4,0.7,1.2*35
$GPRMC,175614.000,A,6353.2598,N,01637.4776,W,34.14,14.48,010912,,,A*78
$GPGGA,175615.000,6353.2688,N,01637.4721,W,1,12,0.7,76.4,M,59.6,M,,0000*70
$GPGSA,A,3,22,03,28,01,11,06,32,18,08,19,27,14,1.4,0.7,1.2*35
$GPGSV,3,1,12,11,62,223,24,19,56,138,41,01,44,232,35,22,41,070,36*7E
$GPGSV,3,2,12,28,36,304,32,03,24,135,38,08,14,266,30,06,13,127,27*72
$GPGSV,3,3,12,18,13,038,31,32,12,177,18,27,11,006,23,14,11,093,26*7B
$GPRMC,175615.000,A,6353.2688,N,01637.4721,W,33.75,15.58,010912,,,A*79
$GPGGA,175616.000,6353.2777,N,01637.4663,W,1,12,0.7,76.6,M,59.6,M,,0000*77
$GPGSA,A,3,22,03,28,01,11,06,32,18,08,19,27,14,1.4,0.7,1.2*35
$GPRMC,175616.000,A,6353.2777,N,01637.4663,W,33.63,16.15,010912,,,A*71
$GPGGA,175617.000,6353.2867,N,01637.4609,W,1,12,0.7,76.8,M,59.6,M,,0000*7A
$GPGSA,A,3,22,03,28,01,11,06,32,18,08,19,27,14,1.4,0.7,1.2*35
$GPRMC,175617.000,A,6353.2867,N,01637.4609,W,33.59,15.45,010912,,,A*7D
$GPGGA,175618.000,6353.2956,N,01637.4554,W,1,12,0.7,76.9,M,59.6,M,,0000*7C
$GPGSA,A,3,22,03,28,01,11,06,32,18,08,19,27,14,1.4,0.7,1.2*35
$GPRMC,175618.000,A,6353.2956,N,01637.4554,W,33.53,15.62,010912,,,A*75
$GPGGA,175619.000,6353.3045,N,01637.4498,W,1,12,0.7,77.1,M,59.6,M,,0000*7F
$GPGSA,A,3,22,03,28,01,11,06,32,18,08,19,27,14,1.4,0.7,1.2*35
$GPRMC,175619.000,A,6353.3045,N,01637.4498,W,33.48,15.87,010912,,,A*7E
$GPGGA,175620.000,6353.3135,N,01637.4440,W,1,12,0.7,77.3,M,59.6,M,,0000*74
$GPGSA,A,3,22,03,28,01,11,06,32,18,08,19,27,14,1.4,0.7,1.2*35
$GPGSV,3,1,12,11,62,223,25,19,56,138,41,01,44,232,34,22,41,070,37*7F
$GPGSV,3,2,12,28,36,304,32,03,24,135,38,08,14,266,26,06,13,127,33*70
$GPGSV,3,3,12,18,13,038,31,32,12,177,17,27,11,006,26,14,11,093,24*73
$GPRMC,175620.000,A,6353.3135,N,01637.4440,W,33.64,16.25,010912,,,A*72
$GPGGA,175621.000,6353.3225,N,01637.4380,W,1,12,0.7,77.4,M,59.6,M,,0000*7B
$GPGSA,A,3,22,03,28,01,11,06,32,18,08,19,27,14,1.4,0.7,1.2*35
$GPRMC,175621.000,A,6353.3225,N,01637.4380,W,33.87,17.03,010912,,,A*72
$GPGGA,175622.000,6353.3314,N,01637.4314,W,1,12,0.7,77.6,M,59.6,M,,0000*74
$GPGSA,A,3,22,03,28,01,11,06,32,18,08,19,27,14,1.4,0.7,1.2*35
$GPRMC,175622.000,A,6353.3314,N,01637.4314,W,34.17,18.52,010912,,,A*7A
$GPGGA,175623.000,6353.3404,N,01637.4244,W,1,12,0.7,77.7,M,59.6,M,,0000*76
$GPGSA,A,3,22,03,28,01,11,06,32,18,08,19,27,14,1.4,0.7,1.2*35
$GPRMC,175623.000,A,6353.3404,N,01637.4244,W,34.26,19.60,010912,,,A*7B
$GPGGA,175624.000,6353.3493,N,01637.4174,W,1,12,0.7,77.9,M,59.6,M,,0000*71
$GPGSA,A,3,22,03,28,01,11,06,32,18,08,19,27,14,1.4,0.7,1.2*35
$GPRMC,175624.000,A,6353.3493,N,01637.4174,W,34.23,19.41,010912,,,A*74
$GPGGA,175625.000,6353.3582,N,01637.4103,W,1,11,0.8,78.0,M,59.6,M,,0000*7B
$GPGSA,A,3,22,03,28,01,11,06,32,08,19,27,14,,1.4,0.8,1.2*33
$GPGSV,3,1,12,11,62,223,29,19,56,138,41,01,44,232,35,22,41,070,37*72
$GPGSV,3,2,12,28,36,304,33,03,24,135,38,08,14,266,31,06,13,127,34*70
$GPGSV,3,3,12,18,13,038,,32,12,177,32,27,11,006,26,14,11,093,24*76
$GPRMC,175625.000,A,6353.3582,N,01637.4103,W,34.14,20.02,010912,,,A*7D
$GPGGA,175626.000,6353.3670,N,01637.4027,W,1,12,0.7,78.0,M,59.6,M,,0000*7D
$GPGSA,A,3,22,03,28,01,11,06,32,18,08,19,27,14,1.4,0.7,1.2*35
$GPRMC,175626.000,A,6353.3670,N,01637.4027,W,34.25,21.28,010912,,,A*7C
$GPGGA,175627.000,6353.3758,N,01637.3947,W,1,12,0.7,78.1,M,59.6,M,,0000*7E
$GPGSA,A,3,22,03,28,01,11,06,32,18,08,19,27,14,1.4,0.7,1.2*35
$GPRMC,175627.000,A,6353.3758,N,01637.3947,W,34.29,22.25,010912,,,A*7C
$GPGGA,175628.000,6353.3846,N,01637.3864,W,1,12,0.7,78.1,M,59.6,M,,0000*71
$GPGSA,A,3,22,03,28,01,11,06,32,18,08,19,27,14,1.4,0.7,1.2*35
$GPRMC,175628.000,A,6353.3846,N,01637.3864,W,34.65,23.22,010912,,,A*7D
$GPGGA,175629.000,6353.3935,N,01637.3776,W,1,12,0.7,78.1,M,59.6,M,,0000*79
$GPGSA,A,3,22,03,28,01,11,06,32,18,08,19,27,14,1.4,0.7,1.2*35
$GPRMC,175629.000,A,6353.3935,N,01637.3776,W,34.83,24.12,010912,,,A*79
$GPGGA,175630.000,6353.4023,N,01637.3686,W,1,12,0.7,78.0,M,59.6,M,,0000*77
$GPGSA,A,3,22,03,28,01,11,06,32,18,08,19,27,14,1.4,0.7,1.2*35
$GPGSV,3,1,12,11,62,223,34,19,56,138,41,01,44,232,34,22,41,070,37*7F
$GPGSV,3,2,12,28,36,304,34,03,24,135,41,08,14,266,30,06,13,127,29*74
$GPGSV,3,3,12,18,13,038,33,32,12,177,27,27,11,006,25,14,11,093,25*70
$GPRMC,175630.000,A,6353.4023,N,01637.3686,W,35.02,24.81,010912,,,A*74
$GPGGA,175631.000,6353.4111,N,01637.3591,W,1,12,0.7,78.0,M,59.6,M,,0000*73
$GPGSA,A,3,22,03,28,01,11,06,32,18,08,19,27,14,1.4,0.7,1.2*35
$GPRMC,175631.000,A,6353.4111,N,01637.3591,W,35.34,25.71,010912,,,A*7B
$GPGGA,175632.000,6353.4199,N,01637.3493,W,1,12,0.7,78.0,M,59.6,M,,0000*73
$GPGSA,A,3,22,03,28,01,11,06,32,18,08,19,27,14,1.4,0.7,1.2*35
$GPRMC,175632.000,A,6353.4199,N,01637.3493,W,35.53,26.72,010912,,,A*7A
$GPGGA,175633.000,6353.4286,N,01637.3390,W,1,12,0.7,77.9,M,59.6,M,,0000*7D
$GPGSA,A,3,22,03,28,01,11,06,32,18,08,19,27,14,1.4,0.7,1.2*35
$GPRMC,175633.000,A,6353.4286,N,01637.3390,W,35.67,27.67,010912,,,A*70
$GPGGA,175634.000,6353.4373,N,01637.3284,W,1,12,0.7,77.9,M,59.6,M,,0000*75
$GPGSA,A,3,22,03,28,01,11,06,32,18,08,19,27,14,1.4,0.7,1.2*35
$GPRMC,175634.000,A,6353.4373,N,01637.3284,W,35.76,28.55,010912,,,A*76
$GPGGA,175635.000,6353.4460,N,01637.3175,W,1,12,0.7,77.7,M,59.6,M,,0000*72
$GPGSA,A,3,22,03,28,01,11,06,32,18,08,19,27,14,1.4,0.7,1.2*35
$GPGSV,3,1,12,11,62,223,33,19,56,138,40,01,44,232,32,22,41,070,37*7F
$GPGSV,3,2,12,28,36,304,28,03,24,135,41,08,14,266,31,06,13,127,29*78
$GPGSV,3,3,12,18,13,038,33,32,12,177,27,27,11,006,28,14,11,093,23*7B
$GPRMC,175635.000,A,6353.4460,N,01637.3175,W,35.96,29.28,010912,,,A*7A
$GPGGA,175636.000,6353.4547,N,01637.3063,W,1,12,0.7,77.6,M,59.6,M,,0000*72
$GPGSA,A,3,22,03,28,01,11,06,32,18,08,19,27,14,1.4,0.7,1.2*35
$GPRMC,175636.000,A,6353.4547,N,01637.3063,W,36.07,29.96,010912,,,A*75
$GPGGA,175637.000,6353.4633,N,01637.2948,W,1,12,0.7,77.4,M,59.6,M,,0000*70
$GPGSA,A,3,22,03,28,01,11,06,32,18,08,19,27,14,1.4,0.7,1.2*35
$GPRMC,175637.000,A,6353.4633,N,01637.2948,W,36.17,30.77,010912,,,A*73
$GPGGA,175638.000,6353.4719,N,01637.2828,W,1,12,0.7,77.2,M,59.6,M,,0000*77
$GPGSA,A,3,22,03,28,01,11,06,32,18,08,19,27,14,1.4,0.7,1.2*35
$GPRMC,175638.000,A,6353.4719,N,01637.2828,W,36.47,31.90,010912,,,A*7F
$GPGGA,175639.000,6353.4804,N,01637.2704,W,1,12,0.7,77.1,M,59.6,M,,0000*77
$GPGSA,A,3,22,03,28,01,11,06,32,18,08,19,27,14,1.4,0.7,1.2*35
$GPRMC,175639.000,A,6353.4804,N,01637.2704,W,36.62,32.93,010912,,,A*7B
$GPGGA,175640.000,6353.4889,N,01637.2577,W,1,12,0.7,76.9,M,59.6,M,,0000*73
$GPGSA,A,3,22,03,28,01,11,06,32,18,08,19,27,14,1.4,0.7,1.2*35
$GPGSV,3,1,12,11,62,223,27,19,56,138,41,01,44,232,24,22,41,070,37*7C
$GPGSV,3,2,12,28,36,304,36,03,24,135,41,08,14,266,23,06,13,127,18*76
$GPGSV,3,3,12,18,13,038,27,32,12,177,16,27,11,006,22,14,11,093,27*72
$GPRMC,175640.000,A,6353.4889,N,01637.2577,W,36.64,33.89,010912,,,A*7A
$GPGGA,175641.000,6353.4972,N,01637.2447,W,1,12,0.7,76.8,M,59.6,M,,0000*74
$GPGSA,A,3,22,03,28,01,11,06,32,18,08,19,27,14,1.4,0.7,1.2*35
$GPRMC,175641.000,A,6353.4972,N,01637.2447,W,36.43,34.67,010912,,,A*7E
$GPGGA,175642.000,6353.5055,N,01637.2314,W,1,12,0.7,76.6,M,59.6,M,,0000*75
$GPGSA,A,3,22,03,28,01,11,06,32,18,08,19,27,14,1.4,0.7,1.2*35
$GPRMC,175642.000,A,6353.5055,N,01637.2314,W,36.78,35.51,010912,,,A*7D
$GPGGA,175643.000,6353.5138,N,01637.2177,W,1,12,0.7,76.5,M,59.6,M,,0000*7A
$GPGSA,A,3,22,03,28,01,11,06,32,18,08,19,27,14,1.4,0.7,1.2*35
$GPRMC,175643.000,A,6353.5138,N,01637.2177,W,36.95,36.37,010912,,,A*71
$GPGGA,175644.000,6353.5220,N,01637.2036,W,1,12,0.7,76.4,M,59.6,M,,0000*72
$GPGSA,A,3,22,03,28,01,11,06,32,18,08,19,27,14,1.4,0.7,1.2*35
$GPRMC,175644.000,A,6353.5220,N,01637.2036,W,37.32,37.02,010912,,,A*73
$GPGGA,175645.000,6353.5302,N,01637.1891,W,1,12,0.7,76.3,M,59.5,M,,0000*70
$GPGSA,A,3,22,03,28,01,11,06,32,18,08,19,27,14,1.4,0.7,1.2*35
$GPGSV,3,1,12,11,62,223,27,19,56,138,40,01,44,232,25,22,41,070,27*7D
$GPGSV,3,2,12,28,36,304,26,03,24,135,40,08,14,266,27,06,13,127,27*7E
$GPGSV,3,3,12,18,13,038,27,32,12,177,31,27,11,006,14,14,11,093,27*72
$GPRMC,175645.000,A,6353.5302,N,01637.1891,W,37.48,38.29,010912,,,A*7E
$GPGGA,175646.000,6353.5383,N,01637.1743,W,1,12,0.7,76.1,M,59.5,M,,0000*78
$GPGSA,A,3,22,03,28,01,11,06,32,18,08,19,27,14,1.4,0.7,1.2*35
$GPRMC,175646.000,A,6353.5383,N,01637.1743,W,37.31,39.15,010912,,,A*74
$GPGGA,175647.000,6353.5462,N,01637.1594,W,1,12,0.7,75.9,M,59.5,M,,0000*72
$GPGSA,A,3,22,03,28,01,11,06,32,18,08,19,27,14,1.4,0.7,1.2*35
$GPRMC,175647.000,A,6353.5462,N,01637.1594,W,37.14,39.90,010912,,,A*7F
$GPGGA,175648.000,6353.5540,N,01637.1442,W,1,12,0.7,75.6,M,59.5,M,,0000*79
$GPGSA,A,3,22,03,28,01,11,06,32,18,08,19,27,14,1.4,0.7,1.2*35
$GPRMC,175648.000,A,6353.5540,N,01637.1442,W,37.13,40.73,010912,,,A*7F
$GPGGA,175649.000,6353.5618,N,01637.1289,W,1,11,0.8,75.4,M,59.5,M,,0000*79
$GPGSA,A,3,22,03,28,01,11,06,32,18,08,19,14,,1.5,0.8,1.2*3E
$GPRMC,175649.000,A,6353.5618,N,01637.1289,W,36.86,41.46,010912,,,A*7B
$GPGGA,175650.000,6353.5693,N,01637.1136,W,1,11,0.8,75.2,M,59.5,M,,0000*73
$GPGSA,A,3,22,03,28,01,11,06,32,18,08,19,14,,1.5,0.8,1.2*3E
$GPGSV,3,1,12,11,62,223,27,19,56,138,40,01,44,232,16,22,41,070,27*7D
$GPGSV,3,2,12,28,36,304,26,03,24,135,37,08,14,266,28,06,13,127,27*71
$GPGSV,3,3,12,18,13,038,32,32,12,177,34,27,11,006,,14,11,093,32*72
$GPRMC,175650.000,A,6353.5693,N,01637.1136,W,36.42,42.22,010912,,,A*7E
$GPGGA,175651.000,6353.5766,N,01637.0981,W,1,11,0.8,75.0,M,59.5,M,,0000*7E
$GPGSA,A,3,22,03,28,01,11,06,32,18,08,19,14,,1.5,0.8,1.2*3E
$GPRMC,175651.000,A,6353.5766,N,01637.0981,W,36.08,43.37,010912,,,A*7A
$GPGGA,175652.000,6353.5838,N,01637.0826,W,1,11,0.8,74.8,M,59.5,M,,0000*7C
$GPGSA,A,3,22,03,28,01,11,06,32,18,08,19,14,,1.5,0.8,1.2*3E
$GPRMC,175652.000,A,6353.5838,N,01637.0826,W,35.84,43.79,010912,,,A*7C
$GPGGA,175653.000,6353.5909,N,01637.0670,W,1,11,0.8,74.7,M,59.5,M,,0000*7C
$GPGSA,A,3,22,03,28,01,11,06,32,18,08,19,14,,1.5,0.8,1.2*3E
$GPRMC,175653.000,A,6353.5909,N,01637.0670,W,35.48,44.37,010912,,,A*7E
$GPGGA,175654.000,6353.5979,N,01637.0513,W,1,11,0.8,74.5,M,59.5,M,,0000*78
$GPGSA,A,3,22,03,28,01,11,06,32,18,08,19,14,,1.5,0.8,1.2*3E
$GPRMC,175654.000,A,6353.5979,N,01637.0513,W,35.51,44.85,010912,,,A*79
$GPGGA,175655.000,6353.6050,N,01637.0356,W,1,11,0.8,74.3,M,59.5,M,,0000*79
$GPGSA,A,3,22,03,28,01,11,06,32,18,08,19,14,,1.5,0.8,1.2*3E
$GPGSV,3,1,12,11,62,223,28,19,56,138,40,01,44,232,28,22,41,070,36*7F
$GPGSV,3,2,12,28,36,304,29,03,24,135,37,08,14,266,30,06,13,127,31*70
$GPGSV,3,3,12,18,13,038,32,32,12,177,33,27,11,006,,14,11,093,32*75
$GPRMC,175655.000,A,6353.6050,N,01637.0356,W,35.67,44.89,010912,,,A*77
$GPGGA,175656.000,6353.6120,N,01637.0197,W,1,11,0.8,74.2,M,59.5,M,,0000*72
$GPGSA,A,3,22,03,28,01,11,06,32,18,08,19,14,,1.5,0.8,1.2*3E
$GPRMC,175656.000,A,6353.6120,N,01637.0197,W,35.76,44.96,010912,,,A*73
$GPGGA,175657.000,6353.6190,N,01637.0039,W,1,11,0.8,74.0,M,59.5,M,,0000*7F
$GPGSA,A,3,22,03,28,01,11,06,32,18,08,19,14,,1.5,0.8,1.2*3E
$GPRMC,175657.000,A,6353.6190,N,01637.0039,W,35.78,45.15,010912,,,A*78
$GPGGA,175658.000,6353.6260,N,01636.9879,W,1,11,0.8,73.8,M,59.5,M,,0000*77
$GPGSA,A,3,22,03,28,01,11,06,32,18,08,19,14,,1.5,0.8,1.2*3E
$GPRMC,175658.000,A,6353.6260,N,01636.9879,W,35.74,45.48,010912,,,A*7B
$GPGGA,175659.000,6353.6329,N,01636.9720,W,1,11,0.8,73.5,M,59.5,M,,0000*74
$GPGSA,A,3,22,03,28,01,11,06,32,18,08,19,14,,1.5,0.8,1.2*3E
$GPRMC,175659.000,A,6353.6329,N,01636.9720,W,35.62,45.66,010912,,,A*7E
$GPGGA,175700.000,6353.6398,N,01636.9559,W,1,11,0.8,73.3,M,59.5,M,,0000*79
$GPGSA,A,3,22,03,28,01,11,06,32,18,08,19,14,,1.5,0.8,1.2*3E
$GPGSV,3,1,12,11,62,223,31,19,56,138,42,01,44,232,29,22,41,070,32*70
$GPGSV,3,2,12,28,36,304,29,03,24,135,37,08,14,266,22,06,13,127,29*7A
$GPGSV,3,3,12,18,13,038,30,32,12,177,35,27,11,006,,14,11,093,21*73
$GPRMC,175700.000,A,6353.6398,N,01636.9559,W,35.71,45.85,010912,,,A*7A
$GPGGA,175701.000,6353.6468,N,01636.9399,W,1,11,0.8,73.1,M,59.5,M,,0000*78
$GPGSA,A,3,22,03,28,01,11,06,32,18,08,19,14,,1.5,0.8,1.2*3E
$GPRMC,175701.000,A,6353.6468,N,01636.9399,W,36.05,45.44,010912,,,A*74
$GPGGA,175702.000,6353.6539,N,01636.9238,W,1,10,0.9,72.9,M,59.5,M,,0000*7D
$GPGSA,A,3,22,03,28,01,11,06,32,18,19,14,,,1.7,0.9,1.5*32
$GPRMC,175702.000,A,6353.6539,N,01636.9238,W,36.08,45.16,010912,,,A*72
$GPGGA,175703.000,6353.6609,N,01636.9078,W,1,10,0.9,72.7,M,59.5,M,,0000*74
$GPGSA,A,3,22,03,28,01,11,06,32,18,19,14,,,1.7,0.9,1.5*32
$GPRMC,175703.000,A,6353.6609,N,01636.9078,W,36.18,45.26,010912,,,A*77
$GPGGA,175704.000,6353.6680,N,01636.8918,W,1,10,0.9,72.5,M,59.5,M,,0000*7E
$GPGSA,A,3,22,03,28,01,11,06,32,18,19,14,,,1.7,0.9,1.5*32
$GPRMC,175704.000,A,6353.6680,N,01636.8918,W,36.06,44.76,010912,,,A*74
$GPGGA,175705.000,6353.6751,N,01636.8758,W,1,10,0.9,72.3,M,59.5,M,,0000*7E
$GPGSA,A,3,22,03,28,01,11,06,32,18,19,14,,,1.7,0.9,1.5*32
$GPGSV,3,1,12,11,62,223,31,19,56,138,43,01,44,232,29,22,41,070,31*72
$GPGSV,3,2,12,28,36,304,28,03,24,135,36,08,14,266,,06,13,127,28*7B
$GPGSV,3,3,12,18,13,038,25,32,12,177,35,27,11,006,,14,11,093,23*75
$GPRMC,175705.000,A,6353.6751,N,01636.8758,W,36.16,45.24,010912,,,A*75
$GPGGA,175706.000,6353.6821,N,01636.8597,W,1,11,0.8,72.1,M,59.5,M,,0000*76
$GPGSA,A,3,22,03,28,01,11,06,32,18,27,19,14,,1.6,0.8,1.4*36
$GPRMC,175706.000,A,6353.6821,N,01636.8597,W,36.04,45.40,010912,,,A*7E
$GPGGA,175707.000,6353.6892,N,01636.8438,W,1,11,0.8,72.0,M,59.5,M,,0000*7A
$GPGSA,A,3,22,03,28,01,11,06,32,18,27,19,14,,1.6,0.8,1.4*36
$GPRMC,175707.000,A,6353.6892,N,01636.8438,W,36.08,44.85,010912,,,A*77
$GPGGA,175708.000,6353.6963,N,01636.8279,W,1,11,0.8,71.8,M,59.5,M,,0000*72
$GPGSA,A,3,22,03,28,01,11,06,32,18,27,19,14,,1.6,0.8,1.4*36
$GPRMC,175708.000,A,6353.6963,N,01636.8279,W,36.21,44.31,010912,,,A*70
$GPGGA,175709.000,6353.7035,N,01636.8120,W,1,11,0.8,71.6,M,59.5,M,,0000*79
$GPGSA,A,3,22,03,28,01,11,06,32,18,27,19,14,,1.6,0.8,1.4*36
$GPRMC,175709.000,A,6353.7035,N,01636.8120,W,36.20,44.64,010912,,,A*74
$GPGGA,175710.000,6353.7106,N,01636.7962,W,1,11,0.8,71.4,M,59.5,M,,0000*73
$GPGSA,A,3,22,03,28,01,11,06,32,18,27,19,14,,1.6,0.8,1.4*36
$GPGSV,3,1,12,11,62,223,32,19,56,137,44,01,45,232,30,22,41,070,32*73
$GPGSV,3,2,12,28,37,303,29,03,23,135,36,08,14,266,,06,13,127,27*74
$GPGSV,3,3,12,32,13,177,34,18,13,038,24,27,12,006,28,14,11,093,30*7F
$GPRMC,175710.000,A,6353.7106,N,01636.7962,W,36.10,44.64,010912,,,A*7F
$GPGGA,175711.000,6353.7177,N,01636.7803,W,1,11,0.8,71.2,M,59.5,M,,0000*74
$GPGSA,A,3,22,03,28,01,11,06,32,18,27,19,14,,1.6,0.8,1.4*36
$GPRMC,175711.000,A,6353.7177,N,01636.7803,W,36.10,44.77,010912,,,A*7C
$GPGGA,175712.000,6353.7247,N,01636.7643,W,1,11,0.8,71.0,M,59.5,M,,0000*7F
$GPGSA,A,3,22,03,28,01,11,06,32,18,27,19,14,,1.6,0.8,1.4*36
$GPRMC,175712.000,A,6353.7247,N,01636.7643,W,36.09,44.91,010912,,,A*75
$GPGGA,175713.000,6353.7319,N,01636.7488,W,1,11,0.8,70.9,M,59.5,M,,0000*79
$GPGSA,A,3,22,03,28,01,11,06,32,18,27,19,14,,1.6,0.8,1.4*36
$GPRMC,175713.000,A,6353.7319,N,01636.7488,W,35.86,43.75,010912,,,A*72
$GPGGA,175714.000,6353.7391,N,01636.7334,W,1,11,0.8,70.7,M,59.5,M,,0000*70
$GPGSA,A,3,22,03,28,01,11,06,32,18,27,19,14,,1.6,0.8,1.4*36
$GPRMC,175714.000,A,6353.7391,N,01636.7334,W,35.86,43.45,010912,,,A*76
$GPGGA,175715.000,6353.7463,N,01636.7178,W,1,11,0.8,70.5,M,59.5,M,,0000*73
$GPGSA,A,3,22,03,28,01,11,06,32,18,27,19,14,,1.6,0.8,1.4*36
$GPGSV,3,1,12,11,62,223,32,19,56,137,44,01,45,232,30,22,41,070,32*73
$GPGSV,3,2,12,28,37,303,28,03,23,135,37,08,14,266,,32,13,177,33*73
$GPGSV,3,3,12,06,13,127,27,18,13,038,30,27,12,006,28,14,12,092,30*78
$GPRMC,175715.000,A,6353.7463,N,01636.7178,W,35.89,43.80,010912,,,A*71
$GPGGA,175716.000,6353.7534,N,01636.7023,W,1,11,0.8,70.4,M,59.5,M,,0000*7D
$GPGSA,A,3,22,03,28,01,11,06,32,18,27,19,14,,1.6,0.8,1.4*36
$GPRMC,175716.000,A,6353.7534,N,01636.7023,W,35.81,43.93,010912,,,A*74
$GPGGA,175717.000,6353.7606,N,01636.6868,W,1,11,0.8,70.2,M,59.5,M,,0000*7E
$GPGSA,A,3,22,03,28,01,11,06,32,18,27,19,14,,1.6,0.8,1.4*36
$GPRMC,175717.000,A,6353.7606,N,01636.6868,W,35.82,43.55,010912,,,A*78
$GPGGA,175718.000,6353.7679,N,01636.6711,W,1,12,0.7,70.1,M,59.5,M,,0000*77
$GPGSA,A,3,22,03,28,01,11,06,32,18,27,19,08,14,1.4,0.7,1.2*35
$GPRMC,175718.000,A,6353.7679,N,01636.6711,W,36.25,43.70,010912,,,A*77
