$GPRMC,101310.642,A,5229.6485,N,01319.5148,E,2.63,177.86,080912,,,A*67
$GPGGA,101311.642,5229.6394,N,01319.5055,E,1,03,8.7,56.9,M,44.8,M,,0000*6A
$GPGSA,A,2,31,25,12,,,,,,,,,,8.7,8.7,1.0*34
$GPRMC,101311.642,A,5229.6394,N,01319.5055,E,4.62,189.16,080912,,,A*63
$GPGGA,101312.642,5229.6403,N,01319.5069,E,1,03,8.7,56.9,M,44.8,M,,0000*6F
$GPGSA,A,2,31,25,12,,,,,,,,,,8.7,8.7,1.0*34
$GPGSV,3,1,09,25,85,319,42,12,50,095,39,31,38,305,47,29,59,216,45*7A
$GPGSV,3,2,09,02,39,075,36,14,20,241,22,04,13,036,30,10,03,061,*7B
$GPGSV,3,3,09,09,02,153,*4C
$GPRMC,101312.642,A,5229.6403,N,01319.5069,E,3.02,172.41,080912,,,A*61
$GPGGA,101313.642,5229.6392,N,01319.5057,E,1,03,8.7,56.9,M,44.8,M,,0000*6C
$GPGSA,A,2,31,25,12,,,,,,,,,,8.7,8.7,1.0*34
$GPRMC,101313.642,A,5229.6392,N,01319.5057,E,1.85,158.42,080912,,,A*64
$GPGGA,101314.642,5229.6301,N,01319.5029,E,1,03,8.7,56.9,M,44.8,M,,0000*68
$GPGSA,A,2,31,25,12,,,,,,,,,,8.8,8.7,1.0*3B
$GPRMC,101314.642,A,5229.6301,N,01319.5029,E,5.51,196.39,080912,,,A*63
$GPGGA,101315.642,5229.6335,N,01319.5060,E,1,03,8.7,56.9,M,44.8,M,,0000*63
$GPGSA,A,2,31,25,12,,,,,,,,,,8.8,8.7,1.0*3B
$GPRMC,101315.642,A,5229.6335,N,01319.5060,E,1.87,99.11,080912,,,A*53
$GPGGA,101316.642,5229.6472,N,01319.5214,E,1,03,8.7,56.9,M,44.8,M,,0000*65
$GPGSA,A,2,31,25,12,,,,,,,,,,8.8,8.7,1.0*3B
$GPRMC,101316.642,A,5229.6472,N,01319.5214,E,2.26,170.79,080912,,,A*65
$GPGGA,101317.642,5229.6411,N,01319.5144,E,0,03,,56.9,M,44.8,M,,0000*47
$GPGSA,A,1,31,25,12,,,,,,,,,,,,*18
$GPGSV,3,1,09,25,85,320,43,12,50,095,32,31,38,305,47,29,59,216,45*7A
$GPGSV,3,2,09,02,39,075,32,14,20,241,22,04,13,036,31,10,03,061,*7E
$GPGSV,3,3,09,09,02,153,*4C
$GPRMC,101326.642,A,5229.6239,N,01319.4942,E,1.16,11.73,080912,,,A*5A
$GPGGA,101327.642,5229.6239,N,01319.5026,E,1,04,2.3,49.0,M,44.8,M,,0000*63
$GPGSA,A,3,31,25,12,29,,,,,,,,,5.0,2.3,4.4*3B
$GPGSV,3,1,09,25,85,321,43,29,59,216,43,12,50,095,29,31,38,305,47*77
$GPGSV,3,2,09,02,39,075,28,14,20,241,22,04,13,036,27,10,03,060,*73
$GPGSV,3,3,09,09,02,153,*4C
$GPRMC,101327.642,A,5229.6239,N,01319.5026,E,1.27,26.18,080912,,,A*5A
$GPGGA,101328.000,5229.6240,N,01319.5027,E,1,04,2.3,49.3,M,44.8,M,,0000*60
$GPGSA,A,3,31,25,12,29,,,,,,,,,5.0,2.3,4.4*3B
$GPRMC,101328.000,A,5229.6240,N,01319.5027,E,0.91,44.65,080912,,,A*58
$GPGGA,101329.000,5229.6243,N,01319.5023,E,1,04,2.3,51.1,M,44.8,M,,0000*6D
$GPGSA,A,3,31,25,12,29,,,,,,,,,5.0,2.3,4.4*3B
$GPRMC,101329.000,A,5229.6243,N,01319.5023,E,0.94,347.24,080912,,,A*6E
$GPGGA,101330.000,5229.6245,N,01319.5018,E,1,04,2.3,53.1,M,44.8,M,,0000*69
$GPGSA,A,3,31,25,12,29,,,,,,,,,5.0,2.3,4.4*3B
$GPRMC,101330.000,A,5229.6245,N,01319.5018,E,0.81,338.88,080912,,,A*62
$GPGGA,101331.000,5229.6247,N,01319.5012,E,1,04,2.3,55.2,M,44.8,M,,0000*65
$GPGSA,A,3,31,25,12,29,,,,,,,,,5.0,2.3,4.4*3B
$GPRMC,101331.000,A,5229.6247,N,01319.5012,E,0.81,346.93,080912,,,A*68
$GPGGA,101332.000,5229.6250,N,01319.5008,E,1,04,2.3,57.2,M,44.8,M,,0000*69
$GPGSA,A,3,31,25,12,29,,,,,,,,,5.0,2.3,4.4*3B
$GPGSV,3,1,09,25,85,321,43,29,59,216,46,12,50,095,30,31,38,305,40*7D
$GPGSV,3,2,09,02,39,075,31,14,20,241,23,04,13,036,31,10,03,060,*7D
$GPGSV,3,3,09,09,02,153,*4C
$GPRMC,101332.000,A,5229.6250,N,01319.5008,E,0.87,358.60,080912,,,A*63
$GPGGA,101333.000,5229.6252,N,01319.5004,E,1,04,2.3,59.1,M,44.8,M,,0000*6B
$GPGSA,A,3,31,25,12,29,,,,,,,,,5.0,2.3,4.4*3B
$GPRMC,101334.000,A,5229.6254,N,01319.5000,E,0.87,341.11,080912,,,A*67
$GPGGA,101335.000,5229.6256,N,01319.4998,E,1,04,2.3,62.6,M,44.8,M,,0000*6B
$GPGSA,A,3,31,25,12,29,,,,,,,,,5.0,2.3,4.4*3B
$GPRMC,101336.000,A,5229.6258,N,01319.4997,E,0.90,4.57,080912,,,A*69
$GPGGA,101337.000,5229.6260,N,01319.4998,E,1,04,2.3,66.0,M,44.8,M,,0000*6E
$GPGSA,A,3,31,25,12,29,,,,,,,,,5.0,2.3,4.4*3B
$GPGSV,3,1,09,25,85,321,42,29,59,216,46,12,50,095,30,31,38,305,35*7E
$GPGSV,3,2,09,02,39,075,31,14,20,241,24,04,13,036,28,10,03,060,*72
$GPGSV,3,3,09,09,02,153,*4C
$GPRMC,101337.000,A,5229.6260,N,01319.4998,E,0.82,31.71,080912,,,A*5D
$GPGGA,101338.000,5229.6262,N,01319.5003,E,1,04,2.3,67.5,M,44.8,M,,0000*6D
$GPGSA,A,3,31,25,12,29,,,,,,,,,5.0,2.3,4.4*3B
$GPRMC,101338.000,A,5229.6262,N,01319.5003,E,1.25,36.47,080912,,,A*54
$GPGGA,101339.000,5229.6264,N,01319.5009,E,1,04,2.3,68.9,M,44.8,M,,0000*63
$GPGSA,A,3,31,25,12,29,,,,,,,,,5.0,2.3,4.4*3B
$GPRMC,101339.000,A,5229.6264,N,01319.5009,E,1.70,41.08,080912,,,A*52
$GPGGA,101340.000,5229.6267,N,01319.5012,E,1,04,2.3,70.4,M,44.8,M,,0000*60
$GPGSA,A,3,31,25,12,29,,,,,,,,,5.0,2.3,4.4*3B
$GPRMC,101340.000,A,5229.6267,N,01319.5012,E,1.30,18.81,080912,,,A*5C
$GPGGA,101341.000,5229.6268,N,01319.5015,E,1,04,2.3,71.6,M,44.8,M,,0000*6A
$GPGSA,A,3,31,25,12,29,,,,,,,,,5.0,2.3,4.4*3B
$GPRMC,101341.000,A,5229.6268,N,01319.5015,E,1.02,12.31,080912,,,A*55
$GPGGA,101342.000,5229.6270,N,01319.5020,E,1,04,2.3,72.5,M,44.8,M,,0000*66
$GPGSA,A,3,31,25,12,29,,,,,,,,,5.0,2.3,4.4*3B
$GPGSV,3,1,09,25,85,321,39,29,59,216,45,12,50,095,30,02,39,075,*72
$GPGSV,3,2,09,31,38,305,36,14,20,240,23,04,13,036,28,10,03,060,*76
$GPGSV,3,3,09,09,02,153,*4C
$GPRMC,101342.000,A,5229.6270,N,01319.5020,E,1.19,21.97,080912,,,A*5F
$GPGGA,101343.000,5229.6271,N,01319.5025,E,1,04,2.3,73.2,M,44.8,M,,0000*65
$GPGSA,A,3,31,25,12,29,,,,,,,,,5.0,2.3,4.4*3B
$GPRMC,101344.000,A,5229.6273,N,01319.5031,E,0.92,33.94,080912,,,A*58
$GPGGA,101345.000,5229.6273,N,01319.5036,E,1,04,2.3,74.2,M,44.8,M,,0000*64
$GPGSA,A,3,31,25,12,29,,,,,,,,,5.0,2.3,4.4*3B
$GPRMC,101346.000,A,5229.6274,N,01319.5043,E,0.96,45.12,080912,,,A*53
$GPGGA,101347.000,5229.6275,N,01319.5050,E,1,04,2.3,74.5,M,44.8,M,,0000*67
$GPGSA,A,3,31,25,12,29,,,,,,,,,5.0,2.3,4.4*3B
$GPGSV,3,1,09,25,85,322,44,29,59,216,38,12,50,095,30,02,39,075,33*71
$GPGSV,3,2,09,31,38,305,46,14,20,240,21,04,13,036,28,10,03,060,*73
$GPGSV,3,3,09,09,02,153,*4C
$GPRMC,101347.000,A,5229.6275,N,01319.5050,E,1.02,55.83,080912,,,A*54
$GPGGA,101348.000,5229.6277,N,01319.5057,E,1,04,2.3,74.4,M,44.8,M,,0000*6C
$GPGSA,A,3,31,25,12,29,,,,,,,,,5.0,2.3,4.4*3B
$GPRMC,101348.000,A,5229.6277,N,01319.5057,E,0.82,42.72,080912,,,A*5F
$GPGGA,101349.000,5229.6278,N,01319.5062,E,1,04,2.3,74.3,M,44.8,M,,0000*63
$GPGSA,A,3,31,25,12,29,,,,,,,,,5.0,2.3,4.4*3B
$GPRMC,101351.000,A,5229.6282,N,01319.5075,E,0.91,35.84,080912,,,A*56
$GPGGA,101352.000,5229.6284,N,01319.5082,E,1,04,2.3,73.7,M,44.8,M,,0000*67
$GPGSA,A,3,31,25,12,29,,,,,,,,,5.0,2.3,4.4*3B
$GPGSV,3,1,09,25,85,322,43,29,59,216,38,12,50,095,30,02,39,075,31*74
$GPGSV,3,2,09,31,38,305,43,14,20,240,26,04,13,036,28,10,03,060,*71
$GPGSV,3,3,09,09,02,153,*4C
$GPRMC,101352.000,A,5229.6284,N,01319.5082,E,1.05,46.84,080912,,,A*53
$GPGGA,101353.000,5229.6287,N,01319.5089,E,1,04,2.3,73.2,M,44.8,M,,0000*6B
$GPGSA,A,3,31,25,12,29,,,,,,,,,5.0,2.3,4.4*3B
$GPRMC,101353.000,A,5229.6287,N,01319.5089,E,1.21,40.60,080912,,,A*50
$GPGGA,101354.000,5229.6289,N,01319.5097,E,1,04,2.3,72.8,M,44.8,M,,0000*66
$GPGSA,A,3,31,25,12,29,,,,,,,,,5.0,2.3,4.4*3B
$GPRMC,101354.000,A,5229.6289,N,01319.5097,E,1.00,55.62,080912,,,A*53
$GPGGA,101355.000,5229.6291,N,01319.5105,E,1,04,2.3,72.2,M,44.8,M,,0000*6E
$GPGSA,A,3,31,25,12,29,,,,,,,,,5.0,2.3,4.4*3B
$GPRMC,101355.000,A,5229.6291,N,01319.5105,E,1.14,46.62,080912,,,A*56
$GPGGA,101356.000,5229.6293,N,01319.5114,E,1,04,2.3,71.5,M,44.8,M,,0000*6B
$GPGSA,A,3,31,25,12,29,,,,,,,,,5.0,2.3,4.4*3B
$GPRMC,101356.000,A,5229.6293,N,01319.5114,E,1.28,54.35,080912,,,A*59
$GPGGA,101357.000,5229.6294,N,01319.5121,E,1,04,2.3,70.8,M,44.8,M,,0000*67
$GPGSA,A,3,31,25,12,29,,,,,,,,,5.0,2.3,4.4*3B
$GPGSV,3,1,09,25,85,322,43,29,59,216,40,12,50,095,29,02,39,075,31*73
$GPGSV,3,2,09,31,38,305,36,14,20,240,25,04,13,036,,10,03,060,*7A
$GPGSV,3,3,09,09,02,153,*4C
$GPRMC,101357.000,A,5229.6294,N,01319.5121,E,0.81,71.49,080912,,,A*57
$GPGGA,101358.000,5229.6296,N,01319.5126,E,1,04,2.3,70.3,M,44.8,M,,0000*66
$GPGSA,A,3,31,25,12,29,,,,,,,,,5.0,2.3,4.4*3B
$GPRMC,101401.000,A,5229.6299,N,01319.5144,E,0.85,85.03,080912,,,A*5C
$GPGGA,101402.000,5229.6300,N,01319.5151,E,1,04,2.3,67.8,M,44.8,M,,0000*6D
$GPGSA,A,3,31,25,12,29,,,,,,,,,5.0,2.3,4.4*3B
$GPGSV,3,1,09,25,85,322,43,29,59,216,40,12,50,095,26,02,39,075,28*74
$GPGSV,3,2,09,31,38,305,44,14,20,240,29,04,13,036,29,10,03,060,*78
$GPGSV,3,3,09,09,02,153,*4C
$GPRMC,101402.000,A,5229.6300,N,01319.5151,E,0.87,73.35,080912,,,A*54
$GPGGA,101403.000,5229.6300,N,01319.5155,E,1,04,2.3,67.2,M,44.8,M,,0000*62
$GPGSA,A,3,31,25,12,29,,,,,,,,,5.0,2.3,4.4*3B
$GPRMC,101406.000,A,5229.6307,N,01319.5167,E,1.58,32.09,080912,,,A*5B
$GPGGA,101407.000,5229.6309,N,01319.5170,E,1,03,3.5,66.5,M,44.8,M,,0000*6E
$GPGSA,A,2,31,25,29,,,,,,,,,,3.6,3.5,1.0*3F
$GPGSV,3,1,09,25,85,322,42,29,59,216,39,12,50,095,26,02,39,075,30*72
$GPGSV,3,2,09,31,38,305,42,14,20,240,25,04,13,036,27,10,03,060,*7C
$GPGSV,3,3,09,09,02,153,*4C
$GPRMC,101407.000,A,5229.6309,N,01319.5170,E,0.87,32.38,080912,,,A*53
$GPGGA,101408.000,5229.6312,N,01319.5172,E,1,04,2.3,66.6,M,44.8,M,,0000*6A
$GPGSA,A,3,31,25,12,29,,,,,,,,,5.0,2.3,4.4*3B
$GPRMC,101408.000,A,5229.6312,N,01319.5172,E,0.82,11.70,080912,,,A*5C
$GPGGA,101409.000,5229.6315,N,01319.5173,E,1,04,2.3,67.0,M,44.8,M,,0000*6A
$GPGSA,A,3,31,25,12,29,,,,,,,,,5.0,2.3,4.4*3B
$GPRMC,101410.000,A,5229.6317,N,01319.5173,E,0.87,11.37,080912,,,A*57
$GPGGA,101411.000,5229.6319,N,01319.5174,E,1,04,2.3,68.1,M,44.8,M,,0000*66
$GPGSA,A,3,31,25,12,29,,,,,,,,,5.0,2.3,4.4*3B
$GPRMC,101418.000,A,5229.6333,N,01319.5172,E,0.84,331.75,080912,,,A*6C
$GPGGA,101419.000,5229.6335,N,01319.5169,E,1,04,2.3,74.6,M,44.8,M,,0000*66
$GPGSA,A,3,31,25,12,29,,,,,,,,,5.0,2.3,4.4*3B
$GPRMC,101422.000,A,5229.6342,N,01319.5163,E,0.95,2.61,080912,,,A*65
$GPGGA,101423.000,5229.6347,N,01319.5158,E,1,04,2.3,79.9,M,44.8,M,,0000*6A
$GPGSA,A,3,31,25,12,29,,,,,,,,,5.0,2.3,4.4*3B
$GPRMC,101423.000,A,5229.6347,N,01319.5158,E,1.79,335.04,080912,,,A*6E
$GPGGA,101424.000,5229.6350,N,01319.5155,E,1,04,2.3,81.1,M,44.8,M,,0000*69
$GPGSA,A,3,31,25,12,29,,,,,,,,,5.0,2.3,4.4*3B
$GPRMC,101424.000,A,5229.6350,N,01319.5155,E,1.28,348.12,080912,,,A*6B
$GPGGA,101425.000,5229.6353,N,01319.5155,E,1,04,2.3,82.0,M,44.8,M,,0000*69
$GPGSA,A,3,31,25,12,29,,,,,,,,,5.0,2.3,4.4*3B
$GPRMC,101425.000,A,5229.6353,N,01319.5155,E,0.91,2.38,080912,,,A*6F
$GPGGA,101426.000,5229.6355,N,01319.5158,E,1,04,2.3,82.4,M,44.8,M,,0000*65
$GPGSA,A,3,31,25,12,29,,,,,,,,,5.0,2.3,4.4*3B
$GPRMC,101426.000,A,5229.6355,N,01319.5158,E,1.01,33.35,080912,,,A*50
$GPGGA,101427.000,5229.6355,N,01319.5162,E,1,04,2.3,82.7,M,44.8,M,,0000*6E
$GPGSA,A,3,31,25,12,29,,,,,,,,,5.0,2.3,4.4*3B
$GPGSV,3,1,09,25,85,324,39,29,59,216,39,12,50,096,27,02,39,075,29*72
$GPGSV,3,2,09,31,38,305,39,14,19,240,32,04,13,036,26,10,03,060,*7D
$GPGSV,3,3,09,09,02,153,*4C
$GPRMC,101430.000,A,5229.6356,N,01319.5178,E,0.85,58.15,080912,,,A*54
$GPGGA,101431.000,5229.6357,N,01319.5187,E,1,04,2.3,80.9,M,44.8,M,,0000*6C
$GPGSA,A,3,31,25,12,29,,,,,,,,,5.0,2.3,4.4*3B
$GPRMC,101431.000,A,5229.6357,N,01319.5187,E,1.09,72.51,080912,,,A*59
$GPGGA,101432.000,5229.6359,N,01319.5195,E,1,04,2.3,80.2,M,44.8,M,,0000*69
$GPGSA,A,3,31,25,12,29,,,,,,,,,5.0,2.3,4.4*3B
$GPGSV,3,1,09,25,85,324,42,29,59,216,36,12,50,096,28,02,39,075,29*7E
$GPGSV,3,2,09,31,38,305,45,14,19,240,39,04,13,036,26,10,03,060,*7D
$GPGSV,3,3,09,09,02,153,*4C
$GPRMC,101432.000,A,5229.6359,N,01319.5195,E,1.18,52.04,080912,,,A*55
$GPGGA,101433.000,5229.6361,N,01319.5205,E,1,04,2.3,79.4,M,44.8,M,,0000*69
$GPGSA,A,3,31,25,12,29,,,,,,,,,5.0,2.3,4.4*3B
$GPRMC,101433.000,A,5229.6361,N,01319.5205,E,1.34,63.96,080912,,,A*52
$GPGGA,101434.000,5229.6363,N,01319.5214,E,1,04,2.3,78.7,M,44.8,M,,0000*6E
$GPGSA,A,3,31,25,12,29,,,,,,,,,5.0,2.3,4.4*3B
$GPRMC,101434.000,A,5229.6363,N,01319.5214,E,1.29,61.88,080912,,,A*56
$GPGGA,101435.000,5229.6364,N,01319.5221,E,1,04,2.3,78.0,M,44.8,M,,0000*69
$GPGSA,A,3,31,25,12,29,,,,,,,,,5.0,2.3,4.4*3B
$GPRMC,101436.000,A,5229.6366,N,01319.5230,E,1.10,68.65,080912,,,A*57
$GPGGA,101437.000,5229.6368,N,01319.5236,E,1,04,2.3,76.7,M,44.8,M,,0000*68
$GPGSA,A,3,31,25,12,29,,,,,,,,,5.0,2.3,4.4*3B
$GPGSV,3,1,09,25,85,324,42,29,59,216,42,12,50,096,29,02,39,075,30*74
$GPGSV,3,2,09,31,38,305,44,14,19,240,45,04,13,036,,10,03,060,*73
$GPGSV,3,3,09,09,02,153,*4C
$GPRMC,101437.000,A,5229.6368,N,01319.5236,E,1.00,39.32,080912,,,A*59
$GPGGA,101438.000,5229.6369,N,01319.5241,E,1,04,2.3,76.0,M,44.8,M,,0000*61
$GPGSA,A,3,31,25,12,29,,,,,,,,,5.0,2.3,4.4*3B
$GPRMC,101444.000,A,5229.6373,N,01319.5272,E,0.98,54.51,080912,,,A*59
$GPGGA,101445.000,5229.6375,N,01319.5277,E,1,04,2.3,70.9,M,44.8,M,,0000*6C
$GPGSA,A,3,31,25,12,29,,,,,,,,,5.0,2.3,4.4*3B
$GPRMC,101449.000,A,5229.6377,N,01319.5297,E,0.84,58.65,080912,,,A*5D
$GPGGA,101450.000,5229.6378,N,01319.5304,E,1,04,2.3,66.6,M,44.8,M,,0000*68
$GPGSA,A,3,31,25,12,29,,,,,,,,,5.0,2.3,4.4*3B
$GPRMC,101452.000,A,5229.6380,N,01319.5319,E,0.95,80.52,080912,,,A*59
$GPGGA,101453.000,5229.6381,N,01319.5328,E,1,04,2.3,63.4,M,44.8,M,,0000*64
$GPGSA,A,3,31,25,12,29,,,,,,,,,5.0,2.3,4.4*3B
$GPRMC,101453.000,A,5229.6381,N,01319.5328,E,1.19,67.85,080912,,,A*5D
$GPGGA,101454.000,5229.6382,N,01319.5337,E,1,04,2.3,62.2,M,44.8,M,,0000*69
$GPGSA,A,3,31,25,12,29,,,,,,,,,5.0,2.3,4.4*3B
$GPRMC,101454.000,A,5229.6382,N,01319.5337,E,0.94,71.54,080912,,,A*58
$GPGGA,101455.000,5229.6382,N,01319.5345,E,1,04,2.3,61.0,M,44.8,M,,0000*6C
$GPGSA,A,3,31,25,12,29,,,,,,,,,5.0,2.3,4.4*3B
$GPRMC,101456.000,A,5229.6383,N,01319.5354,E,1.12,50.44,080912,,,A*53
$GPGGA,101457.000,5229.6385,N,01319.5364,E,1,04,2.3,59.0,M,44.8,M,,0000*61
$GPGSA,A,3,31,25,12,29,,,,,,,,,5.0,2.3,4.4*3B
$GPGSV,3,1,09,25,86,326,42,29,59,216,44,12,49,096,32,02,39,074,33*73
$GPGSV,3,2,09,31,39,305,34,14,19,240,35,04,13,036,26,10,03,060,*76
$GPGSV,3,3,09,09,02,153,*4C
$GPRMC,101457.000,A,5229.6385,N,01319.5364,E,1.09,52.00,080912,,,A*5F
$GPGGA,101458.000,5229.6387,N,01319.5374,E,1,04,2.3,58.1,M,44.8,M,,0000*6D
$GPGSA,A,3,31,25,12,29,,,,,,,,,5.0,2.3,4.4*3B
$GPRMC,101458.000,A,5229.6387,N,01319.5374,E,1.31,54.77,080912,,,A*5E
$GPGGA,101459.000,5229.6389,N,01319.5383,E,1,04,2.3,57.2,M,44.8,M,,0000*66
$GPGSA,A,3,31,25,12,29,,,,,,,,,5.0,2.3,4.4*3B
$GPRMC,101459.000,A,5229.6389,N,01319.5383,E,1.17,52.37,080912,,,A*5F
$GPGGA,101500.000,5229.6391,N,01319.5393,E,1,04,2.3,56.2,M,44.8,M,,0000*62
$GPGSA,A,3,31,25,12,29,,,,,,,,,5.0,2.3,4.4*3B
$GPRMC,101500.000,A,5229.6391,N,01319.5393,E,1.21,45.45,080912,,,A*5C
$GPGGA,101501.000,5229.6391,N,01319.5403,E,1,04,2.3,55.2,M,44.8,M,,0000*6E
$GPGSA,A,3,31,25,12,29,,,,,,,,,5.0,2.3,4.4*3B
$GPRMC,101501.000,A,5229.6391,N,01319.5403,E,0.94,72.17,080912,,,A*5F
$GPGGA,101502.000,5229.6392,N,01319.5413,E,1,04,2.3,54.1,M,44.8,M,,0000*6D
$GPGSA,A,3,31,25,12,29,,,,,,,,,5.0,2.3,4.4*3B
$GPGSV,3,1,09,25,86,326,41,29,59,216,45,12,49,096,35,02,39,074,33*76
$GPGSV,3,2,09,31,39,305,43,14,19,240,42,04,13,036,25,10,03,060,*75
$GPGSV,3,3,09,09,02,153,*4C
$GPRMC,101502.000,A,5229.6392,N,01319.5413,E,1.00,55.43,080912,,,A*56
$GPGGA,101503.000,5229.6393,N,01319.5423,E,1,04,2.3,53.1,M,44.8,M,,0000*69
$GPGSA,A,3,31,25,12,29,,,,,,,,,5.0,2.3,4.4*3B
$GPRMC,101503.000,A,5229.6393,N,01319.5423,E,0.99,68.19,080912,,,A*55
$GPGGA,101504.000,5229.6395,N,01319.5434,E,1,03,3.4,52.2,M,44.8,M,,0000*6D
$GPGSA,A,2,31,25,29,,,,,,,,,,3.6,3.4,1.0*3E
$GPRMC,101504.000,A,5229.6395,N,01319.5434,E,1.36,61.24,080912,,,A*51
$GPGGA,101505.000,5229.6395,N,01319.5442,E,1,04,2.3,51.3,M,44.8,M,,0000*6E
$GPGSA,A,3,31,25,12,29,,,,,,,,,5.0,2.3,4.4*3B
$GPRMC,101506.000,A,5229.6397,N,01319.5450,E,1.05,40.45,080912,,,A*57
$GPGGA,101507.000,5229.6400,N,01319.5456,E,1,04,2.3,49.1,M,44.8,M,,0000*69
$GPGSA,A,3,31,25,12,29,,,,,,,,,5.0,2.3,4.4*3B
$GPGSV,3,1,09,25,86,326,32,29,59,216,45,12,49,096,34,02,39,074,32*72
$GPGSV,3,2,09,31,39,305,31,14,19,240,34,04,13,036,26,10,03,060,*72
$GPGSV,3,3,09,09,02,153,*4C
$GPRMC,101507.000,A,5229.6400,N,01319.5456,E,1.13,3.67,080912,,,A*69
$GPGGA,101508.000,5229.6401,N,01319.5461,E,1,04,2.3,48.2,M,44.8,M,,0000*61
$GPGSA,A,3,31,25,12,29,,,,,,,,,5.0,2.3,4.4*3B
$GPRMC,101513.000,A,5229.6400,N,01319.5487,E,0.97,50.36,080912,,,A*5F
$GPGGA,101514.000,5229.6401,N,01319.5490,E,1,04,2.3,46.8,M,44.8,M,,0000*66
$GPGSA,A,3,31,25,12,29,,,,,,,,,5.0,2.3,4.4*3B
$GPRMC,101517.000,A,5229.6405,N,01319.5501,E,1.14,41.19,080912,,,A*56
$GPGGA,101518.000,5229.6408,N,01319.5507,E,1,04,2.3,47.7,M,44.8,M,,0000*62
$GPGSA,A,3,31,25,12,29,,,,,,,,,5.0,2.3,4.4*3B
$GPRMC,101518.000,A,5229.6408,N,01319.5507,E,1.71,32.35,080912,,,A*5B
$GPGGA,101519.000,5229.6410,N,01319.5513,E,1,04,2.3,47.8,M,44.8,M,,0000*60
$GPGSA,A,3,31,25,12,29,,,,,,,,,5.0,2.3,4.4*3B
$GPRMC,101519.000,A,5229.6410,N,01319.5513,E,1.40,32.97,080912,,,A*5C
$GPGGA,101520.000,5229.6412,N,01319.5519,E,1,04,2.3,47.8,M,44.8,M,,0000*62
$GPGSA,A,3,31,25,12,29,,,,,,,,,5.0,2.3,4.4*3B
$GPRMC,101520.000,A,5229.6412,N,01319.5519,E,1.17,48.15,080912,,,A*5B
$GPGGA,101521.000,5229.6412,N,01319.5527,E,1,04,2.3,47.8,M,44.8,M,,0000*6E
$GPGSA,A,3,31,25,12,29,,,,,,,,,5.0,2.3,4.4*3B
$GPRMC,101521.000,A,5229.6412,N,01319.5527,E,1.10,74.98,080912,,,A*5A
$GPGGA,101522.000,5229.6411,N,01319.5534,E,1,04,2.3,48.0,M,44.8,M,,0000*6B
$GPGSA,A,3,31,25,12,29,,,,,,,,,5.0,2.3,4.4*3B
$GPGSV,3,1,09,25,86,328,40,29,60,216,44,12,49,096,35,02,39,074,35*74
$GPGSV,3,2,09,31,39,304,31,14,19,240,31,04,13,036,25,10,03,060,*75
$GPGSV,3,3,09,09,02,153,*4C
$GPRMC,101522.000,A,5229.6411,N,01319.5534,E,1.05,75.21,080912,,,A*5F
$GPGGA,101523.000,5229.6411,N,01319.5541,E,1,04,2.3,48.2,M,44.8,M,,0000*6A
$GPGSA,A,3,31,25,12,29,,,,,,,,,5.0,2.3,4.4*3B
$GPRMC,101523.000,A,5229.6411,N,01319.5541,E,0.83,63.77,080912,,,A*57
$GPGGA,101524.000,5229.6411,N,01319.5550,E,1,04,2.3,48.4,M,44.8,M,,0000*6B
$GPGSA,A,3,31,25,12,29,,,,,,,,,5.0,2.3,4.4*3B
$GPRMC,101524.000,A,5229.6411,N,01319.5550,E,1.27,70.83,080912,,,A*56
$GPGGA,101525.000,5229.6411,N,01319.5558,E,1,04,2.3,48.4,M,44.8,M,,0000*62
$GPGSA,A,3,31,25,12,29,,,,,,,,,5.0,2.3,4.4*3B
$GPRMC,101525.000,A,5229.6411,N,01319.5558,E,1.21,76.80,080912,,,A*5C
$GPGGA,101526.000,5229.6411,N,01319.5565,E,1,04,2.3,48.3,M,44.8,M,,0000*68
$GPGSA,A,3,31,25,12,29,,,,,,,,,5.0,2.3,4.4*3B
$GPRMC,101526.000,A,5229.6411,N,01319.5565,E,1.05,66.39,080912,,,A*54
$GPGGA,101527.000,5229.6412,N,01319.5572,E,1,04,2.3,48.1,M,44.8,M,,0000*6E
$GPGSA,A,3,31,25,12,29,,,,,,,,,5.0,2.3,4.4*3B
$GPGSV,3,1,09,25,86,328,41,29,60,216,45,12,49,096,35,02,39,074,35*74
$GPGSV,3,2,09,31,39,304,38,14,19,240,41,04,13,036,26,10,03,060,*78
$GPGSV,3,3,09,09,02,153,*4C
$GPRMC,101527.000,A,5229.6412,N,01319.5572,E,1.21,68.88,080912,,,A*52
$GPGGA,101528.000,5229.6414,N,01319.5578,E,1,04,2.3,47.9,M,44.8,M,,0000*6A
$GPGSA,A,3,31,25,12,29,,,,,,,,,5.0,2.3,4.4*3B
$GPRMC,101528.000,A,5229.6414,N,01319.5578,E,1.11,51.66,080912,,,A*58
$GPGGA,101529.000,5229.6415,N,01319.5586,E,1,04,2.3,47.7,M,44.8,M,,0000*65
$GPGSA,A,3,31,25,12,29,,,,,,,,,5.0,2.3,4.4*3B
$GPRMC,101529.000,A,5229.6415,N,01319.5586,E,1.26,72.64,080912,,,A*5E
$GPGGA,101530.000,5229.6417,N,01319.5592,E,1,04,2.3,47.5,M,44.8,M,,0000*68
$GPGSA,A,3,31,25,12,29,,,,,,,,,5.0,2.3,4.4*3B
$GPRMC,101530.000,A,5229.6417,N,01319.5592,E,1.09,53.96,080912,,,A*52
$GPGGA,101531.000,5229.6418,N,01319.5597,E,1,04,2.3,47.4,M,44.8,M,,0000*62
$GPGSA,A,3,31,25,12,29,,,,,,,,,5.0,2.3,4.4*3B
$GPRMC,101531.000,A,5229.6418,N,01319.5597,E,0.94,63.33,080912,,,A*50
$GPGGA,101532.000,5229.6419,N,01319.5603,E,1,04,2.3,47.3,M,44.8,M,,0000*69
$GPGSA,A,3,31,25,12,29,,,,,,,,,5.0,2.3,4.4*3B
$GPGSV,3,1,09,25,86,328,42,29,60,216,44,12,49,096,35,02,39,074,34*77
$GPGSV,3,2,09,31,39,304,42,14,19,240,43,04,13,036,26,10,03,060,*77
$GPGSV,3,3,09,09,02,153,*4C
$GPRMC,101532.000,A,5229.6419,N,01319.5603,E,1.10,75.51,080912,,,A*52
$GPGGA,101533.000,5229.6420,N,01319.5611,E,1,04,2.3,47.0,M,44.8,M,,0000*62
$GPGSA,A,3,31,25,12,29,,,,,,,,,5.0,2.3,4.4*3B
$GPRMC,101533.000,A,5229.6420,N,01319.5611,E,1.33,79.73,080912,,,A*57
$GPGGA,101534.000,5229.6421,N,01319.5617,E,1,04,2.3,46.7,M,44.8,M,,0000*64
$GPGSA,A,3,31,25,12,29,,,,,,,,,5.0,2.3,4.4*3B
$GPRMC,101534.000,A,5229.6421,N,01319.5617,E,0.93,78.67,080912,,,A*58
$GPGGA,101535.000,5229.6421,N,01319.5623,E,1,04,2.3,46.5,M,44.8,M,,0000*60
$GPGSA,A,3,31,25,12,29,,,,,,,,,5.0,2.3,4.4*3B
$GPRMC,101535.000,A,5229.6421,N,01319.5623,E,1.04,86.12,080912,,,A*52
$GPGGA,101536.000,5229.6421,N,01319.5630,E,1,04,2.3,46.3,M,44.8,M,,0000*67
$GPGSA,A,3,31,25,12,29,,,,,,,,,5.0,2.3,4.4*3B
$GPRMC,101536.000,A,5229.6421,N,01319.5630,E,1.19,93.29,080912,,,A*53
$GPGGA,101537.000,5229.6422,N,01319.5635,E,1,04,2.3,46.1,M,44.8,M,,0000*62
$GPGSA,A,3,31,25,12,29,,,,,,,,,5.0,2.3,4.4*3B
$GPGSV,3,1,09,25,86,328,42,29,60,216,45,12,49,096,35,02,39,074,34*76
$GPGSV,3,2,09,31,39,304,49,14,19,240,36,04,13,036,35,10,03,060,*7C
$GPGSV,3,3,09,09,02,153,*4C
$GPRMC,101537.000,A,5229.6422,N,01319.5635,E,1.03,78.42,080912,,,A*57
$GPGGA,101538.000,5229.6422,N,01319.5639,E,1,04,2.3,46.1,M,44.8,M,,0000*61
$GPGSA,A,3,31,25,12,29,,,,,,,,,5.0,2.3,4.4*3B
$GPRMC,101542.000,A,5229.6421,N,01319.5652,E,0.98,111.51,080912,,,A*68
$GPGGA,101543.000,5229.6419,N,01319.5656,E,1,04,2.3,47.4,M,44.8,M,,0000*68
$GPGSA,A,3,31,25,12,29,,,,,,,,,5.0,2.3,4.4*3B
$GPRMC,101543.000,A,5229.6419,N,01319.5656,E,0.90,131.95,080912,,,A*64
$GPGGA,101544.000,5229.6418,N,01319.5659,E,1,04,2.3,47.6,M,44.8,M,,0000*63
$GPGSA,A,3,31,25,12,29,,,,,,,,,5.0,2.3,4.4*3B
$GPRMC,101544.000,A,5229.6418,N,01319.5659,E,0.99,126.21,080912,,,A*6D
$GPGGA,101545.000,5229.6417,N,01319.5663,E,1,04,2.3,47.7,M,44.8,M,,0000*65
$GPGSA,A,3,31,25,12,29,,,,,,,,,5.0,2.3,4.4*3B
$GPRMC,101545.000,A,5229.6417,N,01319.5663,E,0.93,143.43,080912,,,A*67
$GPGGA,101546.000,5229.6415,N,01319.5666,E,1,04,2.3,47.9,M,44.8,M,,0000*6F
$GPGSA,A,3,31,25,12,29,,,,,,,,,5.0,2.3,4.4*3B
$GPRMC,101546.000,A,5229.6415,N,01319.5666,E,0.86,139.08,080912,,,A*65
$GPGGA,101547.000,5229.6413,N,01319.5667,E,1,04,2.3,48.1,M,44.8,M,,0000*6E
$GPGSA,A,3,31,25,12,29,,,,,,,,,5.0,2.3,4.4*3B
$GPGSV,3,1,09,25,86,330,43,29,60,216,36,12,49,096,35,31,39,304,47*7A
$GPGSV,3,2,09,02,39,074,38,14,19,240,41,04,13,035,34,10,03,060,*7C
$GPGSV,3,3,09,09,01,153,*4F
$GPRMC,101547.000,A,5229.6413,N,01319.5667,E,0.95,158.22,080912,,,A*6E
$GPGGA,101548.000,5229.6413,N,01319.5672,E,1,04,2.3,48.1,M,44.8,M,,0000*65
$GPGSA,A,3,31,25,12,29,,,,,,,,,5.0,2.3,4.4*3B
$GPRMC,101548.000,A,5229.6413,N,01319.5672,E,0.87,111.87,080912,,,A*64
$GPGGA,101549.000,5229.6412,N,01319.5677,E,1,04,2.3,48.1,M,44.8,M,,0000*60
$GPGSA,A,3,31,25,12,29,,,,,,,,,5.0,2.3,4.4*3B
$GPRMC,101549.000,A,5229.6412,N,01319.5677,E,0.96,115.61,080912,,,A*6D
$GPGGA,101550.000,5229.6411,N,01319.5682,E,1,05,1.8,47.9,M,44.8,M,,0000*6F
$GPGSA,A,3,31,25,12,29,14,,,,,,,,3.1,1.8,2.5*36
$GPRMC,101550.000,A,5229.6411,N,01319.5682,E,0.95,116.06,080912,,,A*6D
$GPGGA,101551.000,5229.6410,N,01319.5687,E,1,05,1.8,47.6,M,44.8,M,,0000*65
$GPGSA,A,3,31,25,12,29,14,,,,,,,,3.1,1.8,2.5*36
$GPRMC,101551.000,A,5229.6410,N,01319.5687,E,1.04,126.56,080912,,,A*67
$GPGGA,101552.000,5229.6408,N,01319.5691,E,1,05,1.8,47.4,M,44.8,M,,0000*6A
$GPGSA,A,3,31,25,12,29,14,,,,,,,,3.1,1.8,2.5*36
$GPGSV,3,1,09,25,86,331,43,29,60,216,35,12,49,096,36,31,39,304,47*7B
$GPGSV,3,2,09,02,39,074,39,14,19,240,33,04,13,035,38,10,03,060,*74
$GPGSV,3,3,09,09,01,153,*4F
$GPRMC,101552.000,A,5229.6408,N,01319.5691,E,0.93,129.10,080912,,,A*68
$GPGGA,101553.000,5229.6407,N,01319.5696,E,1,05,1.8,47.1,M,44.8,M,,0000*66
$GPGSA,A,3,31,25,12,29,14,,,,,,,,3.1,1.8,2.5*36
$GPRMC,101553.000,A,5229.6407,N,01319.5696,E,0.95,130.19,080912,,,A*66
$GPGGA,101554.000,5229.6406,N,01319.5701,E,1,05,1.8,46.8,M,44.8,M,,0000*67
$GPGSA,A,3,31,25,12,29,14,,,,,,,,3.1,1.8,2.5*36
$GPRMC,101554.000,A,5229.6406,N,01319.5701,E,1.01,128.32,080912,,,A*63
$GPGGA,101555.000,5229.6404,N,01319.5706,E,1,05,1.8,46.4,M,44.8,M,,0000*6F
$GPGSA,A,3,31,25,12,29,14,,,,,,,,3.1,1.8,2.5*36
$GPRMC,101555.000,A,5229.6404,N,01319.5706,E,0.95,127.23,080912,,,A*64
$GPGGA,101556.000,5229.6403,N,01319.5713,E,1,05,1.8,45.9,M,44.8,M,,0000*61
$GPGSA,A,3,31,25,12,29,14,,,,,,,,3.1,1.8,2.5*36
$GPRMC,101556.000,A,5229.6403,N,01319.5713,E,1.25,126.31,080912,,,A*6C
$GPGGA,101557.000,5229.6401,N,01319.5720,E,1,05,1.8,45.5,M,44.8,M,,0000*6E
$GPGSA,A,3,31,25,12,29,14,,,,,,,,3.1,1.8,2.5*36
$GPGSV,3,1,09,25,86,331,43,29,60,216,35,12,49,096,36,31,39,304,47*7B
$GPGSV,3,2,09,02,39,074,40,14,19,240,25,04,13,035,29,10,03,060,*7D
$GPGSV,3,3,09,09,01,153,*4F
$GPRMC,101557.000,A,5229.6401,N,01319.5720,E,1.38,119.62,080912,,,A*69
$GPGGA,101558.000,5229.6400,N,01319.5727,E,1,05,1.8,45.0,M,44.8,M,,0000*62
$GPGSA,A,3,31,25,12,29,14,,,,,,,,3.1,1.8,2.5*36
$GPRMC,101558.000,A,5229.6400,N,01319.5727,E,1.30,125.02,080912,,,A*61
$GPGGA,101559.000,5229.6398,N,01319.5732,E,1,05,1.8,44.6,M,44.8,M,,0000*66
$GPGSA,A,3,31,25,12,29,14,,,,,,,,3.1,1.8,2.5*36
$GPRMC,101559.000,A,5229.6398,N,01319.5732,E,1.02,128.19,080912,,,A*64
$GPGGA,101600.000,5229.6396,N,01319.5737,E,1,04,2.3,44.1,M,44.8,M,,0000*6C
$GPGSA,A,3,31,25,12,29,,,,,,,,,5.0,2.3,4.4*3B
$GPRMC,101600.000,A,5229.6396,N,01319.5737,E,1.13,152.49,080912,,,A*68
$GPGGA,101601.000,5229.6394,N,01319.5742,E,1,04,2.3,43.7,M,44.8,M,,0000*6C
$GPGSA,A,3,31,25,12,29,,,,,,,,,5.0,2.3,4.4*3B
$GPRMC,101601.000,A,5229.6394,N,01319.5742,E,0.93,133.76,080912,,,A*6B
$GPGGA,101602.000,5229.6392,N,01319.5746,E,1,04,2.3,43.3,M,44.8,M,,0000*69
$GPGSA,A,3,31,25,12,29,,,,,,,,,5.0,2.3,4.4*3B
$GPGSV,3,1,09,25,86,331,43,29,60,216,44,12,49,096,35,31,39,304,48*71
$GPGSV,3,2,09,02,39,074,41,14,19,240,,04,13,035,28,10,03,060,*7A
$GPGSV,3,3,09,09,01,153,*4F
$GPRMC,101602.000,A,5229.6392,N,01319.5746,E,1.02,140.63,080912,,,A*63
$GPGGA,101603.000,5229.6391,N,01319.5753,E,1,04,2.3,42.9,M,44.8,M,,0000*64
$GPGSA,A,3,31,25,12,29,,,,,,,,,5.0,2.3,4.4*3B
$GPRMC,101603.000,A,5229.6391,N,01319.5753,E,1.05,114.23,080912,,,A*67
$GPGGA,101604.000,5229.6390,N,01319.5758,E,1,04,2.3,42.3,M,44.8,M,,0000*63
$GPGSA,A,3,31,25,12,29,,,,,,,,,5.0,2.3,4.4*3B
$GPRMC,101604.000,A,5229.6390,N,01319.5758,E,1.08,129.75,080912,,,A*6A
$GPGGA,101605.000,5229.6388,N,01319.5764,E,1,04,2.4,41.9,M,44.8,M,,0000*6A
$GPGSA,A,3,31,25,12,29,,,,,,,,,5.0,2.4,4.4*3C
$GPRMC,101605.000,A,5229.6388,N,01319.5764,E,1.07,127.59,080912,,,A*62
$GPGGA,101606.000,5229.6386,N,01319.5769,E,1,05,1.8,41.3,M,44.8,M,,0000*6E
$GPGSA,A,3,31,25,12,29,14,,,,,,,,3.1,1.8,2.5*36
$GPRMC,101606.000,A,5229.6386,N,01319.5769,E,1.15,142.35,080912,,,A*68
$GPGGA,101607.000,5229.6384,N,01319.5776,E,1,04,2.4,40.8,M,44.8,M,,0000*67
$GPGSA,A,3,31,25,12,29,,,,,,,,,5.0,2.4,4.4*3C
$GPGSV,3,1,09,25,86,331,43,29,60,216,44,12,49,096,35,31,39,304,47*7E
$GPGSV,3,2,09,02,39,074,41,14,19,240,23,04,13,035,30,10,03,060,*72
$GPGSV,3,3,09,09,01,153,*4F
$GPRMC,101607.000,A,5229.6384,N,01319.5776,E,1.35,123.25,080912,,,A*61
$GPGGA,101608.000,5229.6382,N,01319.5783,E,1,04,2.4,40.1,M,44.8,M,,0000*6D
$GPGSA,A,3,31,25,12,29,,,,,,,,,5.0,2.4,4.4*3C
$GPRMC,101608.000,A,5229.6382,N,01319.5783,E,1.29,126.77,080912,,,A*6D
$GPGGA,101609.000,5229.6379,N,01319.5788,E,1,05,1.8,39.5,M,44.8,M,,0000*67
$GPGSA,A,3,31,25,12,14,29,,,,,,,,3.1,1.8,2.5*36
$GPRMC,101609.000,A,5229.6379,N,01319.5788,E,1.16,148.94,080912,,,A*6A
$GPGGA,101610.000,5229.6376,N,01319.5792,E,1,05,1.8,38.9,M,44.8,M,,0000*66
$GPGSA,A,3,31,25,12,14,29,,,,,,,,3.1,1.8,2.5*36
$GPRMC,101610.000,A,5229.6376,N,01319.5792,E,1.28,153.59,080912,,,A*60
$GPGGA,101611.000,5229.6373,N,01319.5796,E,1,05,1.8,38.3,M,44.8,M,,0000*6C
$GPGSA,A,3,31,25,12,14,29,,,,,,,,3.1,1.8,2.5*36
$GPRMC,101611.000,A,5229.6373,N,01319.5796,E,1.21,157.43,080912,,,A*66
$GPGGA,101612.000,5229.6371,N,01319.5799,E,1,05,1.8,37.9,M,44.8,M,,0000*67
$GPGSA,A,3,31,25,12,14,29,,,,,,,,3.1,1.8,2.5*36
$GPGSV,3,1,09,25,86,331,42,29,60,216,35,12,49,096,37,31,39,304,46*7A
$GPGSV,3,2,09,02,39,074,41,14,19,240,24,04,13,035,34,10,03,060,*71
$GPGSV,3,3,09,09,01,153,*4F
$GPRMC,101612.000,A,5229.6371,N,01319.5799,E,0.96,152.71,080912,,,A*61
$GPGGA,101613.000,5229.6368,N,01319.5802,E,1,05,1.8,37.5,M,44.8,M,,0000*6F
$GPGSA,A,3,31,25,12,14,29,,,,,,,,3.1,1.8,2.5*36
$GPRMC,101613.000,A,5229.6368,N,01319.5802,E,0.98,167.47,080912,,,A*68
$GPGGA,101614.000,5229.6367,N,01319.5804,E,1,05,1.8,37.3,M,44.8,M,,0000*67
$GPGSA,A,3,31,25,12,14,29,,,,,,,,3.1,1.8,2.5*36
$GPRMC,101618.000,A,5229.6363,N,01319.5811,E,1.09,192.29,080912,,,A*61
$GPGGA,101619.000,5229.6360,N,01319.5810,E,1,05,1.8,37.1,M,44.8,M,,0000*6A
$GPGSA,A,3,31,25,12,14,29,,,,,,,,3.1,1.8,2.5*36
$GPRMC,101619.000,A,5229.6360,N,01319.5810,E,1.12,193.35,080912,,,A*64
$GPGGA,101620.000,5229.6359,N,01319.5812,E,1,05,2.2,37.1,M,44.8,M,,0000*61
$GPGSA,A,3,31,25,12,02,29,,,,,,,,4.7,2.2,4.1*3B
$GPRMC,101625.000,A,5229.6355,N,01319.5816,E,0.99,176.10,080912,,,A*65
$GPGGA,101626.000,5229.6353,N,01319.5816,E,1,05,2.2,38.3,M,44.8,M,,0000*64
$GPGSA,A,3,31,25,12,02,29,,,,,,,,4.7,2.2,4.1*3B
$GPRMC,101626.000,A,5229.6353,N,01319.5816,E,0.99,185.59,080912,,,A*61
$GPGGA,101627.000,5229.6351,N,01319.5817,E,1,05,2.2,38.8,M,44.8,M,,0000*6D
$GPGSA,A,3,31,25,12,02,29,,,,,,,,4.7,2.2,4.1*3B
$GPGSV,3,1,09,25,86,334,43,29,60,216,38,12,49,096,29,31,39,304,45*7F
$GPGSV,3,2,09,02,39,073,34,14,19,240,,04,12,035,26,10,03,059,*7A
$GPGSV,3,3,09,09,01,153,*4F
$GPRMC,101628.000,A,5229.6349,N,01319.5817,E,0.99,170.76,080912,,,A*62
$GPGGA,101629.000,5229.6346,N,01319.5816,E,1,05,2.2,39.8,M,44.8,M,,0000*65
$GPGSA,A,3,31,25,12,02,29,,,,,,,,4.7,2.2,4.1*3B
$GPRMC,101629.000,A,5229.6346,N,01319.5816,E,1.15,186.74,080912,,,A*63
$GPGGA,101630.000,5229.6342,N,01319.5815,E,1,05,2.2,40.5,M,44.8,M,,0000*69
$GPGSA,A,3,31,25,12,02,29,,,,,,,,4.7,2.2,4.1*3B
$GPRMC,101630.000,A,5229.6342,N,01319.5815,E,1.19,176.20,080912,,,A*6E
$GPGGA,101631.000,5229.6339,N,01319.5812,E,1,06,1.5,41.2,M,44.8,M,,0000*62
$GPGSA,A,3,31,25,12,02,14,29,,,,,,,2.6,1.5,2.1*3B
$GPRMC,101631.000,A,5229.6339,N,01319.5812,E,1.30,196.90,080912,,,A*6A
$GPGGA,101632.000,5229.6335,N,01319.5810,E,1,06,1.5,42.1,M,44.8,M,,0000*6F
$GPGSA,A,3,31,25,12,02,14,29,,,,,,,2.6,1.5,2.1*3B
$GPGSV,3,1,09,25,86,334,43,29,60,216,38,12,49,096,28,31,39,304,39*75
$GPGSV,3,2,09,02,39,073,28,14,19,240,26,04,12,035,28,10,03,059,*7D
$GPGSV,3,3,09,09,01,153,*4F
$GPRMC,101632.000,A,5229.6335,N,01319.5810,E,1.21,182.54,080912,,,A*6A
$GPGGA,101633.000,5229.6332,N,01319.5807,E,1,06,1.5,42.9,M,44.8,M,,0000*67
$GPGSA,A,3,31,25,12,02,14,29,,,,,,,2.6,1.5,2.1*3B
$GPRMC,101633.000,A,5229.6332,N,01319.5807,E,1.32,183.68,080912,,,A*66
$GPGGA,101634.000,5229.6329,N,01319.5804,E,1,06,1.5,43.8,M,44.8,M,,0000*69
$GPGSA,A,3,31,25,12,02,14,29,,,,,,,2.6,1.5,2.1*3B
$GPRMC,101634.000,A,5229.6329,N,01319.5804,E,1.02,196.55,080912,,,A*61
$GPGGA,101635.000,5229.6326,N,01319.5800,E,1,06,1.5,44.7,M,44.8,M,,0000*6B
$GPGSA,A,3,31,25,12,02,14,29,,,,,,,2.6,1.5,2.1*3B
$GPRMC,101635.000,A,5229.6326,N,01319.5800,E,1.01,209.35,080912,,,A*6B
$GPGGA,101636.000,5229.6323,N,01319.5798,E,1,06,1.5,45.6,M,44.8,M,,0000*63
$GPGSA,A,3,31,25,12,02,14,29,,,,,,,2.6,1.5,2.1*3B
$GPRMC,101636.000,A,5229.6323,N,01319.5798,E,1.00,181.73,080912,,,A*63
$GPGGA,101637.000,5229.6317,N,01319.5794,E,1,06,1.5,46.7,M,44.8,M,,0000*6B
$GPGSA,A,3,31,25,12,02,14,29,,,,,,,2.6,1.5,2.1*3B
$GPGSV,3,1,09,25,86,334,42,29,60,216,35,12,49,096,29,31,39,304,33*72
$GPGSV,3,2,09,02,39,073,32,14,19,240,26,04,12,035,24,10,03,059,*7A
$GPGSV,3,3,09,09,01,153,*4F
$GPRMC,101637.000,A,5229.6317,N,01319.5794,E,1.81,185.43,080912,,,A*67
$GPGGA,101638.000,5229.6313,N,01319.5793,E,1,06,1.5,47.8,M,44.8,M,,0000*69
$GPGSA,A,3,31,25,12,02,14,29,,,,,,,2.6,1.5,2.1*3B
$GPRMC,101638.000,A,5229.6313,N,01319.5793,E,1.45,165.66,080912,,,A*6A
$GPGGA,101639.000,5229.6312,N,01319.5794,E,1,06,1.5,48.9,M,44.8,M,,0000*60
$GPGSA,A,3,31,25,12,02,14,29,,,,,,,2.6,1.5,2.1*3B
$GPRMC,101643.000,A,5229.6303,N,01319.5792,E,1.19,136.64,080912,,,A*6B
$GPGGA,101644.000,5229.6301,N,01319.5791,E,1,05,2.2,54.9,M,44.8,M,,0000*67
$GPGSA,A,3,31,25,12,02,29,,,,,,,,4.7,2.2,4.1*3B
$GPRMC,101651.000,A,5229.6280,N,01319.5786,E,1.18,174.10,080912,,,A*63
$GPGGA,101652.000,5229.6276,N,01319.5785,E,1,05,2.2,63.7,M,44.8,M,,0000*6E
$GPGSA,A,3,31,25,12,02,29,,,,,,,,4.7,2.2,4.1*3B
$GPGSV,3,1,09,25,86,336,48,29,60,216,50,12,49,096,33,31,39,304,29*79
$GPGSV,3,2,09,02,39,073,26,14,19,240,,04,12,035,25,10,04,059,*7D
$GPGSV,3,3,09,09,01,153,*4F
$GPRMC,101652.000,A,5229.6276,N,01319.5785,E,1.33,183.62,080912,,,A*6E
$GPGGA,101653.000,5229.6270,N,01319.5784,E,1,04,2.4,64.1,M,44.8,M,,0000*6E
$GPGSA,A,3,31,25,12,29,,,,,,,,,5.0,2.4,4.4*3C
$GPRMC,101653.000,A,5229.6270,N,01319.5784,E,1.69,179.45,080912,,,A*67
$GPGGA,101654.000,5229.6265,N,01319.5783,E,1,05,2.2,64.5,M,44.8,M,,0000*69
$GPGSA,A,3,31,25,12,29,02,,,,,,,,4.7,2.2,4.1*3B
$GPRMC,101654.000,A,5229.6265,N,01319.5783,E,1.65,179.42,080912,,,A*68
$GPGGA,101655.000,5229.6258,N,01319.5785,E,1,04,2.3,64.9,M,44.8,M,,0000*6C
$GPGSA,A,3,31,25,29,02,,,,,,,,,4.8,2.3,4.2*35
$GPRMC,101655.000,A,5229.6258,N,01319.5785,E,1.75,172.44,080912,,,A*6D
$GPGGA,101656.000,5229.6252,N,01319.5788,E,1,04,2.4,65.3,M,44.8,M,,0000*64
$GPGSA,A,3,31,25,12,29,,,,,,,,,5.0,2.4,4.4*3C
$GPRMC,101656.000,A,5229.6252,N,01319.5788,E,1.90,165.28,080912,,,A*6E
$GPGGA,101657.000,5229.6246,N,01319.5789,E,1,04,2.4,65.8,M,44.8,M,,0000*6A
$GPGSA,A,3,31,25,12,29,,,,,,,,,5.0,2.4,4.4*3C
$GPGSV,3,1,09,25,86,336,48,29,60,216,48,12,49,096,32,31,39,304,29*71
$GPGSV,3,2,09,02,39,073,,14,19,240,,04,12,035,24,10,04,059,*78
$GPGSV,3,3,09,09,01,153,*4F
$GPRMC,101657.000,A,5229.6246,N,01319.5789,E,1.37,179.19,080912,,,A*69
$GPGGA,101658.000,5229.6242,N,01319.5792,E,1,05,2.2,66.0,M,44.8,M,,0000*67
$GPGSA,A,3,31,25,12,02,29,,,,,,,,4.7,2.2,4.1*3B
$GPRMC,101658.000,A,5229.6242,N,01319.5792,E,1.17,163.35,080912,,,A*6F
$GPGGA,101659.000,5229.6237,N,01319.5794,E,1,05,2.2,66.3,M,44.8,M,,0000*61
$GPGSA,A,3,31,25,12,02,29,,,,,,,,4.7,2.2,4.1*3B
$GPRMC,101659.000,A,5229.6237,N,01319.5794,E,1.11,170.41,080912,,,A*6D
$GPGGA,101700.000,5229.6232,N,01319.5796,E,1,05,2.2,66.4,M,44.8,M,,0000*6C
$GPGSA,A,3,31,25,12,02,29,,,,,,,,4.7,2.2,4.1*3B
$GPRMC,101700.000,A,5229.6232,N,01319.5796,E,1.33,165.72,080912,,,A*63
$GPGGA,101701.000,5229.6228,N,01319.5797,E,1,05,2.2,66.6,M,44.8,M,,0000*65
$GPGSA,A,3,31,25,12,02,29,,,,,,,,4.7,2.2,4.1*3B
$GPRMC,101701.000,A,5229.6228,N,01319.5797,E,0.95,191.19,080912,,,A*63
$GPGGA,101702.000,5229.6224,N,01319.5798,E,1,05,2.2,66.8,M,44.8,M,,0000*6B
$GPGSA,A,3,31,25,12,02,29,,,,,,,,4.7,2.2,4.1*3B
$GPGSV,3,1,09,25,86,336,48,29,60,216,48,12,49,096,33,31,39,304,29*70
$GPGSV,3,2,09,02,39,073,33,14,19,240,,04,12,035,23,10,04,059,*7F
$GPGSV,3,3,09,09,01,153,*4F
$GPRMC,101702.000,A,5229.6224,N,01319.5798,E,0.89,173.26,080912,,,A*6E
$GPGGA,101703.000,5229.6221,N,01319.5800,E,1,05,2.2,67.2,M,44.8,M,,0000*6A
$GPGSA,A,3,31,25,12,02,29,,,,,,,,4.7,2.2,4.1*3B
$GPRMC,101713.000,A,5229.6194,N,01319.5808,E,0.94,159.22,080912,,,A*60
$GPGGA,101714.000,5229.6190,N,01319.5809,E,1,05,2.2,73.5,M,44.8,M,,0000*6E
$GPGSA,A,3,31,25,12,02,29,,,,,,,,4.7,2.2,4.2*38
$GPRMC,101714.000,A,5229.6190,N,01319.5809,E,0.93,169.05,080912,,,A*63
$GPGGA,101715.000,5229.6189,N,01319.5810,E,1,05,2.2,74.0,M,44.8,M,,0000*6D
$GPGSA,A,3,31,25,12,02,29,,,,,,,,4.7,2.2,4.2*38
$GPRMC,101718.000,A,5229.6193,N,01319.5811,E,1.39,356.32,080912,,,A*6E
$GPGGA,101719.000,5229.6196,N,01319.5811,E,1,05,2.2,75.6,M,44.8,M,,0000*69
$GPGSA,A,3,31,25,12,02,29,,,,,,,,4.7,2.2,4.2*38
$GPRMC,101719.000,A,5229.6196,N,01319.5811,E,1.35,6.05,080912,,,A*64
$GPGGA,101720.000,5229.6199,N,01319.5811,E,1,05,2.2,76.0,M,44.8,M,,0000*69
$GPGSA,A,3,31,25,12,02,29,,,,,,,,4.7,2.2,4.2*38
$GPRMC,101720.000,A,5229.6199,N,01319.5811,E,1.25,4.56,080912,,,A*64
$GPGGA,101721.000,5229.6201,N,01319.5811,E,1,05,2.2,76.4,M,44.8,M,,0000*6E
$GPGSA,A,3,31,25,12,02,29,,,,,,,,4.7,2.2,4.2*38
$GPRMC,101721.000,A,5229.6201,N,01319.5811,E,1.14,12.17,080912,,,A*57
$GPGGA,101722.000,5229.6205,N,01319.5810,E,1,05,2.2,76.8,M,44.8,M,,0000*64
$GPGSA,A,3,31,25,12,02,29,,,,,,,,4.7,2.2,4.2*38
$GPGSV,3,1,09,25,86,339,48,29,61,216,46,12,48,096,32,31,40,304,32*74
$GPGSV,3,2,09,02,39,073,37,14,18,239,,04,12,035,27,10,04,059,*70
$GPGSV,3,3,09,09,01,153,*4F
$GPRMC,101722.000,A,5229.6205,N,01319.5810,E,1.35,359.72,080912,,,A*6D
$GPGGA,101723.000,5229.6208,N,01319.5809,E,1,05,2.2,77.1,M,44.8,M,,0000*68
$GPGSA,A,3,31,25,12,02,29,,,,,,,,4.7,2.2,4.2*38
$GPRMC,101723.000,A,5229.6208,N,01319.5809,E,1.49,3.81,080912,,,A*62
$GPGGA,101724.000,5229.6212,N,01319.5808,E,1,05,2.2,77.4,M,44.8,M,,0000*60
$GPGSA,A,3,31,25,12,02,29,,,,,,,,4.7,2.2,4.2*38
$GPRMC,101724.000,A,5229.6212,N,01319.5808,E,1.35,4.98,080912,,,A*6B
$GPGGA,101725.000,5229.6215,N,01319.5808,E,1,05,2.2,77.6,M,44.8,M,,0000*64
$GPGSA,A,3,31,25,12,02,29,,,,,,,,4.7,2.2,4.2*38
$GPRMC,101725.000,A,5229.6215,N,01319.5808,E,1.27,3.14,080912,,,A*6D
$GPGGA,101726.000,5229.6217,N,01319.5807,E,1,05,2.2,77.8,M,44.8,M,,0000*64
$GPGSA,A,3,31,25,12,02,29,,,,,,,,4.7,2.2,4.2*38
$GPRMC,101754.000,A,5229.6240,N,01319.5758,E,1.21,8.70,080912,,,A*6E
$GPGGA,101755.000,5229.6243,N,01319.5761,E,1,05,2.3,79.8,M,44.8,M,,0000*61
$GPGSA,A,3,25,12,02,29,31,,,,,,,,4.8,2.3,4.2*36
$GPRMC,101755.000,A,5229.6243,N,01319.5761,E,1.19,28.19,080912,,,A*50
$GPGGA,101756.000,5229.6246,N,01319.5762,E,1,05,2.3,79.8,M,44.8,M,,0000*64
$GPGSA,A,3,25,12,02,29,31,,,,,,,,4.8,2.3,4.2*36
$GPRMC,101756.000,A,5229.6246,N,01319.5762,E,1.19,7.51,080912,,,A*64
$GPGGA,101757.000,5229.6250,N,01319.5765,E,1,05,2.3,79.8,M,44.8,M,,0000*65
$GPGSA,A,3,25,12,02,29,31,,,,,,,,4.8,2.3,4.2*36
$GPGSV,3,1,09,25,86,343,48,29,61,216,48,12,48,097,36,31,40,304,33*73
$GPGSV,3,2,09,02,39,073,29,14,18,239,,04,12,035,22,10,04,059,*7A
$GPGSV,3,3,09,09,01,153,*4F
$GPRMC,101757.000,A,5229.6250,N,01319.5765,E,1.58,13.72,080912,,,A*54
$GPGGA,101758.000,5229.6255,N,01319.5766,E,1,05,2.3,79.8,M,44.8,M,,0000*6C
$GPGSA,A,3,25,12,02,29,31,,,,,,,,4.8,2.3,4.2*36
$GPRMC,101758.000,A,5229.6255,N,01319.5766,E,1.97,6.50,080912,,,A*6A
$GPGGA,101759.000,5229.6260,N,01319.5768,E,1,05,2.3,79.6,M,44.8,M,,0000*6B
$GPGSA,A,3,25,12,02,29,31,,,,,,,,4.8,2.3,4.2*36
$GPRMC,101759.000,A,5229.6260,N,01319.5768,E,1.79,7.42,080912,,,A*61
$GPGGA,101800.000,5229.6265,N,01319.5769,E,1,05,2.3,79.4,M,44.8,M,,0000*6E
$GPGSA,A,3,25,12,02,29,31,,,,,,,,4.8,2.3,4.2*36
$GPRMC,101800.000,A,5229.6265,N,01319.5769,E,1.91,0.16,080912,,,A*66
$GPGGA,101801.000,5229.6269,N,01319.5771,E,1,05,2.3,79.1,M,44.8,M,,0000*6F
$GPGSA,A,3,25,12,02,29,31,,,,,,,,4.8,2.3,4.2*36
$GPRMC,101801.000,A,5229.6269,N,01319.5771,E,1.81,11.07,080912,,,A*53
$GPGGA,101802.000,5229.6275,N,01319.5771,E,1,05,2.3,78.7,M,44.8,M,,0000*66
$GPGSA,A,3,25,12,02,29,31,,,,,,,,4.8,2.3,4.2*36
$GPGSV,3,1,09,25,86,343,48,29,61,216,48,12,48,097,36,31,40,304,32*72
$GPGSV,3,2,09,02,39,073,37,14,18,239,,04,12,035,25,10,04,059,*72
$GPGSV,3,3,09,09,01,153,*4F
$GPRMC,101802.000,A,5229.6275,N,01319.5771,E,2.15,354.62,080912,,,A*62
$GPGGA,101803.000,5229.6281,N,01319.5772,E,1,05,2.3,78.3,M,44.8,M,,0000*6B
$GPGSA,A,3,25,12,02,29,31,,,,,,,,4.8,2.3,4.2*36
$GPRMC,101803.000,A,5229.6281,N,01319.5772,E,2.18,359.93,080912,,,A*65
$GPGGA,101804.000,5229.6287,N,01319.5773,E,1,05,2.3,78.0,M,44.8,M,,0000*68
$GPGSA,A,3,25,12,02,29,31,,,,,,,,4.8,2.3,4.2*36
$GPRMC,101804.000,A,5229.6287,N,01319.5773,E,2.22,359.15,080912,,,A*62
$GPGGA,101805.000,5229.6293,N,01319.5775,E,1,05,2.3,77.4,M,44.8,M,,0000*61
$GPGSA,A,3,25,12,02,29,31,,,,,,,,4.8,2.3,4.2*36
$GPRMC,101805.000,A,5229.6293,N,01319.5775,E,2.35,13.54,080912,,,A*5E
$GPGGA,101806.000,5229.6300,N,01319.5777,E,1,05,2.3,76.8,M,44.8,M,,0000*66
$GPGSA,A,3,25,12,02,29,31,,,,,,,,4.8,2.3,4.2*36
$GPRMC,101806.000,A,5229.6300,N,01319.5777,E,2.27,6.35,080912,,,A*64
$GPGGA,101807.000,5229.6309,N,01319.5778,E,1,05,2.3,76.0,M,44.8,M,,0000*69
$GPGSA,A,3,25,12,02,29,31,,,,,,,,4.8,2.3,4.2*36
$GPGSV,3,1,09,25,86,343,48,29,61,216,40,12,48,097,32,31,40,304,35*79
$GPGSV,3,2,09,02,39,073,42,14,18,239,,04,12,035,25,10,04,059,*70
$GPGSV,3,3,09,09,01,153,*4F
$GPRMC,101807.000,A,5229.6309,N,01319.5778,E,3.13,1.67,080912,,,A*65
$GPGGA,101808.000,5229.6318,N,01319.5779,E,1,05,2.3,74.9,M,44.8,M,,0000*6C
$GPGSA,A,3,25,12,02,29,31,,,,,,,,4.8,2.3,4.2*36
$GPRMC,101808.000,A,5229.6318,N,01319.5779,E,2.85,359.00,080912,,,A*6A
$GPGGA,101809.000,5229.6325,N,01319.5781,E,1,05,2.3,73.8,M,44.8,M,,0000*62
$GPGSA,A,3,25,12,02,29,31,,,,,,,,4.8,2.3,4.2*36
$GPRMC,101809.000,A,5229.6325,N,01319.5781,E,2.23,4.02,080912,,,A*67
$GPGGA,101810.000,5229.6332,N,01319.5782,E,1,05,2.3,72.7,M,44.8,M,,0000*61
$GPGSA,A,3,25,12,02,29,31,,,,,,,,4.8,2.3,4.2*36
$GPRMC,101810.000,A,5229.6332,N,01319.5782,E,2.16,358.15,080912,,,A*60
$GPGGA,101811.000,5229.6339,N,01319.5781,E,1,05,2.3,71.6,M,44.8,M,,0000*6A
$GPGSA,A,3,25,12,02,29,31,,,,,,,,4.8,2.3,4.2*36
$GPRMC,101811.000,A,5229.6339,N,01319.5781,E,2.01,345.42,080912,,,A*61
$GPGGA,101812.000,5229.6345,N,01319.5779,E,1,05,2.3,70.5,M,44.8,M,,0000*67
$GPGSA,A,3,25,12,02,29,31,,,,,,,,4.8,2.3,4.2*36
$GPGSV,3,1,09,25,86,343,48,29,61,216,46,12,48,097,37,31,40,304,45*7D
$GPGSV,3,2,09,02,39,073,42,14,18,239,,04,12,035,30,10,04,059,*74
$GPGSV,3,3,09,09,01,153,*4F
$GPRMC,101812.000,A,5229.6345,N,01319.5779,E,2.08,341.14,080912,,,A*60
$GPGGA,101813.000,5229.6352,N,01319.5777,E,1,05,2.3,69.4,M,44.8,M,,0000*67
$GPGSA,A,3,25,12,02,29,31,,,,,,,,4.8,2.3,4.2*36
$GPRMC,101813.000,A,5229.6352,N,01319.5777,E,2.14,337.81,080912,,,A*69
$GPGGA,101814.000,5229.6358,N,01319.5773,E,1,05,2.3,68.4,M,44.8,M,,0000*6F
$GPGSA,A,3,25,12,02,29,31,,,,,,,,4.8,2.3,4.2*36
$GPRMC,101814.000,A,5229.6358,N,01319.5773,E,2.12,331.89,080912,,,A*68
$GPGGA,101815.000,5229.6365,N,01319.5769,E,1,05,2.3,67.3,M,44.8,M,,0000*63
$GPGSA,A,3,25,12,02,29,31,,,,,,,,4.8,2.3,4.2*36
$GPRMC,101815.000,A,5229.6365,N,01319.5769,E,2.24,330.40,080912,,,A*6D
$GPGGA,101816.000,5229.6371,N,01319.5765,E,1,05,2.3,66.3,M,44.8,M,,0000*68
$GPGSA,A,3,25,12,02,29,31,,,,,,,,4.8,2.3,4.2*36
$GPRMC,101816.000,A,5229.6371,N,01319.5765,E,2.15,322.83,080912,,,A*69
$GPGGA,101817.000,5229.6377,N,01319.5759,E,1,05,2.3,65.3,M,44.8,M,,0000*63
$GPGSA,A,3,25,12,02,29,31,,,,,,,,4.8,2.3,4.2*36
$GPGSV,3,1,09,25,87,347,48,29,61,216,47,12,48,097,44,31,40,304,46*7E
$GPGSV,3,2,09,02,39,072,43,14,18,239,,04,12,035,23,10,04,059,*76
$GPGSV,3,3,09,09,00,153,*4E
$GPRMC,101817.000,A,5229.6377,N,01319.5759,E,2.20,317.06,080912,,,A*6C
$GPGGA,101818.000,5229.6382,N,01319.5753,E,1,05,2.3,64.3,M,44.8,M,,0000*6D
$GPGSA,A,3,25,12,02,29,31,,,,,,,,4.8,2.3,4.2*36
$GPRMC,101818.000,A,5229.6382,N,01319.5753,E,2.28,314.03,080912,,,A*6D
$GPGGA,101819.000,5229.6388,N,01319.5746,E,1,05,2.3,63.3,M,44.8,M,,0000*65
$GPGSA,A,3,25,12,02,29,31,,,,,,,,4.8,2.3,4.2*36
$GPRMC,101819.000,A,5229.6388,N,01319.5746,E,2.28,310.31,080912,,,A*67
$GPGGA,101820.000,5229.6393,N,01319.5739,E,1,05,2.3,62.4,M,44.8,M,,0000*6B
$GPGSA,A,3,25,12,02,29,31,,,,,,,,4.8,2.3,4.2*36
$GPRMC,101820.000,A,5229.6393,N,01319.5739,E,2.37,311.74,080912,,,A*61
$GPGGA,101821.000,5229.6399,N,01319.5732,E,1,05,2.3,61.5,M,44.8,M,,0000*69
$GPGSA,A,3,25,12,02,29,31,,,,,,,,4.8,2.3,4.2*36
$GPRMC,101821.000,A,5229.6399,N,01319.5732,E,2.41,311.50,080912,,,A*66
$GPGGA,101822.000,5229.6404,N,01319.5725,E,1,05,2.3,60.6,M,44.8,M,,0000*6D
$GPGSA,A,3,25,12,02,29,31,,,,,,,,4.8,2.3,4.2*36
$GPGSV,3,1,09,25,87,347,48,29,61,216,41,12,48,097,46,31,40,304,47*7B
$GPGSV,3,2,09,02,39,072,46,14,18,239,,04,12,035,30,10,04,059,*71
$GPGSV,3,3,09,09,00,153,*4E
$GPRMC,101822.000,A,5229.6404,N,01319.5725,E,2.40,309.43,080912,,,A*6A
$GPGGA,101823.000,5229.6409,N,01319.5717,E,1,06,1.5,59.7,M,44.8,M,,0000*6D
$GPGSA,A,3,14,25,12,02,29,31,,,,,,,2.6,1.5,2.1*3B
$GPRMC,101823.000,A,5229.6409,N,01319.5717,E,2.33,304.50,080912,,,A*6C
$GPGGA,101824.000,5229.6413,N,01319.5708,E,1,06,1.5,58.8,M,44.8,M,,0000*61
$GPGSA,A,3,14,25,12,02,29,31,,,,,,,2.6,1.5,2.1*3B
$GPRMC,101824.000,A,5229.6413,N,01319.5708,E,2.39,298.66,080912,,,A*65
$GPGGA,101825.000,5229.6417,N,01319.5700,E,1,06,1.5,57.8,M,44.8,M,,0000*63
$GPGSA,A,3,14,25,12,02,29,31,,,,,,,2.6,1.5,2.1*3B
$GPRMC,101825.000,A,5229.6417,N,01319.5700,E,2.36,299.03,080912,,,A*65
$GPGGA,101826.000,5229.6420,N,01319.5691,E,1,06,1.5,56.8,M,44.8,M,,0000*6C
$GPGSA,A,3,14,25,12,02,29,31,,,,,,,2.6,1.5,2.1*3B
$GPRMC,101826.000,A,5229.6420,N,01319.5691,E,2.27,292.20,080912,,,A*61
$GPGGA,101827.000,5229.6422,N,01319.5682,E,1,06,1.5,55.9,M,44.8,M,,0000*6F
$GPGSA,A,3,14,25,12,02,29,31,,,,,,,2.6,1.5,2.1*3B
$GPGSV,3,1,09,25,87,347,48,29,61,216,44,12,48,097,40,31,40,304,47*78
$GPGSV,3,2,09,02,39,072,46,14,18,239,40,04,12,035,32,10,04,059,*77
$GPGSV,3,3,09,09,00,153,*4E
$GPRMC,101827.000,A,5229.6422,N,01319.5682,E,2.14,285.49,080912,,,A*69
$GPGGA,101828.000,5229.6424,N,01319.5674,E,1,06,1.5,54.9,M,44.8,M,,0000*6E
$GPGSA,A,3,14,25,12,02,29,31,,,,,,,2.6,1.5,2.1*3B
$GPRMC,101828.000,A,5229.6424,N,01319.5674,E,1.91,277.20,080912,,,A*65
$GPGGA,101829.000,5229.6424,N,01319.5665,E,1,06,1.5,54.1,M,44.8,M,,0000*67
$GPGSA,A,3,14,25,12,02,29,31,,,,,,,2.6,1.5,2.1*3B
$GPRMC,101829.000,A,5229.6424,N,01319.5665,E,2.08,269.08,080912,,,A*62
$GPGGA,101830.000,5229.6424,N,01319.5656,E,1,06,1.5,53.2,M,44.8,M,,0000*6B
$GPGSA,A,3,14,25,12,02,29,31,,,,,,,2.6,1.5,2.1*3B
$GPRMC,101830.000,A,5229.6424,N,01319.5656,E,2.09,257.19,080912,,,A*66
$GPGGA,101831.000,5229.6422,N,01319.5648,E,1,06,1.5,52.4,M,44.8,M,,0000*64
$GPGSA,A,3,14,25,12,02,29,31,,,,,,,2.6,1.5,2.1*3B
$GPRMC,101831.000,A,5229.6422,N,01319.5648,E,2.11,249.11,080912,,,A*60
$GPGGA,101832.000,5229.6421,N,01319.5640,E,1,06,1.5,51.6,M,44.8,M,,0000*6D
$GPGSA,A,3,14,25,12,02,29,31,,,,,,,2.6,1.5,2.1*3B
$GPGSV,3,1,09,25,87,347,48,29,61,216,48,12,48,097,47,31,40,304,47*73
$GPGSV,3,2,09,02,39,072,38,14,18,239,32,04,12,035,28,10,04,059,*70
$GPGSV,3,3,09,09,00,153,*4E
$GPRMC,101832.000,A,5229.6421,N,01319.5640,E,2.06,244.39,080912,,,A*69
$GPGGA,101833.000,5229.6420,N,01319.5632,E,1,06,1.5,50.9,M,44.8,M,,0000*66
$GPGSA,A,3,14,25,12,02,29,31,,,,,,,2.6,1.5,2.1*3B
$GPRMC,101833.000,A,5229.6420,N,01319.5632,E,1.98,255.81,080912,,,A*6B
$GPGGA,101834.000,5229.6420,N,01319.5625,E,1,06,1.5,50.2,M,44.8,M,,0000*6C
$GPGSA,A,3,14,25,12,02,29,31,,,,,,,2.6,1.5,2.1*3B
$GPRMC,101834.000,A,5229.6420,N,01319.5625,E,1.55,257.72,080912,,,A*65
$GPGGA,101835.000,5229.6419,N,01319.5618,E,1,06,1.5,49.5,M,44.8,M,,0000*66
$GPGSA,A,3,14,25,12,02,29,31,,,,,,,2.6,1.5,2.1*3B
$GPRMC,101835.000,A,5229.6419,N,01319.5618,E,1.72,252.03,080912,,,A*66
$GPGGA,101836.000,5229.6417,N,01319.5612,E,1,06,1.5,48.8,M,44.8,M,,0000*6D
$GPGSA,A,3,14,25,12,02,29,31,,,,,,,2.6,1.5,2.1*3B
$GPRMC,101836.000,A,5229.6417,N,01319.5612,E,1.68,242.66,080912,,,A*68
$GPGGA,101837.000,5229.6417,N,01319.5606,E,1,06,1.5,48.2,M,44.8,M,,0000*63
$GPGSA,A,3,14,25,12,02,29,31,,,,,,,2.6,1.5,2.1*3B
$GPGSV,3,1,09,25,87,347,48,29,61,216,47,12,48,097,42,31,40,304,37*7E
$GPGSV,3,2,09,02,39,072,38,14,18,239,32,04,12,035,23,10,04,059,*7B
$GPGSV,3,3,09,09,00,153,14*4B
$GPRMC,101837.000,A,5229.6417,N,01319.5606,E,1.54,256.99,080912,,,A*66
$GPGGA,101838.000,5229.6415,N,01319.5599,E,1,05,2.3,47.7,M,44.8,M,,0000*67
$GPGSA,A,3,25,12,02,29,31,,,,,,,,4.8,2.3,4.2*36
$GPRMC,101838.000,A,5229.6415,N,01319.5599,E,1.69,252.93,080912,,,A*6E
$GPGGA,101839.000,5229.6415,N,01319.5593,E,1,05,2.3,47.2,M,44.8,M,,0000*69
$GPGSA,A,3,25,12,02,29,31,,,,,,,,4.8,2.3,4.2*36
$GPRMC,101839.000,A,5229.6415,N,01319.5593,E,1.46,256.98,080912,,,A*67
$GPGGA,101840.000,5229.6414,N,01319.5587,E,1,06,1.5,46.7,M,44.8,M,,0000*61
$GPGSA,A,3,25,12,02,14,29,31,,,,,,,2.6,1.5,2.1*3B
$GPRMC,101840.000,A,5229.6414,N,01319.5587,E,1.50,251.84,080912,,,A*60
$GPGGA,101841.000,5229.6413,N,01319.5581,E,1,06,1.5,46.2,M,44.8,M,,0000*64
$GPGSA,A,3,25,12,02,14,29,31,,,,,,,2.6,1.5,2.1*3B
$GPRMC,101841.000,A,5229.6413,N,01319.5581,E,1.36,254.89,080912,,,A*68
$GPGGA,101842.000,5229.6411,N,01319.5576,E,1,06,1.5,45.8,M,44.8,M,,0000*64
$GPGSA,A,3,25,12,02,14,29,31,,,,,,,2.6,1.5,2.1*3B
$GPGSV,3,1,09,25,87,347,38,29,61,216,41,12,48,097,48,31,40,304,37*75
$GPGSV,3,2,09,02,39,072,39,14,18,239,27,04,12,035,23,10,04,059,*7E
$GPGSV,3,3,09,09,00,153,*4E
$GPRMC,101842.000,A,5229.6411,N,01319.5576,E,1.44,234.72,080912,,,A*66
$GPGGA,101843.000,5229.6408,N,01319.5572,E,1,06,1.5,45.4,M,44.8,M,,0000*65
$GPGSA,A,3,25,12,02,14,29,31,,,,,,,2.6,1.5,2.1*3B
$GPRMC,101843.000,A,5229.6408,N,01319.5572,E,1.69,223.40,080912,,,A*63
$GPGGA,101844.000,5229.6404,N,01319.5569,E,1,06,1.5,44.9,M,44.8,M,,0000*68
$GPGSA,A,3,25,12,02,14,29,31,,,,,,,2.6,1.5,2.1*3B
$GPRMC,101844.000,A,5229.6404,N,01319.5569,E,1.63,207.57,080912,,,A*68
$GPGGA,101845.000,5229.6401,N,01319.5563,E,1,06,1.5,44.5,M,44.8,M,,0000*6A
$GPGSA,A,3,25,12,02,14,29,31,,,,,,,2.6,1.5,2.1*3B
$GPRMC,101845.000,A,5229.6401,N,01319.5563,E,1.82,223.22,080912,,,A*6D
$GPGGA,101846.000,5229.6399,N,01319.5557,E,1,06,1.5,44.0,M,44.8,M,,0000*6D
$GPGSA,A,3,25,12,02,14,29,31,,,,,,,2.6,1.5,2.1*3B
$GPRMC,101846.000,A,5229.6399,N,01319.5557,E,1.74,245.40,080912,,,A*62
$GPGGA,101847.000,5229.6396,N,01319.5553,E,1,06,1.5,43.4,M,44.8,M,,0000*64
$GPGSA,A,3,25,12,02,14,29,31,,,,,,,2.6,1.5,2.1*3B
$GPGSV,3,1,09,25,87,351,44,29,61,216,42,12,48,097,31,31,40,303,42*71
$GPGSV,3,2,09,02,39,072,34,14,18,239,26,04,12,035,24,10,04,059,*75
$GPGSV,3,3,09,09,00,153,*4E
$GPRMC,101847.000,A,5229.6396,N,01319.5553,E,1.30,222.83,080912,,,A*66
$GPGGA,101848.000,5229.6395,N,01319.5550,E,1,06,1.5,42.7,M,44.8,M,,0000*69
$GPGSA,A,3,25,12,02,14,29,31,,,,,,,2.6,1.5,2.1*3B
$GPRMC,101848.000,A,5229.6395,N,01319.5550,E,1.09,226.13,080912,,,A*6E
$GPGGA,101849.000,5229.6394,N,01319.5544,E,1,06,1.5,42.1,M,44.8,M,,0000*6A
$GPGSA,A,3,25,12,02,14,29,31,,,,,,,2.6,1.5,2.1*3B
$GPRMC,101849.000,A,5229.6394,N,01319.5544,E,1.38,251.93,080912,,,A*61
$GPGGA,101850.000,5229.6391,N,01319.5540,E,1,06,1.5,41.6,M,44.8,M,,0000*67
$GPGSA,A,3,25,12,02,14,29,31,,,,,,,2.6,1.5,2.1*3B
$GPRMC,101850.000,A,5229.6391,N,01319.5540,E,1.42,222.34,080912,,,A*6C
$GPGGA,101851.000,5229.6388,N,01319.5534,E,1,06,1.5,41.3,M,44.8,M,,0000*68
$GPGSA,A,3,25,12,02,14,29,31,,,,,,,2.6,1.5,2.1*3B
$GPRMC,101851.000,A,5229.6388,N,01319.5534,E,1.57,234.22,080912,,,A*62
$GPGGA,101852.000,5229.6386,N,01319.5529,E,1,06,1.5,41.0,M,44.8,M,,0000*6A
$GPGSA,A,3,25,12,02,14,29,31,,,,,,,2.6,1.5,2.1*3B
$GPGSV,3,1,09,25,87,351,44,29,61,216,44,12,48,097,42,31,40,303,35*73
$GPGSV,3,2,09,02,39,072,40,14,18,239,31,04,12,035,26,10,04,059,*72
$GPGSV,3,3,09,09,00,153,*4E
$GPRMC,101852.000,A,5229.6386,N,01319.5529,E,1.39,233.89,080912,,,A*6D
$GPGGA,101853.000,5229.6388,N,01319.5524,E,1,06,1.5,40.8,M,44.8,M,,0000*61
$GPGSA,A,3,25,12,02,14,29,31,,,,,,,2.6,1.5,2.1*3B
$GPRMC,101853.000,A,5229.6388,N,01319.5524,E,1.41,296.39,080912,,,A*64
$GPGGA,101854.000,5229.6387,N,01319.5517,E,1,06,1.5,40.6,M,44.8,M,,0000*67
$GPGSA,A,3,25,12,02,14,29,31,,,,,,,2.6,1.5,2.1*3B
$GPRMC,101854.000,A,5229.6387,N,01319.5517,E,1.47,260.93,080912,,,A*63
$GPGGA,101855.000,5229.6387,N,01319.5512,E,1,06,1.5,40.4,M,44.8,M,,0000*61
$GPGSA,A,3,25,12,02,14,29,31,,,,,,,2.6,1.5,2.1*3B
$GPRMC,101855.000,A,5229.6387,N,01319.5512,E,1.13,266.89,080912,,,A*6B
$GPGGA,101856.000,5229.6385,N,01319.5508,E,1,06,1.5,40.1,M,44.8,M,,0000*6E
$GPGSA,A,3,25,12,02,14,29,31,,,,,,,2.6,1.5,2.1*3B
$GPRMC,101856.000,A,5229.6385,N,01319.5508,E,1.22,236.74,080912,,,A*64
$GPGGA,101857.000,5229.6382,N,01319.5503,E,1,06,1.5,39.7,M,44.8,M,,0000*6B
$GPGSA,A,3,14,25,12,02,29,31,,,,,,,2.6,1.5,2.1*3B
$GPGSV,3,1,09,25,87,351,40,29,61,216,41,12,48,097,29,31,40,303,46*7B
$GPGSV,3,2,09,02,39,072,33,14,18,239,34,04,12,035,25,10,04,059,*70
$GPGSV,3,3,09,09,00,153,*4E
$GPRMC,101857.000,A,5229.6382,N,01319.5503,E,1.65,223.34,080912,,,A*6A
$GPGGA,101858.000,5229.6378,N,01319.5497,E,1,06,1.5,39.2,M,44.8,M,,0000*68
$GPGSA,A,3,14,25,12,02,29,31,,,,,,,2.6,1.5,2.1*3B
$GPRMC,101858.000,A,5229.6378,N,01319.5497,E,1.84,222.72,080912,,,A*60
$GPGGA,101859.000,5229.6375,N,01319.5492,E,1,06,1.5,38.7,M,44.8,M,,0000*65
$GPGSA,A,3,14,25,12,02,29,31,,,,,,,2.6,1.5,2.1*3B
$GPRMC,101859.000,A,5229.6375,N,01319.5492,E,1.51,224.06,080912,,,A*64
$GPGGA,101900.000,5229.6372,N,01319.5486,E,1,06,1.5,38.2,M,44.8,M,,0000*6F
$GPGSA,A,3,14,25,12,02,29,31,,,,,,,2.6,1.5,2.1*3B
$GPRMC,101900.000,A,5229.6372,N,01319.5486,E,1.60,231.13,080912,,,A*69
$GPGGA,101901.000,5229.6369,N,01319.5479,E,1,06,1.5,37.8,M,44.8,M,,0000*61
$GPGSA,A,3,14,25,12,02,29,31,,,,,,,2.6,1.5,2.1*3B
$GPRMC,101901.000,A,5229.6369,N,01319.5479,E,1.63,228.30,080912,,,A*68
$GPGGA,101902.000,5229.6365,N,01319.5473,E,1,06,1.5,37.5,M,44.8,M,,0000*69
$GPGSA,A,3,14,25,12,02,29,31,,,,,,,2.6,1.5,2.1*3B
$GPGSV,3,1,09,25,87,351,43,29,61,216,33,12,48,097,33,31,40,303,45*75
$GPGSV,3,2,09,02,39,072,44,14,18,239,34,04,12,035,25,10,04,059,*70
$GPGSV,3,3,09,09,00,153,*4E
$GPRMC,101902.000,A,5229.6365,N,01319.5473,E,1.86,221.12,080912,,,A*6F
$GPGGA,101903.000,5229.6360,N,01319.5469,E,1,06,1.5,37.3,M,44.8,M,,0000*60
$GPGSA,A,3,14,25,12,02,29,31,,,,,,,2.6,1.5,2.1*3B
$GPRMC,101903.000,A,5229.6360,N,01319.5469,E,1.77,199.36,080912,,,A*68
$GPGGA,101904.000,5229.6359,N,01319.5466,E,1,06,1.5,37.1,M,44.8,M,,0000*60
$GPGSA,A,3,14,25,12,02,29,31,,,,,,,2.6,1.5,2.1*3B
$GPRMC,101905.000,A,5229.6356,N,01319.5460,E,1.51,235.38,080912,,,A*6D
$GPGGA,101906.000,5229.6354,N,01319.5453,E,1,06,1.5,36.6,M,44.8,M,,0000*6F
$GPGSA,A,3,14,25,12,02,29,31,,,,,,,2.6,1.5,2.1*3B
$GPRMC,101906.000,A,5229.6354,N,01319.5453,E,1.52,235.55,080912,,,A*64
$GPGGA,101907.000,5229.6351,N,01319.5447,E,1,06,1.5,36.5,M,44.8,M,,0000*6D
$GPGSA,A,3,14,25,12,02,29,31,,,,,,,2.6,1.5,2.1*3B
$GPGSV,3,1,09,25,87,351,44,29,61,216,44,12,48,097,29,31,40,303,43*7F
$GPGSV,3,2,09,02,39,072,33,14,18,239,27,04,12,035,31,10,04,059,*77
$GPGSV,3,3,09,09,00,153,*4E
$GPRMC,101907.000,A,5229.6351,N,01319.5447,E,1.46,229.89,080912,,,A*6C
$GPGGA,101908.000,5229.6349,N,01319.5438,E,1,06,1.5,36.5,M,44.8,M,,0000*63
$GPGSA,A,3,14,25,12,02,29,31,,,,,,,2.6,1.5,2.1*3B
$GPRMC,101908.000,A,5229.6349,N,01319.5438,E,1.88,238.88,080912,,,A*61
$GPGGA,101909.000,5229.6346,N,01319.5429,E,1,06,1.5,36.4,M,44.8,M,,0000*6C
$GPGSA,A,3,14,25,12,02,29,31,,,,,,,2.6,1.5,2.1*3B
$GPRMC,101909.000,A,5229.6346,N,01319.5429,E,2.02,235.67,080912,,,A*62
$GPGGA,101910.000,5229.6342,N,01319.5420,E,1,06,1.5,36.4,M,44.8,M,,0000*69
$GPGSA,A,3,14,25,12,02,29,31,,,,,,,2.6,1.5,2.1*3B
$GPRMC,101910.000,A,5229.6342,N,01319.5420,E,2.13,234.21,080912,,,A*64
$GPGGA,101911.000,5229.6340,N,01319.5411,E,1,06,1.5,36.5,M,44.8,M,,0000*69
$GPGSA,A,3,14,25,12,02,29,31,,,,,,,2.6,1.5,2.1*3B
$GPRMC,101911.000,A,5229.6340,N,01319.5411,E,2.10,237.96,080912,,,A*69
$GPGGA,101912.000,5229.6336,N,01319.5403,E,1,06,1.5,36.6,M,44.8,M,,0000*6B
$GPGSA,A,3,14,25,12,02,29,31,,,,,,,2.6,1.5,2.1*3B
$GPGSV,3,1,09,25,87,351,46,29,61,216,45,12,48,097,29,31,40,303,43*7C
$GPGSV,3,2,09,02,39,072,37,14,18,239,28,04,12,035,30,10,04,059,*7D
$GPGSV,3,3,09,09,00,153,*4E
$GPRMC,101912.000,A,5229.6336,N,01319.5403,E,1.87,223.06,080912,,,A*69
$GPGGA,101913.000,5229.6333,N,01319.5395,E,1,05,2.3,36.6,M,44.8,M,,0000*61
$GPGSA,A,3,25,12,02,29,31,,,,,,,,4.8,2.3,4.2*36
$GPRMC,101913.000,A,5229.6333,N,01319.5395,E,1.85,239.55,080912,,,A*6A
$GPGGA,101914.000,5229.6332,N,01319.5385,E,1,05,2.3,36.6,M,44.8,M,,0000*66
$GPGSA,A,3,25,12,02,29,31,,,,,,,,4.8,2.3,4.2*36
$GPRMC,101914.000,A,5229.6332,N,01319.5385,E,2.01,248.28,080912,,,A*6E
$GPGGA,101915.000,5229.6330,N,01319.5375,E,1,05,2.3,36.6,M,44.8,M,,0000*6A
$GPGSA,A,3,25,12,02,29,31,,,,,,,,4.8,2.3,4.2*36
$GPRMC,101915.000,A,5229.6330,N,01319.5375,E,1.95,247.33,080912,,,A*69
$GPGGA,101916.000,5229.6327,N,01319.5365,E,1,05,2.3,36.6,M,44.8,M,,0000*6E
$GPGSA,A,3,25,12,02,29,31,,,,,,,,4.8,2.3,4.2*36
$GPRMC,101916.000,A,5229.6327,N,01319.5365,E,2.15,244.01,080912,,,A*64
$GPGGA,101917.000,5229.6325,N,01319.5356,E,1,04,2.4,36.6,M,44.8,M,,0000*6B
$GPGSA,A,3,25,02,29,31,,,,,,,,,5.0,2.4,4.3*3A
$GPGSV,3,1,09,25,87,355,48,29,62,217,44,12,48,097,,31,40,303,44*79
$GPGSV,3,2,09,02,39,072,33,14,18,239,,04,12,035,30,10,04,058,*72
$GPGSV,3,3,09,09,00,153,*4E
$GPRMC,101917.000,A,5229.6325,N,01319.5356,E,1.98,244.54,080912,,,A*61
$GPGGA,101918.000,5229.6322,N,01319.5348,E,1,05,2.3,36.6,M,44.8,M,,0000*6A
$GPGSA,A,3,12,25,02,29,31,,,,,,,,4.8,2.3,4.2*36
$GPRMC,101918.000,A,5229.6322,N,01319.5348,E,1.84,230.53,080912,,,A*6F
$GPGGA,101919.000,5229.6319,N,01319.5339,E,1,05,2.3,36.5,M,44.8,M,,0000*66
$GPGSA,A,3,12,25,02,29,31,,,,,,,,4.8,2.3,4.2*36
$GPRMC,101919.000,A,5229.6319,N,01319.5339,E,2.05,234.53,080912,,,A*6E
$GPGGA,101920.000,5229.6315,N,01319.5330,E,1,05,2.3,36.5,M,44.8,M,,0000*69
$GPGSA,A,3,12,25,02,29,31,,,,,,,,4.8,2.3,4.2*36
$GPRMC,101920.000,A,5229.6315,N,01319.5330,E,2.12,227.88,080912,,,A*63
$GPGGA,101921.000,5229.6312,N,01319.5321,E,1,05,2.3,36.6,M,44.8,M,,0000*6C
$GPGSA,A,3,12,25,02,29,31,,,,,,,,4.8,2.3,4.2*36
$GPRMC,101921.000,A,5229.6312,N,01319.5321,E,2.01,240.25,080912,,,A*61
$GPGGA,101922.000,5229.6310,N,01319.5312,E,1,05,2.3,36.6,M,44.8,M,,0000*6D
$GPGSA,A,3,12,25,02,29,31,,,,,,,,4.8,2.3,4.2*36
$GPGSV,3,1,09,25,87,355,48,29,62,217,44,12,48,097,32,31,40,303,44*78
$GPGSV,3,2,09,02,39,072,41,14,18,239,,04,12,035,30,10,04,058,*77
$GPGSV,3,3,09,09,00,153,*4E
$GPRMC,101922.000,A,5229.6310,N,01319.5312,E,1.88,239.99,080912,,,A*6B
$GPGGA,101923.000,5229.6307,N,01319.5303,E,1,05,2.3,36.7,M,44.8,M,,0000*6B
$GPGSA,A,3,12,25,02,29,31,,,,,,,,4.8,2.3,4.2*36
$GPRMC,101923.000,A,5229.6307,N,01319.5303,E,1.91,239.05,080912,,,A*61
$GPGGA,101924.000,5229.6306,N,01319.5297,E,1,05,2.3,36.6,M,44.8,M,,0000*60
$GPGSA,A,3,12,25,02,29,31,,,,,,,,4.8,2.3,4.2*36
$GPRMC,101924.000,A,5229.6306,N,01319.5297,E,1.14,252.63,080912,,,A*6B
$GPGGA,101925.000,5229.6304,N,01319.5289,E,1,05,2.3,36.5,M,44.8,M,,0000*6F
$GPGSA,A,3,12,25,02,29,31,,,,,,,,4.8,2.3,4.2*36
$GPRMC,101925.000,A,5229.6304,N,01319.5289,E,1.57,244.36,080912,,,A*67
$GPGGA,101926.000,5229.6302,N,01319.5281,E,1,05,2.3,36.4,M,44.8,M,,0000*63
$GPGSA,A,3,12,25,02,29,31,,,,,,,,4.8,2.3,4.2*36
$GPRMC,101926.000,A,5229.6302,N,01319.5281,E,1.71,235.30,080912,,,A*6E
$GPGGA,101927.000,5229.6298,N,01319.5274,E,1,05,2.3,36.2,M,44.8,M,,0000*6C
$GPGSA,A,3,12,25,02,29,31,,,,,,,,4.8,2.3,4.2*36
$GPGSV,3,1,09,25,87,355,48,29,62,217,40,12,48,097,32,31,40,303,45*7D
$GPGSV,3,2,09,02,39,072,40,14,18,239,,04,12,035,32,10,04,058,*74
$GPGSV,3,3,09,09,00,153,*4E
$GPRMC,101927.000,A,5229.6298,N,01319.5274,E,1.89,225.13,080912,,,A*60
$GPGGA,101928.000,5229.6293,N,01319.5266,E,1,05,2.3,36.1,M,44.8,M,,0000*68
$GPGSA,A,3,12,25,02,29,31,,,,,,,,4.8,2.3,4.2*36
$GPRMC,101928.000,A,5229.6293,N,01319.5266,E,2.23,219.27,080912,,,A*6C
$GPGGA,101929.000,5229.6288,N,01319.5259,E,1,05,2.3,36.1,M,44.8,M,,0000*6F
$GPGSA,A,3,12,25,02,29,31,,,,,,,,4.8,2.3,4.2*36
$GPRMC,101929.000,A,5229.6288,N,01319.5259,E,2.33,216.11,080912,,,A*60
$GPGGA,101930.000,5229.6284,N,01319.5251,E,1,05,2.3,36.2,M,44.8,M,,0000*60
$GPGSA,A,3,12,25,02,29,31,,,,,,,,4.8,2.3,4.2*36
$GPRMC,101930.000,A,5229.6284,N,01319.5251,E,2.13,225.20,080912,,,A*6C
$GPGGA,101931.000,5229.6280,N,01319.5244,E,1,05,2.3,36.3,M,44.8,M,,0000*60
$GPGSA,A,3,12,25,02,29,31,,,,,,,,4.8,2.3,4.2*36
$GPRMC,101931.000,A,5229.6280,N,01319.5244,E,1.89,220.27,080912,,,A*6F
$GPGGA,101932.000,5229.6276,N,01319.5238,E,1,05,2.3,36.4,M,44.8,M,,0000*66
$GPGSA,A,3,12,25,02,29,31,,,,,,,,4.8,2.3,4.2*36
$GPGSV,3,1,09,25,87,355,44,29,62,217,46,12,48,097,32,31,40,303,36*73
$GPGSV,3,2,09,02,39,072,33,14,18,239,,04,12,035,31,10,04,058,*73
$GPGSV,3,3,09,09,00,153,*4E
$GPRMC,101932.000,A,5229.6276,N,01319.5238,E,1.77,221.12,080912,,,A*68
$GPGGA,101933.000,5229.6272,N,01319.5232,E,1,05,2.3,36.5,M,44.8,M,,0000*68
$GPGSA,A,3,12,25,02,29,31,,,,,,,,4.8,2.3,4.2*36
$GPRMC,101933.000,A,5229.6272,N,01319.5232,E,1.79,225.78,080912,,,A*61
$GPGGA,101934.000,5229.6269,N,01319.5227,E,1,05,2.3,36.7,M,44.8,M,,0000*63
$GPGSA,A,3,12,25,02,29,31,,,,,,,,4.8,2.3,4.2*36
$GPRMC,101934.000,A,5229.6269,N,01319.5227,E,1.49,215.60,080912,,,A*61
$GPGGA,101935.000,5229.6266,N,01319.5221,E,1,05,2.3,36.8,M,44.8,M,,0000*64
$GPGSA,A,3,12,25,02,29,31,,,,,,,,4.8,2.3,4.2*36
